[{"id":"27564941","name":"Luanda","lat":-8.8272699,"lon":13.2439512,"type":"city"},{"id":"279009752","name":"Cabinda","lat":-5.5576435,"lon":12.1919468,"type":"city"},{"id":"279010032","name":"Huambo","lat":-12.7772455,"lon":15.7346713,"type":"city"},{"id":"279010261","name":"Lubango","lat":-14.9195617,"lon":13.4897509,"type":"city"},{"id":"279010365","name":"Cuíto","lat":-12.3849374,"lon":16.9390022,"type":"city"},{"id":"279010432","name":"Malanje","lat":-9.5483991,"lon":16.3475335,"type":"city"},{"id":"279010461","name":"Lobito","lat":-12.3506867,"lon":13.5464318,"type":"city"},{"id":"279010696","name":"Uíge","lat":-7.6117323,"lon":15.0563515,"type":"city"},{"id":"287872025","name":"Cacongo","lat":-5.2214872,"lon":12.1413085,"type":"town"},{"id":"293386732","name":"Saurimo","lat":-9.6589303,"lon":20.3981118,"type":"city"},{"id":"331385742","name":"Nzeto","lat":-7.2315951,"lon":12.8685053,"type":"town"},{"id":"331385964","name":"Sumbe","lat":-11.2019365,"lon":13.8396845,"type":"city"},{"id":"331385969","name":"Benguela","lat":-12.5790048,"lon":13.4037117,"type":"city"},{"id":"331386368","name":"Moçâmedes","lat":-15.195064,"lon":12.1458085,"type":"city"},{"id":"331390998","name":"Chibia","lat":-15.1853322,"lon":13.689893,"type":"town"},{"id":"331391461","name":"Chibemba","lat":-15.7521323,"lon":14.0763915,"type":"village"},{"id":"331391618","name":"Cahama","lat":-16.2827917,"lon":14.3025097,"type":"town"},{"id":"331392461","name":"Xangongo","lat":-16.7437343,"lon":14.9758269,"type":"town"},{"id":"331392785","name":"Ondjiva","lat":-17.0705234,"lon":15.7280115,"type":"city"},{"id":"349039206","name":"Luena","lat":-11.7790355,"lon":19.9122676,"type":"city"},{"id":"352680227","name":"Porto Amboim","lat":-10.7279102,"lon":13.7578988,"type":"town"},{"id":"352755148","name":"Tômbua","lat":-15.8020583,"lon":11.8540055,"type":"town"},{"id":"527844202","name":"Longonjo","lat":-12.9090358,"lon":15.2470902,"type":"town"},{"id":"561106241","name":"Cazombo","lat":-11.8981934,"lon":22.9061022,"type":"town"},{"id":"617981650","name":"Zenze do Lucula","lat":-5.1678792,"lon":12.5130439,"type":"village"},{"id":"668026961","name":"Cafunfo","lat":-8.7676566,"lon":18.0014181,"type":"town"},{"id":"668065028","name":"Lucapa","lat":-8.4195244,"lon":20.7410918,"type":"city"},{"id":"668066114","name":"Dundo","lat":-7.381086,"lon":20.833799,"type":"town"},{"id":"668074709","name":"Luau","lat":-10.7025518,"lon":22.2275381,"type":"town"},{"id":"668118730","name":"Munhango","lat":-12.1584604,"lon":18.5554962,"type":"town"},{"id":"668130569","name":"Menongue","lat":-14.6610713,"lon":17.6820336,"type":"city"},{"id":"668140647","name":"Andulo","lat":-11.4872704,"lon":16.6979384,"type":"town"},{"id":"668205047","name":"Caiundo","lat":-15.7014123,"lon":17.4599193,"type":"village"},{"id":"668897842","name":"M'banza Congo","lat":-6.2678204,"lon":14.2417957,"type":"city"},{"id":"668899392","name":"Maquela do Zombo","lat":-6.0608124,"lon":15.1075043,"type":"town"},{"id":"668900981","name":"Negage","lat":-7.7661309,"lon":15.2685532,"type":"town"},{"id":"668910420","name":"Lucusse","lat":-12.5252945,"lon":20.8192253,"type":"village"},{"id":"668999665","name":"Longa","lat":-14.6050148,"lon":18.4783695,"type":"village"},{"id":"669003924","name":"Cuito Cuanavale","lat":-15.1630289,"lon":19.1727434,"type":"town"},{"id":"669059480","name":"N'dalatando","lat":-9.2984831,"lon":14.9144981,"type":"city"},{"id":"669061690","name":"Dondo","lat":-9.6855676,"lon":14.4201324,"type":"town"},{"id":"701539851","name":"Cuango","lat":-9.1472811,"lon":18.0431019,"type":"town"},{"id":"701552410","name":"Quimbele","lat":-6.52441,"lon":16.2147179,"type":"town"},{"id":"769897715","name":"Viana","lat":-8.9053515,"lon":13.371089,"type":"village"},{"id":"769948081","name":"Cacuaco","lat":-8.7771098,"lon":13.3701655,"type":"town"},{"id":"881439559","name":"Cacula","lat":-14.4946099,"lon":14.1171209,"type":"town"},{"id":"881498986","name":"Alto Hama","lat":-12.2223547,"lon":15.5501418,"type":"town"},{"id":"929115276","name":"Cangandala","lat":-9.7896356,"lon":16.4288135,"type":"town"},{"id":"1088036631","name":"Lola","lat":-14.3042738,"lon":13.6046554,"type":"village"},{"id":"1088036731","name":"Munhino","lat":-14.9562737,"lon":12.9765057,"type":"village"},{"id":"1088428032","name":"Humbia","lat":-14.7333006,"lon":13.44998,"type":"village"},{"id":"1088428467","name":"Pambala","lat":-14.733389,"lon":13.4999499,"type":"village"},{"id":"1088429619","name":"Quilemba","lat":-14.77849,"lon":13.4970928,"type":"village"},{"id":"1088429635","name":"Bibala","lat":-14.7603106,"lon":13.3541294,"type":"town"},{"id":"1088509842","name":"Garganta","lat":-14.8335861,"lon":13.2002365,"type":"village"},{"id":"1088510163","name":"Cambongue","lat":-15.0166587,"lon":12.9166376,"type":"village"},{"id":"1088510356","name":"Assunção","lat":-14.8667271,"lon":13.1004496,"type":"village"},{"id":"1088741179","name":"Tolundo","lat":-14.699917,"lon":13.5000439,"type":"village"},{"id":"1088741202","name":"Humpata","lat":-15.0103622,"lon":13.3766075,"type":"town"},{"id":"1088846113","name":"Chicundi","lat":-15.3001508,"lon":13.2666771,"type":"village"},{"id":"1089146047","name":"Vau","lat":-15.5499664,"lon":13.0665913,"type":"village"},{"id":"1089146722","name":"Saiona","lat":-15.4335951,"lon":12.9667125,"type":"village"},{"id":"1089147238","name":"Fernandes","lat":-15.4334067,"lon":13.066572,"type":"village"},{"id":"1092163772","name":"Cachembi","lat":-12.7806737,"lon":15.9680694,"type":"village"},{"id":"1092163887","name":"Sécamo","lat":-12.9500993,"lon":15.9014266,"type":"village"},{"id":"1092163983","name":"Reimundo","lat":-12.7356131,"lon":15.6378572,"type":"village"},{"id":"1092164708","name":"Catica","lat":-12.830659,"lon":15.950187,"type":"village"},{"id":"1092164763","name":"Santa Nganguela","lat":-12.7904799,"lon":15.6736843,"type":"village"},{"id":"1092164793","name":"Capingana","lat":-12.833333,"lon":15.916667,"type":"village"},{"id":"1092272400","name":"Benfica","lat":-12.8828054,"lon":15.8162974,"type":"village"},{"id":"1092272523","name":"Caála","lat":-12.8484131,"lon":15.5581893,"type":"town"},{"id":"1092272679","name":"Calenga","lat":-12.8502536,"lon":15.4665308,"type":"village"},{"id":"1092274156","name":"Cália","lat":-12.759167,"lon":15.5175,"type":"village"},{"id":"1092332404","name":"Camihamba I","lat":-12.9,"lon":15.569722,"type":"village"},{"id":"1092332409","name":"Cavincia","lat":-12.898056,"lon":15.640278,"type":"village"},{"id":"1092332414","name":"Lépi","lat":-12.8760554,"lon":15.3957857,"type":"village"},{"id":"1092332418","name":"Calenguele II","lat":-12.952222,"lon":15.576111,"type":"village"},{"id":"1092332452","name":"Ngundji","lat":-12.8775,"lon":15.618611,"type":"village"},{"id":"1092332489","name":"Luquissa","lat":-12.9084504,"lon":15.6257907,"type":"village"},{"id":"1092332548","name":"Mâma","lat":-12.9440492,"lon":15.5183601,"type":"village"},{"id":"1092332737","name":"Camihamba II","lat":-12.916111,"lon":15.570833,"type":"village"},{"id":"1092332765","name":"Calenguele I","lat":-12.941111,"lon":15.572778,"type":"village"},{"id":"1092456868","name":"Ussissi","lat":-13.0625,"lon":15.498056,"type":"village"},{"id":"1092457364","name":"Sipiti","lat":-12.964444,"lon":15.565833,"type":"village"},{"id":"1092457973","name":"Lungo","lat":-13.064722,"lon":15.559167,"type":"village"},{"id":"1092458255","name":"Ngumbe","lat":-12.9894586,"lon":15.5367918,"type":"village"},{"id":"1092458458","name":"Cahopa","lat":-12.986389,"lon":15.566667,"type":"village"},{"id":"1092458639","name":"Mandele","lat":-13.0575689,"lon":15.5105724,"type":"village"},{"id":"1092458755","name":"Lilila","lat":-13.003056,"lon":15.588889,"type":"village"},{"id":"1092458865","name":"Severiano","lat":-12.973333,"lon":15.593889,"type":"village"},{"id":"1092536246","name":"Puacha","lat":-13.0009688,"lon":15.5595942,"type":"village"},{"id":"1092754537","name":"Mbongo","lat":-12.994247,"lon":15.342887,"type":"village"},{"id":"1092754593","name":"Elundi","lat":-12.992778,"lon":15.391944,"type":"village"},{"id":"1093755374","name":"Elanda","lat":-13.1825,"lon":15.408056,"type":"village"},{"id":"1093755480","name":"Ngolo","lat":-13.155556,"lon":15.343056,"type":"village"},{"id":"1093755585","name":"Epamba","lat":-13.205556,"lon":15.280278,"type":"village"},{"id":"1093755607","name":"Ndosse","lat":-13.1853996,"lon":15.4940944,"type":"village"},{"id":"1093755688","name":"Sacahuma","lat":-13.188056,"lon":15.318056,"type":"village"},{"id":"1093756081","name":"Saniuhini","lat":-12.580556,"lon":15.342778,"type":"village"},{"id":"1093756088","name":"Elenga","lat":-13.1052367,"lon":15.4749572,"type":"village"},{"id":"1093756437","name":"Ndumbo","lat":-13.193922,"lon":15.3633466,"type":"village"},{"id":"1093756444","name":"Sacandondo","lat":-13.141667,"lon":15.291111,"type":"village"},{"id":"1093756465","name":"Sahama","lat":-13.24,"lon":15.359167,"type":"village"},{"id":"1093756543","name":"Catáli Novo","lat":-13.225278,"lon":15.263611,"type":"village"},{"id":"1093756566","name":"Lombalaca","lat":-13.146944,"lon":15.496389,"type":"village"},{"id":"1093756594","name":"Sacanda","lat":-13.200556,"lon":15.306111,"type":"village"},{"id":"1093756697","name":"Somalia","lat":-13.180556,"lon":15.266667,"type":"village"},{"id":"1093756739","name":"Joaquim Pinto","lat":-13.1337548,"lon":15.4309505,"type":"village"},{"id":"1093756767","name":"Caluponde","lat":-12.566667,"lon":15.35,"type":"village"},{"id":"1093756780","name":"Iava","lat":-13.193056,"lon":15.288333,"type":"village"},{"id":"1093756853","name":"Mbuengo","lat":-12.568889,"lon":15.346667,"type":"village"},{"id":"1093756912","name":"Cutambela","lat":-13.246389,"lon":15.401389,"type":"village"},{"id":"1093756929","name":"Catchululo","lat":-13.2017318,"lon":15.4470342,"type":"village"},{"id":"1093756959","name":"Sima","lat":-13.148611,"lon":15.268889,"type":"village"},{"id":"1093756971","name":"Sacandumbo","lat":-13.180556,"lon":15.385278,"type":"village"},{"id":"1093757002","name":"Tchitete","lat":-13.248333,"lon":15.298333,"type":"village"},{"id":"1093757028","name":"Damasco","lat":-13.177222,"lon":15.293889,"type":"village"},{"id":"1093757037","name":"Balavandê","lat":-13.1607855,"lon":15.3690465,"type":"village"},{"id":"1093757079","name":"Mbangela I","lat":-12.573056,"lon":15.336111,"type":"village"},{"id":"1093757105","name":"Fazenda Cuando","lat":-13.15,"lon":15.216667,"type":"village"},{"id":"1093782098","name":"Ecunha","lat":-12.6827618,"lon":15.5055345,"type":"town"},{"id":"1093782229","name":"Livongue","lat":-12.7256661,"lon":15.6075357,"type":"village"},{"id":"1093809831","name":"Chipipa","lat":-12.5637113,"lon":15.7402603,"type":"village"},{"id":"1093867733","name":"Tchindumbo","lat":-12.383333,"lon":15.816667,"type":"village"},{"id":"1094243165","name":"Cambondo","lat":-12.35,"lon":15.2,"type":"village"},{"id":"1094244099","name":"Nossi","lat":-12.35,"lon":15.216667,"type":"village"},{"id":"1094246109","name":"Cumiandundo","lat":-12.366667,"lon":15.2,"type":"village"},{"id":"1094516183","name":"Cungungo","lat":-12.1146815,"lon":15.6327524,"type":"village"},{"id":"1094516322","name":"Candande","lat":-12.166667,"lon":15.616667,"type":"village"},{"id":"1094518045","name":"Bango","lat":-12.1,"lon":15.633333,"type":"village"},{"id":"1094519475","name":"Banda","lat":-12.0852008,"lon":15.8022285,"type":"village"},{"id":"1094519503","name":"Camissanga","lat":-12.083333,"lon":15.8,"type":"village"},{"id":"1094519650","name":"Caiaiula","lat":-12.183333,"lon":15.666667,"type":"village"},{"id":"1094519725","name":"Cambala","lat":-12.1419631,"lon":15.5833103,"type":"village"},{"id":"1094519983","name":"Simba","lat":-12.0800608,"lon":15.5478319,"type":"village"},{"id":"1094520907","name":"Baú","lat":-12.066667,"lon":15.666667,"type":"village"},{"id":"1094521450","name":"Águas Quentas","lat":-12.15,"lon":15.516667,"type":"village"},{"id":"1094521544","name":"Alcides Silva","lat":-12.166667,"lon":15.766667,"type":"village"},{"id":"1094522831","name":"Ganga","lat":-12.0867573,"lon":15.8023876,"type":"village"},{"id":"1094522854","name":"Canguengue","lat":-12.1,"lon":15.716667,"type":"village"},{"id":"1094523194","name":"Catuta","lat":-12.183333,"lon":15.716667,"type":"village"},{"id":"1094523434","name":"Mendes e Sobrinho","lat":-12.183333,"lon":15.7,"type":"village"},{"id":"1094523505","name":"Chinhara","lat":-12.116667,"lon":15.633333,"type":"village"},{"id":"1094523791","name":"Cavinda","lat":-12.1,"lon":15.516667,"type":"village"},{"id":"1094524585","name":"Candande","lat":-12.1,"lon":15.766667,"type":"village"},{"id":"1094525101","name":"Chipipa","lat":-12.183333,"lon":15.783333,"type":"village"},{"id":"1094525294","name":"Oliveira","lat":-12.066667,"lon":15.85,"type":"village"},{"id":"1094525717","name":"António Braz","lat":-12.133333,"lon":15.7,"type":"village"},{"id":"1094525826","name":"Mendes e Sobrinho","lat":-12.183333,"lon":15.65,"type":"village"},{"id":"1094525866","name":"Candimbe","lat":-12.1137881,"lon":15.5644939,"type":"village"},{"id":"1094767907","name":"Lemiro","lat":-12.1,"lon":15.433333,"type":"village"},{"id":"1094768013","name":"Caueal","lat":-12.3027844,"lon":15.266667,"type":"village"},{"id":"1094768028","name":"Cacande","lat":-12.1,"lon":15.266667,"type":"village"},{"id":"1094768104","name":"Cuunjo","lat":-12.0993952,"lon":15.3032254,"type":"village"},{"id":"1094768142","name":"Benguela","lat":-12.1,"lon":15.283333,"type":"village"},{"id":"1094768165","name":"Chipala","lat":-12.083333,"lon":15.266667,"type":"village"},{"id":"1094768260","name":"Lumango","lat":-12.0978113,"lon":15.2502487,"type":"village"},{"id":"1094768282","name":"Cavinda","lat":-12.066667,"lon":15.4,"type":"village"},{"id":"1094768350","name":"Chicula","lat":-12.066667,"lon":15.416667,"type":"village"},{"id":"1094768355","name":"Cucalesse","lat":-12.2,"lon":15.2,"type":"village"},{"id":"1094768422","name":"Lonundo","lat":-12.1,"lon":15.5,"type":"village"},{"id":"1094768432","name":"Mandumbo","lat":-12.083333,"lon":15.233333,"type":"village"},{"id":"1094768448","name":"Santo","lat":-12.083333,"lon":15.283333,"type":"village"},{"id":"1094768480","name":"Chilundulo","lat":-12.15,"lon":15.216667,"type":"village"},{"id":"1094768560","name":"Saiobe","lat":-12.083333,"lon":15.4,"type":"village"},{"id":"1094768647","name":"Casimiro Coelho Borges","lat":-12.25,"lon":15.233333,"type":"village"},{"id":"1094768740","name":"Bunje","lat":-12.1,"lon":15.233333,"type":"village"},{"id":"1094768822","name":"Albano Vieira","lat":-12.183333,"lon":15.316667,"type":"village"},{"id":"1094769003","name":"Albano Vieira","lat":-12.1864985,"lon":15.216667,"type":"village"},{"id":"1094769165","name":"Catongo","lat":-12.066667,"lon":15.35,"type":"village"},{"id":"1094769281","name":"Gumbe","lat":-12.1035623,"lon":15.5006072,"type":"village"},{"id":"1094769293","name":"Cachiombo","lat":-12.083333,"lon":15.216667,"type":"village"},{"id":"1094769481","name":"Chipepe","lat":-12.083333,"lon":15.483333,"type":"village"},{"id":"1094769538","name":"Serrote","lat":-12.1,"lon":15.25,"type":"village"},{"id":"1094769559","name":"Palanca","lat":-12.233333,"lon":15.233333,"type":"village"},{"id":"1094769687","name":"António Bastos e Silva","lat":-12.1202291,"lon":15.4339402,"type":"village"},{"id":"1094769880","name":"Jinga","lat":-12.2,"lon":15.283333,"type":"village"},{"id":"1094769907","name":"Chilembo","lat":-12.3,"lon":15.266667,"type":"village"},{"id":"1094770168","name":"Pereira e Pinto","lat":-12.283333,"lon":15.233333,"type":"village"},{"id":"1094770378","name":"Gaiambuca","lat":-12.116667,"lon":15.433333,"type":"village"},{"id":"1094770522","name":"Caiumboca","lat":-12.0868955,"lon":15.4006072,"type":"village"},{"id":"1094770618","name":"Linha","lat":-12.066667,"lon":15.216667,"type":"village"},{"id":"1094770680","name":"Sambiano","lat":-12.2,"lon":15.25,"type":"village"},{"id":"1094770862","name":"Conga","lat":-12.316667,"lon":15.2,"type":"village"},{"id":"1094770878","name":"Chibandua","lat":-12.116667,"lon":15.283333,"type":"village"},{"id":"1094770976","name":"Maculata","lat":-12.133333,"lon":15.233333,"type":"village"},{"id":"1094771269","name":"Dunduma","lat":-12.083333,"lon":15.2,"type":"village"},{"id":"1094771411","name":"Chaiuala","lat":-12.116667,"lon":15.3,"type":"village"},{"id":"1094771625","name":"Martinho","lat":-12.133333,"lon":15.416667,"type":"village"},{"id":"1094771671","name":"Essanjo","lat":-12.066667,"lon":15.233333,"type":"village"},{"id":"1094771767","name":"Chiuvo","lat":-12.3001296,"lon":15.2333993,"type":"village"},{"id":"1094771925","name":"Malungo","lat":-12.133333,"lon":15.466667,"type":"village"},{"id":"1094771936","name":"Mutite","lat":-12.283333,"lon":15.25,"type":"village"},{"id":"1094772009","name":"Assipi","lat":-12.1,"lon":15.316667,"type":"village"},{"id":"1094772051","name":"Sassiri","lat":-12.116667,"lon":15.266667,"type":"village"},{"id":"1094772154","name":"Canjimbe","lat":-12.283333,"lon":15.283333,"type":"village"},{"id":"1094772257","name":"Chiqueme","lat":-12.183333,"lon":15.216667,"type":"village"},{"id":"1098341803","name":"Catucuma","lat":-12.0707123,"lon":15.133333,"type":"village"},{"id":"1098341948","name":"Sauanda","lat":-12.383333,"lon":15.133333,"type":"village"},{"id":"1098342063","name":"Galanga","lat":-12.0622657,"lon":15.1387618,"type":"village"},{"id":"1098342066","name":"Cumbira","lat":-12.183333,"lon":15.133333,"type":"village"},{"id":"1098342180","name":"Cachetiongue","lat":-12.183333,"lon":15.15,"type":"village"},{"id":"1098342224","name":"Calundo","lat":-12.466667,"lon":15.033333,"type":"village"},{"id":"1098342252","name":"Sacauaua","lat":-12.35,"lon":15.116667,"type":"village"},{"id":"1098342298","name":"Cangôma","lat":-12.366667,"lon":15.083333,"type":"village"},{"id":"1098342303","name":"Beú","lat":-12.133333,"lon":15.116667,"type":"village"},{"id":"1098342343","name":"Chacuma","lat":-12.483333,"lon":15.05,"type":"village"},{"id":"1098342345","name":"Candeleia","lat":-12.083333,"lon":15.116667,"type":"village"},{"id":"1098342401","name":"Panda","lat":-12.066667,"lon":15.033333,"type":"village"},{"id":"1098342422","name":"Binde","lat":-12.366667,"lon":15.15,"type":"village"},{"id":"1098342425","name":"Chinjonga","lat":-12.116667,"lon":15.083333,"type":"village"},{"id":"1098342456","name":"Sango","lat":-12.316667,"lon":15.05,"type":"village"},{"id":"1098342472","name":"Chacumba","lat":-12.1,"lon":15.133333,"type":"village"},{"id":"1098342482","name":"Conga","lat":-12.3,"lon":15.183333,"type":"village"},{"id":"1098342514","name":"Embala do Soque","lat":-12.333333,"lon":15.116667,"type":"village"},{"id":"1098342517","name":"Chiquea","lat":-12.083333,"lon":15.066667,"type":"village"},{"id":"1102740369","name":"Xonguela","lat":-8.0555345,"lon":18.6481783,"type":"village"},{"id":"1102740377","name":"Salucala","lat":-8.0536101,"lon":18.7136513,"type":"village"},{"id":"1148111529","name":"Sassalemba","lat":-8.6591751,"lon":13.5006239,"type":"town"},{"id":"1148112958","name":"Panguila","lat":-8.6984151,"lon":13.4474857,"type":"town"},{"id":"1148114086","name":"Barra do Dande","lat":-8.4714533,"lon":13.3686966,"type":"village"},{"id":"1148114736","name":"Açucareira","lat":-8.6009,"lon":13.6093719,"type":"village"},{"id":"1251148044","name":"Camacupa","lat":-12.0224433,"lon":17.4705214,"type":"town"},{"id":"1251156940","name":"Cunhinga","lat":-12.2338631,"lon":16.7817695,"type":"town"},{"id":"1251159048","name":"Chinguar","lat":-12.5588531,"lon":16.3383776,"type":"town"},{"id":"1416900513","name":"Muxima","lat":-9.5179312,"lon":13.957254,"type":"village"},{"id":"1417840848","name":"Catete","lat":-9.1099855,"lon":13.6895459,"type":"town"},{"id":"1635236193","name":"Zango I","lat":-9.0098593,"lon":13.4052067,"type":"village"},{"id":"1635307761","name":"Zango II","lat":-9.0194983,"lon":13.4074622,"type":"village"},{"id":"1635308781","name":"Zango IV","lat":-9.0624314,"lon":13.4156373,"type":"village"},{"id":"1635308790","name":"Zango III","lat":-9.0481025,"lon":13.4118838,"type":"village"},{"id":"1635308795","name":"Zango V","lat":-9.0924985,"lon":13.4216883,"type":"village"},{"id":"1635343369","name":"Zango 0","lat":-8.9834838,"lon":13.4009903,"type":"village"},{"id":"1635348608","name":"Cidade do Kilamba","lat":-8.9981501,"lon":13.2651632,"type":"town"},{"id":"1636170034","name":"Kaxikane","lat":-9.2024498,"lon":13.6843582,"type":"village"},{"id":"1636208197","name":"Cacefo","lat":-9.2822082,"lon":13.7771664,"type":"village"},{"id":"1636208459","name":"Macesso","lat":-9.2694907,"lon":13.7858358,"type":"village"},{"id":"1636208757","name":"Cabala","lat":-9.2793732,"lon":13.7487961,"type":"village"},{"id":"1637367096","name":"Kifica","lat":-8.9553775,"lon":13.1801473,"type":"village"},{"id":"1640486694","name":"Cazenga","lat":-8.8362339,"lon":13.2943098,"type":"village"},{"id":"1640513098","name":"Hoji-Ya-Henda","lat":-8.8081813,"lon":13.2907216,"type":"village"},{"id":"1645765148","name":"Caio","lat":-5.4804141,"lon":12.2334868,"type":"village"},{"id":"1645775759","name":"Futila","lat":-5.4407826,"lon":12.2157294,"type":"village"},{"id":"1645785701","name":"Malembo","lat":-5.3392391,"lon":12.1886158,"type":"village"},{"id":"1646572747","name":"Lucola","lat":-5.5350032,"lon":12.255338,"type":"village"},{"id":"1646574435","name":"Icaso","lat":-5.123788,"lon":12.1943179,"type":"village"},{"id":"1709770267","name":"Nzagi","lat":-7.6962734,"lon":21.3670669,"type":"town"},{"id":"1709791687","name":"Canzar","lat":-7.6234532,"lon":21.562739,"type":"town"},{"id":"1717934134","name":"Calonda","lat":-8.4684486,"lon":20.550796,"type":"town"},{"id":"1718720844","name":"Luacano","lat":-11.2110832,"lon":21.6536109,"type":"town"},{"id":"1728967415","name":"Bucomazi","lat":-5.451086,"lon":12.2194603,"type":"village"},{"id":"1728968909","name":"Simulambuco","lat":-5.5568089,"lon":12.2276545,"type":"village"},{"id":"1729009809","name":"Xá-Muteba","lat":-9.5169617,"lon":17.811253,"type":"town"},{"id":"1729023481","name":"Cambôlo","lat":-9.2302019,"lon":18.1616354,"type":"village"},{"id":"1729023482","name":"Changuaguenzua","lat":-9.3143444,"lon":18.3537235,"type":"village"},{"id":"1729023495","name":"Ouissueia","lat":-9.1601034,"lon":18.0784704,"type":"village"},{"id":"1729183512","name":"Mazi","lat":-5.4521373,"lon":12.2653739,"type":"village"},{"id":"1729186115","name":"Chiadede","lat":-5.416934,"lon":12.2898099,"type":"village"},{"id":"1729196276","name":"Baca","lat":-5.4883576,"lon":12.3695287,"type":"village"},{"id":"1729387041","name":"Cuilo","lat":-8.2369149,"lon":19.5246121,"type":"town"},{"id":"1729391041","name":"Caluango","lat":-8.2678751,"lon":19.6999398,"type":"town"},{"id":"1737950971","name":"Buela","lat":-5.9180592,"lon":14.5503923,"type":"town"},{"id":"1737950972","name":"Cuimba","lat":-6.1219639,"lon":14.6217928,"type":"town"},{"id":"1737990975","name":"Quibocolo","lat":-6.2762812,"lon":15.0685397,"type":"town"},{"id":"1738235131","name":"Béu","lat":-6.231149,"lon":15.4655974,"type":"village"},{"id":"1738385270","name":"Damba","lat":-6.6829437,"lon":15.1361794,"type":"town"},{"id":"1738440071","name":"Quinzala","lat":-6.8982122,"lon":15.3178888,"type":"town"},{"id":"1738671244","name":"Martelo","lat":-6.8841654,"lon":15.2284256,"type":"village"},{"id":"1738671245","name":"Quimulombe","lat":-6.9049719,"lon":15.3318022,"type":"village"},{"id":"1738671246","name":"Quimuanza Molo","lat":-6.9065709,"lon":15.226796,"type":"village"},{"id":"1738671247","name":"Gingolosaco","lat":-6.911381,"lon":15.3350426,"type":"village"},{"id":"1738671248","name":"Cainza","lat":-6.9188337,"lon":15.3085746,"type":"village"},{"id":"1738671249","name":"Quindrovite","lat":-6.9452037,"lon":15.3060722,"type":"village"},{"id":"1738671250","name":"Quimulombe","lat":-6.9819856,"lon":15.3130982,"type":"village"},{"id":"1738671251","name":"Banza Vinde","lat":-6.9880543,"lon":15.2195337,"type":"village"},{"id":"1738672639","name":"Conzo","lat":-6.9239897,"lon":15.3835719,"type":"village"},{"id":"1738672640","name":"Quicongo","lat":-6.9344176,"lon":15.3717862,"type":"village"},{"id":"1738672641","name":"Quimucanza","lat":-6.9322557,"lon":15.4181602,"type":"village"},{"id":"1738679609","name":"Coquilo","lat":-7.0180632,"lon":15.309675,"type":"village"},{"id":"1738821695","name":"Cangola","lat":-7.9759706,"lon":15.8523999,"type":"town"},{"id":"1738821696","name":"Sanza Pombo","lat":-7.3096446,"lon":15.9977989,"type":"town"},{"id":"1738824532","name":"Quilumbo","lat":-7.3811049,"lon":15.9411394,"type":"village"},{"id":"1738824536","name":"Quicuni","lat":-7.2896013,"lon":15.94299,"type":"village"},{"id":"1738824542","name":"Quimatumbi","lat":-7.349697,"lon":15.9489492,"type":"village"},{"id":"1738824545","name":"Quissala","lat":-7.2689673,"lon":15.931231,"type":"village"},{"id":"1738824546","name":"Tacabunga","lat":-7.2805691,"lon":15.9343311,"type":"village"},{"id":"1739019303","name":"Puri","lat":-7.6927721,"lon":15.6527082,"type":"town"},{"id":"1744843868","name":"Cucumbi","lat":-10.2809173,"lon":19.0491152,"type":"town"},{"id":"1744843869","name":"Xassengue","lat":-10.4580869,"lon":18.5312198,"type":"town"},{"id":"1745855438","name":"Luando","lat":-11.6205132,"lon":18.4670804,"type":"town"},{"id":"1804595070","name":"Chingo","lat":-14.2204569,"lon":12.8961617,"type":"village"},{"id":"1810845639","name":"Catofe","lat":-10.8645168,"lon":15.054853,"type":"village"},{"id":"1838793849","name":"Palmeirinhas","lat":-9.1175207,"lon":13.0209797,"type":"village"},{"id":"1838795445","name":"Barra do Cuanza","lat":-9.3197336,"lon":13.1558495,"type":"village"},{"id":"1841024221","name":"Longa","lat":-10.1933339,"lon":13.517237,"type":"village"},{"id":"1844114263","name":"Baía Azul","lat":-12.6244865,"lon":13.234194,"type":"village"},{"id":"1844879445","name":"Caota","lat":-12.5952031,"lon":13.2701756,"type":"village"},{"id":"1873689582","name":"Catabola","lat":-12.142243,"lon":17.2856051,"type":"town"},{"id":"1941416433","name":"Môngua","lat":-16.7269377,"lon":15.3544242,"type":"village"},{"id":"1942500524","name":"Namacunde","lat":-17.3048867,"lon":15.8422095,"type":"village"},{"id":"1942500917","name":"Santa Clara","lat":-17.382656,"lon":15.888741,"type":"village"},{"id":"1942812269","name":"Quihita","lat":-15.3777412,"lon":13.9620774,"type":"village"},{"id":"1943944512","name":"Humbe","lat":-16.6857877,"lon":14.9048601,"type":"village"},{"id":"1947726366","name":"Quipungo","lat":-14.8256306,"lon":14.54879,"type":"town"},{"id":"1947750126","name":"Hoque","lat":-14.6617003,"lon":13.8994198,"type":"town"},{"id":"1947750131","name":"Chicungo","lat":-14.8772427,"lon":14.190807,"type":"village"},{"id":"1949376211","name":"Quilengues","lat":-14.076276,"lon":14.0733602,"type":"town"},{"id":"1950305670","name":"Chongoroi","lat":-13.57791,"lon":13.9418182,"type":"town"},{"id":"1952447133","name":"Catengue","lat":-13.0289042,"lon":13.7367955,"type":"village"},{"id":"2007727629","name":"Sangano","lat":-9.5570231,"lon":13.2099421,"type":"village"},{"id":"2007727658","name":"Cabo Ledo","lat":-9.6556666,"lon":13.2388885,"type":"village"},{"id":"2024911236","name":"Funda","lat":-8.8448105,"lon":13.5486368,"type":"village"},{"id":"2042133895","name":"Banza Macusso","lat":-8.8692597,"lon":15.1011813,"type":"village"},{"id":"2047594196","name":"Aldeia Vicosa","lat":-8.2812743,"lon":14.804734,"type":"village"},{"id":"2047594233","name":"Vista Alegre","lat":-8.2903092,"lon":14.8015154,"type":"village"},{"id":"2051103707","name":"Soyo","lat":-6.1387951,"lon":12.3690144,"type":"town"},{"id":"2051146926","name":"Camabatela","lat":-8.188669,"lon":15.3742111,"type":"town"},{"id":"2051181361","name":"Luinga","lat":-8.4671845,"lon":15.6076705,"type":"village"},{"id":"2051194066","name":"Cangundo Quilalo","lat":-8.3931488,"lon":15.4518664,"type":"village"},{"id":"2051464669","name":"Samba Caju","lat":-8.7604755,"lon":15.4106955,"type":"village"},{"id":"2051843166","name":"Malari","lat":-11.4886128,"lon":22.8430409,"type":"village"},{"id":"2051843167","name":"Nana Candundo","lat":-11.5186585,"lon":23.0211941,"type":"town"},{"id":"2052638496","name":"Cangamba","lat":-13.6948633,"lon":19.859586,"type":"town"},{"id":"2052643522","name":"Lumbala Caquengue","lat":-12.6412937,"lon":22.5872144,"type":"village"},{"id":"2054209429","name":"Lumai","lat":-13.2769973,"lon":21.2013199,"type":"village"},{"id":"2059695908","name":"Bom Jesus","lat":-9.1312653,"lon":13.5650598,"type":"village"},{"id":"2072489831","name":"Botomona","lat":-9.1385994,"lon":13.7948374,"type":"village"},{"id":"2097639547","name":"Chemboca","lat":-13.8130508,"lon":21.4667586,"type":"village"},{"id":"2097639559","name":"Lumbala N’guimbo","lat":-14.1017843,"lon":21.4334366,"type":"village"},{"id":"2097749610","name":"Calai","lat":-17.8874114,"lon":19.7692612,"type":"town"},{"id":"2099518526","name":"Cabo","lat":-17.316667,"lon":18.35,"type":"village"},{"id":"2099521724","name":"Dirico","lat":-17.9847024,"lon":20.7769309,"type":"town"},{"id":"2100103465","name":"Jamba","lat":-14.6902435,"lon":16.0305922,"type":"town"},{"id":"2100352725","name":"Cambole","lat":-14.065617,"lon":16.4225845,"type":"village"},{"id":"2100352730","name":"Catala","lat":-14.3217392,"lon":16.3413312,"type":"village"},{"id":"2100352731","name":"Mingueve","lat":-13.5145992,"lon":16.5000369,"type":"village"},{"id":"2107764046","name":"Cachingues","lat":-13.0710466,"lon":16.7506494,"type":"village"},{"id":"2107764052","name":"Chitembo","lat":-13.5139271,"lon":16.7566586,"type":"village"},{"id":"2109204066","name":"Ecovongo","lat":-12.5276212,"lon":16.9606354,"type":"village"},{"id":"2111968667","name":"Pipas","lat":-14.9510829,"lon":12.1924406,"type":"village"},{"id":"2113127490","name":"Banga","lat":-8.7288046,"lon":15.169027,"type":"village"},{"id":"2113130024","name":"Quiculungo","lat":-8.5170053,"lon":15.3114563,"type":"village"},{"id":"2113398517","name":"Bolongongo","lat":-8.4640821,"lon":15.2487149,"type":"village"},{"id":"2116937544","name":"Caconda","lat":-13.7388452,"lon":15.0619677,"type":"town"},{"id":"2116937567","name":"Chicomba","lat":-14.1384141,"lon":14.9124173,"type":"village"},{"id":"2119951000","name":"Chipindo","lat":-13.8178352,"lon":15.7878658,"type":"town"},{"id":"2119951001","name":"Cuima","lat":-13.2430247,"lon":15.6407312,"type":"town"},{"id":"2120483965","name":"Bunjei","lat":-13.5407375,"lon":16.0206298,"type":"village"},{"id":"2120483968","name":"Cavinda","lat":-13.1138974,"lon":15.8249013,"type":"village"},{"id":"2120484210","name":"Caluco Cambadula","lat":-13.1137415,"lon":15.965259,"type":"village"},{"id":"2122883186","name":"Sacomar","lat":-15.1215062,"lon":12.1495995,"type":"village"},{"id":"2123076989","name":"Mainha","lat":-16.3345721,"lon":22.0310057,"type":"village"},{"id":"2123967323","name":"Cambondo","lat":-9.1633013,"lon":14.6658735,"type":"village"},{"id":"2123967324","name":"Canhoca","lat":-9.2506221,"lon":14.6824216,"type":"village"},{"id":"2123967326","name":"Capanda","lat":-9.774436,"lon":15.4449394,"type":"village"},{"id":"2123967331","name":"Maria Teresa","lat":-9.2524617,"lon":14.104218,"type":"village"},{"id":"2123970303","name":"Quilombo-quia-Puto","lat":-9.0838531,"lon":14.7131932,"type":"village"},{"id":"2124552478","name":"Mabubas","lat":-8.5302719,"lon":13.6914266,"type":"village"},{"id":"2124653703","name":"Ambriz","lat":-7.844312,"lon":13.106493,"type":"town"},{"id":"2126489157","name":"Cubal","lat":-13.0398231,"lon":14.2479795,"type":"town"},{"id":"2126891325","name":"Ganda","lat":-13.0172603,"lon":14.6358601,"type":"town"},{"id":"2127341181","name":"Caluquembe","lat":-13.7871187,"lon":14.6887021,"type":"town"},{"id":"2127341182","name":"Chicuma","lat":-13.4335583,"lon":14.8711814,"type":"village"},{"id":"2127342283","name":"Iambala","lat":-13.365518,"lon":14.5028324,"type":"village"},{"id":"2128857252","name":"Massango","lat":-7.4356981,"lon":17.0594488,"type":"village"},{"id":"2128859589","name":"Quicuto","lat":-7.4187969,"lon":17.0860652,"type":"village"},{"id":"2128859602","name":"Quilonda","lat":-7.381394,"lon":17.0606762,"type":"village"},{"id":"2128859617","name":"Tembo Aluma","lat":-7.7183759,"lon":17.2717828,"type":"village"},{"id":"2129811924","name":"Cuemba","lat":-12.15,"lon":18.083333,"type":"town"},{"id":"2129931663","name":"Uacu Cungo","lat":-11.36343,"lon":15.120778,"type":"village"},{"id":"2130509845","name":"Bailundo","lat":-12.1921556,"lon":15.8609227,"type":"town"},{"id":"2130509847","name":"Bimbe","lat":-11.8199442,"lon":15.8294768,"type":"village"},{"id":"2130509848","name":"Cela","lat":-11.4228208,"lon":15.125556,"type":"town"},{"id":"2130509849","name":"Cumbúndi Cungo","lat":-11.4274652,"lon":15.0752397,"type":"village"},{"id":"2130509854","name":"Mande Cungo","lat":-11.449352,"lon":15.103654,"type":"village"},{"id":"2130511899","name":"Quicocoto","lat":-11.4076914,"lon":15.1054108,"type":"village"},{"id":"2130511908","name":"Quissecula","lat":-11.3941206,"lon":15.0883649,"type":"village"},{"id":"2130511914","name":"Santomistas","lat":-11.4292331,"lon":15.1198239,"type":"village"},{"id":"2130718989","name":"Amboíva","lat":-11.5287203,"lon":14.7335897,"type":"village"},{"id":"2130718999","name":"Luvemba (São Miguel)","lat":-12.0218981,"lon":15.5960214,"type":"village"},{"id":"2130851089","name":"Cacungulo","lat":-10.7200561,"lon":14.9772226,"type":"village"},{"id":"2130851714","name":"Quibala","lat":-10.7325439,"lon":14.9805493,"type":"town"},{"id":"2130851716","name":"Sanga","lat":-10.8555121,"lon":14.5988143,"type":"village"},{"id":"2132264181","name":"Caibola","lat":-10.351518,"lon":17.5095978,"type":"village"},{"id":"2132264197","name":"Cambundi Catembo","lat":-10.0824806,"lon":17.5568116,"type":"town"},{"id":"2132264218","name":"Candjungo","lat":-10.6177636,"lon":17.6289881,"type":"village"},{"id":"2132264279","name":"Cunga","lat":-10.1030376,"lon":17.5730187,"type":"village"},{"id":"2132264283","name":"Dumba Cambango","lat":-10.3486162,"lon":17.425336,"type":"village"},{"id":"2132264330","name":"Moma","lat":-10.3539881,"lon":17.4965193,"type":"village"},{"id":"2132264396","name":"Ngana Ngonga","lat":-10.071193,"lon":17.5437745,"type":"village"},{"id":"2132264413","name":"Ngando","lat":-10.1666751,"lon":17.4093968,"type":"village"},{"id":"2132264417","name":"Ngimbo","lat":-10.052345,"lon":17.568936,"type":"village"},{"id":"2132267613","name":"Rimba","lat":-10.579035,"lon":17.5585986,"type":"village"},{"id":"2132267615","name":"Sanza","lat":-10.341523,"lon":17.543614,"type":"village"},{"id":"2132267630","name":"Simbango","lat":-10.15568,"lon":17.410539,"type":"village"},{"id":"2132267641","name":"Tchambambe","lat":-10.349677,"lon":17.5703995,"type":"village"},{"id":"2132267642","name":"Tchamujiba","lat":-10.3458306,"lon":17.5606404,"type":"village"},{"id":"2134693990","name":"Calueque","lat":-17.278636,"lon":14.53663,"type":"village"},{"id":"2135001799","name":"Chinjenje","lat":-12.8212961,"lon":14.93148,"type":"village"},{"id":"2135001800","name":"Ukuma","lat":-12.8631375,"lon":15.06554,"type":"town"},{"id":"2135765088","name":"Cangumbe","lat":-11.9559401,"lon":19.2036717,"type":"village"},{"id":"2135810560","name":"Cuanza","lat":-11.9947757,"lon":17.656864,"type":"village"},{"id":"2136263972","name":"Banza-Uba","lat":-11.0944748,"lon":14.7801232,"type":"village"},{"id":"2136263973","name":"Caquende Cunda","lat":-11.1035858,"lon":14.7571525,"type":"village"},{"id":"2136263977","name":"Mussende Quissobe","lat":-11.1434732,"lon":14.8904823,"type":"village"},{"id":"2136263978","name":"Ndala Quissobe","lat":-11.1358147,"lon":14.8460013,"type":"village"},{"id":"2136263979","name":"Palanca-Uba","lat":-11.1194396,"lon":14.8058946,"type":"village"},{"id":"2136264827","name":"Kissanje","lat":-10.8531586,"lon":14.5905497,"type":"village"},{"id":"2136264831","name":"Quissobe","lat":-11.1484323,"lon":14.8634987,"type":"village"},{"id":"2136264841","name":"Tacanho","lat":-11.1447558,"lon":14.8863049,"type":"village"},{"id":"2137122915","name":"Assembleia Chôa","lat":-10.969174,"lon":14.600001,"type":"village"},{"id":"2137122917","name":"Bango Ebo","lat":-11.0980467,"lon":14.6414782,"type":"village"},{"id":"2137122920","name":"Banza Chôa","lat":-10.952424,"lon":14.5942863,"type":"village"},{"id":"2137122921","name":"Banza Cunda","lat":-11.0796388,"lon":14.7310233,"type":"village"},{"id":"2137122922","name":"Bem-vindo","lat":-10.8374703,"lon":14.5563696,"type":"village"},{"id":"2137122929","name":"Catala Chôa","lat":-10.968559,"lon":14.617238,"type":"village"},{"id":"2137122931","name":"Ebo","lat":-11.0464661,"lon":14.6965743,"type":"village"},{"id":"2137122932","name":"Ebo","lat":-11.0488249,"lon":14.7187766,"type":"village"},{"id":"2137122935","name":"Hala Chôa","lat":-11.0135485,"lon":14.606449,"type":"village"},{"id":"2137122936","name":"Jamba","lat":-11.0980676,"lon":14.6713365,"type":"village"},{"id":"2137122937","name":"Jia","lat":-10.8056246,"lon":14.5212201,"type":"village"},{"id":"2137122939","name":"Lago Dilolo","lat":-11.503205,"lon":22.0156915,"type":"village"},{"id":"2137122944","name":"Maquimba","lat":-11.0804134,"lon":14.7114626,"type":"village"},{"id":"2137122947","name":"Mussende Chôa","lat":-10.952348,"lon":14.616571,"type":"village"},{"id":"2137122950","name":"Ngungo Canhali","lat":-11.0221327,"lon":14.5920354,"type":"village"},{"id":"2137123082","name":"Cudissanga","lat":-10.8129898,"lon":14.4887206,"type":"village"},{"id":"2137125198","name":"Quianeca","lat":-10.8016487,"lon":14.5034814,"type":"village"},{"id":"2137125205","name":"Quitundo","lat":-11.0230128,"lon":14.6378315,"type":"village"},{"id":"2137125211","name":"Quizanga","lat":-11.0468057,"lon":14.7344708,"type":"village"},{"id":"2137125217","name":"Zenguele","lat":-11.0591356,"lon":14.7442247,"type":"village"},{"id":"2137624652","name":"Belize","lat":-4.6403291,"lon":12.7604593,"type":"village"},{"id":"2137625016","name":"Luali","lat":-4.5753277,"lon":12.7001543,"type":"village"},{"id":"2138606511","name":"Hengue","lat":-16.6085096,"lon":15.0612243,"type":"village"},{"id":"2138606512","name":"Calonga","lat":-16.1220385,"lon":15.2191837,"type":"village"},{"id":"2139151264","name":"Chamutete","lat":-15.232083,"lon":16.040828,"type":"village"},{"id":"2139152288","name":"Cassinga","lat":-15.1236535,"lon":16.072368,"type":"village"},{"id":"2139180771","name":"Dongo","lat":-14.595246,"lon":15.718681,"type":"village"},{"id":"2139798272","name":"Augusto Ngangula","lat":-8.35416,"lon":16.095117,"type":"village"},{"id":"2139798273","name":"Bassa","lat":-7.975817,"lon":16.026524,"type":"village"},{"id":"2139798296","name":"Massango","lat":-8.033648,"lon":16.3431729,"type":"village"},{"id":"2139798304","name":"Nguidi","lat":-7.9871727,"lon":16.0250068,"type":"village"},{"id":"2139799790","name":"Uemita","lat":-8.001232,"lon":15.850888,"type":"town"},{"id":"2141032189","name":"Cabiri","lat":-8.9208676,"lon":13.6652264,"type":"village"},{"id":"2141303882","name":"Barraca","lat":-9.1849136,"lon":13.9627484,"type":"village"},{"id":"2141486730","name":"Zenza do Itombe","lat":-9.289499,"lon":14.2127405,"type":"village"},{"id":"2141554233","name":"Kilometro trinta e quatro","lat":-9.5197401,"lon":14.3827451,"type":"village"},{"id":"2142456169","name":"Luis Miguel","lat":-9.240468,"lon":13.7336903,"type":"village"},{"id":"2142471442","name":"Cassoneca","lat":-9.2435348,"lon":13.8529252,"type":"village"},{"id":"2142504192","name":"Cassanga","lat":-9.5017836,"lon":13.9906406,"type":"village"},{"id":"2142504604","name":"Gonsala","lat":-9.3862576,"lon":13.914101,"type":"village"},{"id":"2142504908","name":"Salao","lat":-9.2811043,"lon":13.8616531,"type":"village"},{"id":"2142506320","name":"Ceia","lat":-9.2650652,"lon":13.8582467,"type":"village"},{"id":"2142739938","name":"Balombo","lat":-12.354158,"lon":14.7722982,"type":"town"},{"id":"2144124928","name":"Humbe","lat":-9.1594175,"lon":13.6844181,"type":"village"},{"id":"2144133225","name":"Aldeia do 107","lat":-9.1940624,"lon":13.6861455,"type":"village"},{"id":"2146062229","name":"Gamba","lat":-11.7512919,"lon":17.1103321,"type":"village"},{"id":"2146063465","name":"Dando","lat":-11.2458027,"lon":17.4143661,"type":"village"},{"id":"2146165060","name":"Babaera","lat":-12.8993842,"lon":14.8054036,"type":"village"},{"id":"2146189037","name":"Caimbambo","lat":-13.0228053,"lon":14.0013625,"type":"village"},{"id":"2146289915","name":"Cassongue","lat":-11.8533879,"lon":15.0500055,"type":"town"},{"id":"2146292225","name":"Salomão","lat":-11.9547116,"lon":14.9784072,"type":"village"},{"id":"2148650344","name":"Culango","lat":-12.303503,"lon":13.8290802,"type":"village"},{"id":"2148656784","name":"Cateque","lat":-12.4707333,"lon":14.0576098,"type":"village"},{"id":"2148656785","name":"Bocoio","lat":-12.4690414,"lon":14.1370622,"type":"town"},{"id":"2148824239","name":"Caengue","lat":-12.3022975,"lon":14.724423,"type":"village"},{"id":"2157932776","name":"Cassamba","lat":-13.1353529,"lon":20.2994829,"type":"village"},{"id":"2157932799","name":"Baixo Longa","lat":-15.7134845,"lon":18.639967,"type":"village"},{"id":"2159730323","name":"Baca","lat":-8.0223296,"lon":15.7342745,"type":"village"},{"id":"2159730324","name":"Baia","lat":-8.4265296,"lon":15.7817976,"type":"village"},{"id":"2159730325","name":"Bungulo","lat":-8.0601753,"lon":16.0029446,"type":"village"},{"id":"2159730327","name":"Cahinha","lat":-8.415148,"lon":15.852294,"type":"village"},{"id":"2159730329","name":"Cahuca","lat":-8.032552,"lon":15.743714,"type":"village"},{"id":"2159730332","name":"Cateco Cangola","lat":-8.4684133,"lon":15.8229087,"type":"village"},{"id":"2159730333","name":"Cauessa","lat":-8.075315,"lon":16.006053,"type":"village"},{"id":"2159730335","name":"Chiquita","lat":-8.0484733,"lon":15.6960426,"type":"village"},{"id":"2159730337","name":"Comessa","lat":-8.1812067,"lon":15.8878438,"type":"village"},{"id":"2159730338","name":"Comessa","lat":-8.4284283,"lon":15.7347376,"type":"village"},{"id":"2159730342","name":"Dinha","lat":-8.095485,"lon":15.9836425,"type":"village"},{"id":"2159730343","name":"Diuila","lat":-8.410572,"lon":15.854929,"type":"village"},{"id":"2159730344","name":"Dumbe iá Ngulo","lat":-8.1289798,"lon":15.9734998,"type":"village"},{"id":"2159730345","name":"Fumbuca","lat":-8.3577369,"lon":15.8726573,"type":"village"},{"id":"2159730346","name":"Guenzele","lat":-8.049722,"lon":15.697754,"type":"village"},{"id":"2159730347","name":"Hanga","lat":-8.4321419,"lon":15.7057148,"type":"village"},{"id":"2159730348","name":"Lombo","lat":-8.432535,"lon":15.6993828,"type":"village"},{"id":"2159730349","name":"Luamba","lat":-8.483333,"lon":15.75,"type":"village"},{"id":"2159730351","name":"Luco","lat":-8.1090274,"lon":15.9693173,"type":"village"},{"id":"2159730353","name":"Lunguissa","lat":-8.079343,"lon":15.632808,"type":"village"},{"id":"2159730354","name":"Macala","lat":-8.38306,"lon":15.856157,"type":"village"},{"id":"2159730355","name":"Manessa","lat":-8.0532745,"lon":15.8130664,"type":"village"},{"id":"2159730360","name":"Mbondo","lat":-8.413373,"lon":15.856451,"type":"village"},{"id":"2159730361","name":"Muange","lat":-8.08832,"lon":15.640841,"type":"village"},{"id":"2159730362","name":"Muinga","lat":-8.083978,"lon":15.627085,"type":"village"},{"id":"2159730364","name":"Muinza","lat":-8.5332466,"lon":15.683835,"type":"village"},{"id":"2159730375","name":"Mulende","lat":-8.0663355,"lon":15.6460419,"type":"village"},{"id":"2159730377","name":"Mulenga","lat":-8.383333,"lon":15.85,"type":"village"},{"id":"2159730378","name":"Ndala Cateco","lat":-8.4163169,"lon":15.7545754,"type":"village"},{"id":"2159730381","name":"Penza","lat":-8.0109704,"lon":15.7215976,"type":"village"},{"id":"2159745665","name":"Quenguele","lat":-8.05,"lon":15.7,"type":"village"},{"id":"2159745670","name":"Quianga","lat":-8.022202,"lon":15.8180141,"type":"village"},{"id":"2159745671","name":"Quichina Quiatuco","lat":-8.4087522,"lon":15.7434238,"type":"village"},{"id":"2159745673","name":"Quicoca","lat":-8.0912108,"lon":15.6240074,"type":"village"},{"id":"2159745677","name":"Quina","lat":-8.481194,"lon":15.761014,"type":"village"},{"id":"2159745681","name":"Quingica","lat":-8.381403,"lon":15.854348,"type":"village"},{"id":"2159745690","name":"Quissari","lat":-8.09669,"lon":15.616221,"type":"village"},{"id":"2159745694","name":"Quixombo","lat":-8.4261287,"lon":15.7582753,"type":"village"},{"id":"2159745698","name":"Sonhi","lat":-8.046152,"lon":15.703054,"type":"village"},{"id":"2159745702","name":"Tango","lat":-8.0941534,"lon":15.6359226,"type":"village"},{"id":"2159745706","name":"Tunda Calelamo","lat":-8.3308342,"lon":15.8807646,"type":"village"},{"id":"2159745717","name":"Tunda","lat":-8.0925393,"lon":15.6198717,"type":"village"},{"id":"2159745725","name":"Xita","lat":-8.483984,"lon":15.756728,"type":"village"},{"id":"2159745729","name":"Zaca","lat":-8.065489,"lon":15.649866,"type":"village"},{"id":"2159745732","name":"Zequela","lat":-8.4329703,"lon":15.7107836,"type":"village"},{"id":"2159745740","name":"Zua","lat":-8.0562899,"lon":15.6858287,"type":"village"},{"id":"2161115445","name":"Pinda","lat":-10.8212454,"lon":13.8393591,"type":"village"},{"id":"2161145602","name":"Aldeia N'gangula","lat":-11.005309,"lon":13.9125435,"type":"village"},{"id":"2163764563","name":"Acumba","lat":-11.7485406,"lon":14.4980572,"type":"village"},{"id":"2163764564","name":"Albuquerque","lat":-12.055242,"lon":15.2074073,"type":"village"},{"id":"2163764565","name":"Banda","lat":-11.7109537,"lon":14.415765,"type":"village"},{"id":"2163764567","name":"Cahala","lat":-12.414915,"lon":14.7845691,"type":"village"},{"id":"2163764568","name":"Calei","lat":-11.833333,"lon":14.516667,"type":"village"},{"id":"2163764571","name":"Carvalho","lat":-11.8512917,"lon":15.1833751,"type":"village"},{"id":"2163764574","name":"Catanda","lat":-11.7072109,"lon":14.4699055,"type":"village"},{"id":"2163764577","name":"Chicala","lat":-12.0484662,"lon":15.2250361,"type":"village"},{"id":"2163764578","name":"Chila","lat":-12.0712618,"lon":14.4866169,"type":"village"},{"id":"2163764579","name":"Chimbaca","lat":-11.8834567,"lon":15.2070908,"type":"village"},{"id":"2163764581","name":"Chipuri","lat":-11.8505222,"lon":15.1829258,"type":"village"},{"id":"2163764582","name":"Chissaca","lat":-11.9272339,"lon":15.3572302,"type":"village"},{"id":"2163764585","name":"Cuvombua","lat":-12.1588834,"lon":15.2857654,"type":"village"},{"id":"2163764589","name":"Londuimbali","lat":-12.2415575,"lon":15.312229,"type":"village"},{"id":"2163764590","name":"Maco","lat":-11.85,"lon":14.516667,"type":"village"},{"id":"2163768581","name":"Tchimbungue","lat":-12.1526606,"lon":15.2675264,"type":"village"},{"id":"2163768582","name":"Ussoque","lat":-12.3531583,"lon":15.1014598,"type":"village"},{"id":"2164104770","name":"Chicundo","lat":-12.6675204,"lon":17.5651226,"type":"village"},{"id":"2164104777","name":"Lumbo Capunga","lat":-8.217403,"lon":15.321219,"type":"village"},{"id":"2164111511","name":"Umpulo","lat":-12.7047149,"lon":17.689494,"type":"village"},{"id":"2165410153","name":"Camuagi","lat":-8.956878,"lon":20.572288,"type":"village"},{"id":"2165410154","name":"Caquele","lat":-8.939729,"lon":20.5851523,"type":"village"},{"id":"2165410155","name":"Cáxi","lat":-10.3104382,"lon":17.1387189,"type":"village"},{"id":"2165410157","name":"Naissua","lat":-8.9521383,"lon":20.4978541,"type":"village"},{"id":"2165410158","name":"Nandongo","lat":-8.965502,"lon":20.476956,"type":"village"},{"id":"2165410159","name":"Pato","lat":-8.9644149,"lon":20.4681555,"type":"village"},{"id":"2165410160","name":"Paulo","lat":-9.018195,"lon":20.4453852,"type":"village"},{"id":"2165410161","name":"Pensamento","lat":-8.9895721,"lon":20.4424747,"type":"village"},{"id":"2165411398","name":"Queve","lat":-10.3867696,"lon":17.2059749,"type":"village"},{"id":"2165411400","name":"Sambinza","lat":-8.9529587,"lon":20.4167645,"type":"village"},{"id":"2165411404","name":"Tchipinda","lat":-9.049078,"lon":20.443428,"type":"village"},{"id":"2170481150","name":"Kinzau","lat":-6.8682473,"lon":12.7566529,"type":"village"},{"id":"2170616966","name":"Tomboco","lat":-6.8033305,"lon":13.3294418,"type":"town"},{"id":"2170811773","name":"Nóqui","lat":-5.8743966,"lon":13.4323871,"type":"town"},{"id":"2171003400","name":"Quicabo","lat":-8.3097391,"lon":13.8342444,"type":"village"},{"id":"2178050430","name":"Golungo Alto","lat":-9.1386587,"lon":14.7734467,"type":"town"},{"id":"2179064755","name":"Epanda","lat":-10.5320614,"lon":16.0151333,"type":"village"},{"id":"2179064792","name":"Mussende","lat":-10.5112481,"lon":16.0137094,"type":"town"},{"id":"2179066388","name":"Salvador","lat":-10.5994441,"lon":16.0499809,"type":"village"},{"id":"2179066391","name":"São Lucas","lat":-10.9435909,"lon":16.11941,"type":"village"},{"id":"2179066394","name":"Terra Nova","lat":-10.514698,"lon":16.00726,"type":"village"},{"id":"2179400170","name":"Buanga","lat":-11.5217899,"lon":16.4450864,"type":"village"},{"id":"2179400171","name":"Calenga","lat":-11.356379,"lon":16.239384,"type":"village"},{"id":"2179400177","name":"Chilonda","lat":-11.319326,"lon":16.1957294,"type":"village"},{"id":"2179400188","name":"Mbunja","lat":-11.4320254,"lon":16.3271251,"type":"village"},{"id":"2179400192","name":"Nhongo","lat":-11.495946,"lon":16.229419,"type":"village"},{"id":"2179401827","name":"Tecnil","lat":-11.330358,"lon":16.207809,"type":"village"},{"id":"2179466662","name":"Cacolo","lat":-10.1436862,"lon":19.2660075,"type":"village"},{"id":"2179466663","name":"Cambolo Cambamba","lat":-9.3058139,"lon":18.2144466,"type":"village"},{"id":"2179466665","name":"Cangola","lat":-9.2988358,"lon":18.2796186,"type":"village"},{"id":"2179466666","name":"Catala","lat":-11.4905219,"lon":16.718482,"type":"village"},{"id":"2179466667","name":"Congolongolo","lat":-11.5439587,"lon":16.8524881,"type":"village"},{"id":"2179466668","name":"Lucuco","lat":-11.5408204,"lon":16.757731,"type":"village"},{"id":"2179466669","name":"Muanha Cassangi","lat":-9.332096,"lon":18.18944,"type":"village"},{"id":"2179466670","name":"Muchinda","lat":-9.2799103,"lon":18.2410502,"type":"village"},{"id":"2179466671","name":"Muhongo","lat":-9.8270302,"lon":19.2103736,"type":"village"},{"id":"2179466672","name":"Nharêa","lat":-11.475123,"lon":16.964963,"type":"village"},{"id":"2179466673","name":"Panda","lat":-12.0569675,"lon":16.7168018,"type":"village"},{"id":"2179467740","name":"Sacahia","lat":-10.0294636,"lon":19.5488728,"type":"village"},{"id":"2179467741","name":"Saibuanda","lat":-10.0851455,"lon":19.4600713,"type":"village"},{"id":"2179467742","name":"Sambundo","lat":-10.1149238,"lon":19.3682162,"type":"village"},{"id":"2179467743","name":"Senge","lat":-11.5268832,"lon":16.8156399,"type":"village"},{"id":"2179467744","name":"Terra Nova","lat":-9.293184,"lon":18.267047,"type":"village"},{"id":"2180316465","name":"Cutato","lat":-14.3719,"lon":16.494162,"type":"village"},{"id":"2180948578","name":"Aldeia Formosa","lat":-9.4829132,"lon":15.9882338,"type":"village"},{"id":"2180948581","name":"Matete","lat":-9.4687195,"lon":15.8923266,"type":"village"},{"id":"2180949166","name":"Zanga","lat":-9.4787871,"lon":15.9895228,"type":"village"},{"id":"2181225435","name":"Cafundanga","lat":-9.4961649,"lon":16.1473054,"type":"village"},{"id":"2181225440","name":"Lombe","lat":-9.487175,"lon":16.152561,"type":"town"},{"id":"2181225444","name":"Lucala","lat":-9.2661326,"lon":15.2402503,"type":"town"},{"id":"2181362883","name":"Belo Horizonte","lat":-11.9165758,"lon":16.9056548,"type":"village"},{"id":"2181362884","name":"Dandau","lat":-11.9244718,"lon":16.9195521,"type":"village"},{"id":"2181362885","name":"Iaonga","lat":-14.0611848,"lon":17.4737617,"type":"village"},{"id":"2181362886","name":"Mandume","lat":-14.0443741,"lon":17.4417012,"type":"village"},{"id":"2181362888","name":"Mutumbo","lat":-13.1818771,"lon":17.3959357,"type":"village"},{"id":"2181363814","name":"Satacaia","lat":-11.8741005,"lon":16.7983826,"type":"village"},{"id":"2182323289","name":"Lumeje","lat":-11.5599107,"lon":20.7779668,"type":"village"},{"id":"2182713094","name":"Kilometro Vinte","lat":-9.4130745,"lon":14.3008503,"type":"village"},{"id":"2183256496","name":"Cuquendo","lat":-11.8656894,"lon":14.0637958,"type":"village"},{"id":"2186536943","name":"Biula","lat":-11.1790203,"lon":20.2193661,"type":"village"},{"id":"2186536944","name":"Caiaza","lat":-10.2460812,"lon":20.248842,"type":"village"},{"id":"2186536945","name":"Camanongue","lat":-11.4343086,"lon":20.1674991,"type":"town"},{"id":"2186536946","name":"Camuleque","lat":-11.257933,"lon":20.186211,"type":"village"},{"id":"2186536947","name":"Dala","lat":-11.033333,"lon":20.2,"type":"village"},{"id":"2186536949","name":"Luachimo","lat":-10.653143,"lon":20.209784,"type":"village"},{"id":"2186536950","name":"Luxiha","lat":-11.3701199,"lon":20.1749163,"type":"village"},{"id":"2186536951","name":"Luxiha-Ponte","lat":-11.344992,"lon":20.16878,"type":"village"},{"id":"2186536952","name":"Mombo","lat":-10.8832259,"lon":20.2054724,"type":"village"},{"id":"2186536953","name":"Mulombe","lat":-10.9365525,"lon":20.2002203,"type":"village"},{"id":"2186536954","name":"Muxié","lat":-10.4939445,"lon":20.1665535,"type":"village"},{"id":"2186536955","name":"Nacatoco","lat":-11.0184782,"lon":20.210452,"type":"village"},{"id":"2186540768","name":"Sacambunge","lat":-10.2606615,"lon":20.4490613,"type":"village"},{"id":"2186540771","name":"Saiendo","lat":-10.268119,"lon":20.578044,"type":"village"},{"id":"2186540772","name":"Sangungo","lat":-10.175779,"lon":20.2632038,"type":"village"},{"id":"2186540774","name":"Sautata","lat":-11.2902184,"lon":20.3997614,"type":"village"},{"id":"2187703483","name":"Ndala","lat":-11.9644095,"lon":20.0397608,"type":"village"},{"id":"2188370831","name":"Conda","lat":-11.1070838,"lon":14.3348551,"type":"village"},{"id":"2188370832","name":"Cumbira Segundo","lat":-11.2066825,"lon":14.3390931,"type":"village"},{"id":"2188370833","name":"Huandi","lat":-11.028622,"lon":14.3429379,"type":"village"},{"id":"2188370834","name":"Icuco","lat":-11.1518533,"lon":14.3492253,"type":"village"},{"id":"2188371530","name":"Quinguenguere","lat":-11.2532866,"lon":14.3392744,"type":"village"},{"id":"2188371532","name":"Tari","lat":-11.1105187,"lon":14.3559078,"type":"village"},{"id":"2188371533","name":"Tocota","lat":-11.0630473,"lon":14.3286079,"type":"village"},{"id":"2188583516","name":"Cahana","lat":-11.0019437,"lon":14.5113028,"type":"village"},{"id":"2188583529","name":"Condé","lat":-10.8461181,"lon":14.675897,"type":"village"},{"id":"2188583532","name":"Gabela","lat":-10.85147,"lon":14.379927,"type":"town"},{"id":"2188583540","name":"Londa","lat":-10.9801421,"lon":14.5594288,"type":"village"},{"id":"2188583545","name":"Nhuma","lat":-10.991652,"lon":14.505925,"type":"village"},{"id":"2188954414","name":"Cafululo","lat":-10.655419,"lon":14.359533,"type":"village"},{"id":"2188954415","name":"Cangingila","lat":-10.6307228,"lon":14.323903,"type":"village"},{"id":"2188954416","name":"Carioneca","lat":-10.651755,"lon":14.333254,"type":"village"},{"id":"2188954417","name":"Cassengula","lat":-10.7530355,"lon":14.3728011,"type":"village"},{"id":"2188954418","name":"Charua","lat":-10.7354103,"lon":14.3625943,"type":"village"},{"id":"2188954420","name":"Guarna","lat":-10.6955363,"lon":14.3394518,"type":"village"},{"id":"2188954421","name":"Mbanza de Cassusso","lat":-10.7459163,"lon":14.3521641,"type":"village"},{"id":"2188954422","name":"Ngombe","lat":-10.6672841,"lon":14.3280513,"type":"village"},{"id":"2188957585","name":"Quilenda","lat":-10.641448,"lon":14.335822,"type":"town"},{"id":"2188957586","name":"Quimbangi","lat":-10.7220914,"lon":14.3530285,"type":"village"},{"id":"2188957587","name":"Quingondondo","lat":-10.639856,"lon":14.3274531,"type":"village"},{"id":"2188957588","name":"Quitacata","lat":-10.6867028,"lon":14.3354394,"type":"village"},{"id":"2188957589","name":"Sanga","lat":-10.637869,"lon":14.372943,"type":"village"},{"id":"2188957590","name":"Santana","lat":-10.6352933,"lon":14.3403317,"type":"village"},{"id":"2189011234","name":"Zambla-Zambla","lat":-10.8284867,"lon":14.3847362,"type":"village"},{"id":"2189606248","name":"Cachiungo","lat":-12.5669175,"lon":16.227044,"type":"town"},{"id":"2198539889","name":"Muconda","lat":-10.592362,"lon":21.318045,"type":"village"},{"id":"2198541204","name":"Sacaluila","lat":-10.5687291,"lon":21.5330988,"type":"village"},{"id":"2204297745","name":"Cacuso","lat":-9.4220284,"lon":15.7406734,"type":"town"},{"id":"2204440374","name":"Soqueco","lat":-9.2680618,"lon":15.8098626,"type":"village"},{"id":"2245958754","name":"Malembo","lat":-5.3707466,"lon":12.2102581,"type":"village"},{"id":"2249006423","name":"Iema","lat":-5.7413132,"lon":12.2969514,"type":"village"},{"id":"2249017871","name":"Sende","lat":-5.649127,"lon":12.2132343,"type":"village"},{"id":"2271939257","name":"Ngandavila","lat":-12.5495158,"lon":17.0815301,"type":"village"},{"id":"2325209612","name":"Musserra","lat":-7.6154221,"lon":13.0354692,"type":"village"},{"id":"2341782443","name":"Canzondo","lat":-9.2417836,"lon":15.0455279,"type":"village"},{"id":"2341797903","name":"Dange-Ia-Menha","lat":-9.535468,"lon":14.6556513,"type":"village"},{"id":"2341799160","name":"Alto Dondo","lat":-9.6791542,"lon":14.4723581,"type":"town"},{"id":"2341801626","name":"Cambambe","lat":-9.7460516,"lon":14.4866722,"type":"village"},{"id":"2355277688","name":"Cuangar","lat":-17.6097686,"lon":18.6223286,"type":"town"},{"id":"2441241071","name":"Canjala","lat":-12.0154408,"lon":13.962688,"type":"village"},{"id":"2493524938","name":"Condomínio Omatapalo","lat":-14.9167225,"lon":13.5350756,"type":"city_block"},{"id":"2518935743","name":"Virei","lat":-15.7248216,"lon":12.9488622,"type":"town"},{"id":"2558289855","name":"Jamba","lat":-17.507609,"lon":22.726622,"type":"town"},{"id":"2595619690","name":"Calambo","lat":-11.6485491,"lon":17.9750281,"type":"village"},{"id":"2595619691","name":"Chindumba","lat":-11.9990148,"lon":18.0357967,"type":"village"},{"id":"2596416195","name":"Ngongo","lat":-10.0147469,"lon":16.7074061,"type":"village"},{"id":"2596417650","name":"Quengolola","lat":-10.007554,"lon":16.685636,"type":"village"},{"id":"2596910283","name":"Bissanzo","lat":-10.6863,"lon":17.664354,"type":"village"},{"id":"2596910285","name":"Calembe","lat":-10.7949053,"lon":17.5958358,"type":"village"},{"id":"2596910286","name":"Cambeu","lat":-10.8176342,"lon":17.9364051,"type":"village"},{"id":"2596910289","name":"Canári","lat":-10.4935903,"lon":17.4214926,"type":"village"},{"id":"2596910291","name":"Chibaca","lat":-10.70797,"lon":17.5484789,"type":"village"},{"id":"2596910293","name":"Hanga","lat":-10.75559,"lon":17.5922818,"type":"village"},{"id":"2596910296","name":"Huihua","lat":-10.7681338,"lon":17.5932741,"type":"village"},{"id":"2596910298","name":"Luquembo","lat":-10.7348652,"lon":17.7184084,"type":"village"},{"id":"2596910299","name":"Macumba","lat":-10.4997951,"lon":17.4425829,"type":"village"},{"id":"2596910301","name":"Mulundo","lat":-10.8478163,"lon":17.9997609,"type":"village"},{"id":"2596910302","name":"Ngonga","lat":-10.8468921,"lon":17.6225938,"type":"village"},{"id":"2596910723","name":"Quimbango","lat":-10.96384,"lon":17.574688,"type":"village"},{"id":"2596910724","name":"Saca","lat":-10.797906,"lon":17.86863,"type":"village"},{"id":"2596910726","name":"Sangolungo","lat":-10.8266397,"lon":17.9523681,"type":"village"},{"id":"2596910727","name":"Sangulo","lat":-10.8103638,"lon":17.6204218,"type":"village"},{"id":"2596939854","name":"Sacassende","lat":-11.9099796,"lon":19.9445938,"type":"village"},{"id":"2596939855","name":"Santo Caloto","lat":-11.9109265,"lon":19.9693724,"type":"village"},{"id":"2622887228","name":"Calunda","lat":-12.1221272,"lon":23.4787696,"type":"village"},{"id":"2633828830","name":"Centralidade de Cacuaco","lat":-8.8885236,"lon":13.4884091,"type":"village"},{"id":"2741739925","name":"Banza","lat":-9.2945835,"lon":14.0705702,"type":"village"},{"id":"2741740235","name":"Banza","lat":-9.3021561,"lon":14.0669734,"type":"village"},{"id":"2757762249","name":"Cangando","lat":-9.5891555,"lon":16.2207138,"type":"village"},{"id":"2757775320","name":"Cambondo","lat":-9.4897001,"lon":16.5402572,"type":"village"},{"id":"2760116391","name":"Caculama","lat":-9.4847681,"lon":16.8525229,"type":"town"},{"id":"2760401410","name":"Cassualala","lat":-9.4873343,"lon":14.355762,"type":"village"},{"id":"2761488770","name":"Cambunze","lat":-9.417565,"lon":15.6186647,"type":"village"},{"id":"2814839728","name":"Dombe Grande","lat":-12.9426137,"lon":13.0937485,"type":"town"},{"id":"3011127339","name":"Baía Farta","lat":-12.6119549,"lon":13.1987084,"type":"village"},{"id":"3021405825","name":"Munichoco","lat":-10.7298247,"lon":21.1064299,"type":"village"},{"id":"3023133378","name":"Samahína","lat":-11.0817174,"lon":20.3242305,"type":"village"},{"id":"3033619229","name":"Cavuma","lat":-11.0265374,"lon":20.6391421,"type":"village"},{"id":"3033637776","name":"Cazaje","lat":-11.0676768,"lon":20.7024415,"type":"village"},{"id":"3033637824","name":"Sagimbo","lat":-11.0714712,"lon":20.6315169,"type":"village"},{"id":"3081534016","name":"Calulo","lat":-9.9999443,"lon":14.8935447,"type":"town"},{"id":"3191593814","name":"Jamba-Cueio","lat":-15.4248377,"lon":17.9764567,"type":"village"},{"id":"3193139894","name":"Masseca","lat":-14.6871446,"lon":18.6639503,"type":"village"},{"id":"3193493387","name":"Cuvango","lat":-14.4659375,"lon":16.2910795,"type":"town"},{"id":"3204269476","name":"Chitado","lat":-17.3128294,"lon":13.9045783,"type":"village"},{"id":"3210986381","name":"Xá-Cassau","lat":-8.9332816,"lon":20.2906891,"type":"village"},{"id":"3212291389","name":"Muacamana","lat":-8.0777517,"lon":19.7227179,"type":"village"},{"id":"3213312588","name":"Lóvua","lat":-7.3447156,"lon":20.1748086,"type":"town"},{"id":"3213357627","name":"Calimbula","lat":-7.1397497,"lon":19.8882884,"type":"village"},{"id":"3213359426","name":"Carimbula","lat":-7.2209189,"lon":19.8219652,"type":"village"},{"id":"3213420837","name":"Tchilongo","lat":-7.3879533,"lon":19.8533268,"type":"village"},{"id":"3214854599","name":"Cahata","lat":-7.7961776,"lon":19.8584972,"type":"village"},{"id":"3214878557","name":"Salucunda","lat":-7.7519777,"lon":19.8822949,"type":"town"},{"id":"3221767431","name":"Luange","lat":-9.5398959,"lon":19.6093621,"type":"village"},{"id":"3222523076","name":"Sachinhigue","lat":-9.9081482,"lon":19.2139737,"type":"village"},{"id":"3222559589","name":"Xinge","lat":-9.7764649,"lon":19.1363498,"type":"town"},{"id":"3227257588","name":"Nehone Cafima","lat":-16.6351222,"lon":16.0318014,"type":"village"},{"id":"3228082133","name":"Samaquina","lat":-10.0612592,"lon":19.3037103,"type":"village"},{"id":"3231131390","name":"Camissombo","lat":-8.1532989,"lon":20.6574963,"type":"village"},{"id":"3231309815","name":"Capaia","lat":-8.3360575,"lon":20.2167628,"type":"village"},{"id":"3233066862","name":"Lubalo","lat":-9.15313,"lon":19.2825584,"type":"village"},{"id":"3235826822","name":"Sapimbe","lat":-9.6816269,"lon":18.9908022,"type":"village"},{"id":"3235850698","name":"Capenda Camulemba","lat":-9.4194492,"lon":18.433128,"type":"village"},{"id":"3235934161","name":"Caungula","lat":-8.432269,"lon":18.6325763,"type":"village"},{"id":"3240866279","name":"Lucunga","lat":-6.8223995,"lon":14.6023968,"type":"village"},{"id":"3242245438","name":"Gambos-Chiange","lat":-15.7330735,"lon":13.8901485,"type":"town"},{"id":"3242621507","name":"Massau","lat":-7.2301476,"lon":16.920991,"type":"village"},{"id":"3255364377","name":"Mucusso","lat":-18.02197,"lon":21.426878,"type":"village"},{"id":"3256703871","name":"Quitapa","lat":-10.3010456,"lon":18.1990183,"type":"town"},{"id":"3256723704","name":"Tchamussanza","lat":-10.2891617,"lon":18.0690147,"type":"village"},{"id":"3256747002","name":"Ngana Muchibi","lat":-10.2221097,"lon":17.9945029,"type":"village"},{"id":"3256755829","name":"Cosso","lat":-10.085117,"lon":17.78846,"type":"village"},{"id":"3256758676","name":"Muáti","lat":-10.0805361,"lon":17.6723362,"type":"village"},{"id":"3259061720","name":"Bungo","lat":-9.7747411,"lon":17.2715071,"type":"village"},{"id":"3259068675","name":"Cungue","lat":-9.7225456,"lon":17.2299955,"type":"village"},{"id":"3259068718","name":"Cassangi","lat":-9.7473571,"lon":17.2484246,"type":"village"},{"id":"3259880794","name":"Cambo","lat":-9.6421999,"lon":17.1907622,"type":"village"},{"id":"3259880848","name":"Hopa","lat":-9.6484953,"lon":17.2235498,"type":"village"},{"id":"3259880937","name":"Ngando Mbande e Mahone","lat":-9.6848328,"lon":17.2162227,"type":"village"},{"id":"3259888208","name":"Muhungo","lat":-9.8433424,"lon":17.2961851,"type":"village"},{"id":"3259888280","name":"Cubango","lat":-9.8743703,"lon":17.2973889,"type":"village"},{"id":"3259893365","name":"Quiemba","lat":-9.9393057,"lon":17.3027919,"type":"village"},{"id":"3259934762","name":"Mutuanguengo","lat":-10.0277166,"lon":17.3953425,"type":"village"},{"id":"3259935891","name":"Dumba Muhondo","lat":-10.0654014,"lon":17.4589113,"type":"village"},{"id":"3260338003","name":"Quipingue","lat":-9.9335335,"lon":17.1660732,"type":"village"},{"id":"3261814316","name":"Quissol","lat":-9.5881064,"lon":16.4605423,"type":"village"},{"id":"3284824001","name":"Mufuma","lat":-9.202747,"lon":16.4853427,"type":"village"},{"id":"3288660061","name":"Naulila","lat":-17.2050337,"lon":14.6781575,"type":"village"},{"id":"3299479138","name":"Quindua","lat":-9.3010625,"lon":17.0157356,"type":"village"},{"id":"3299489468","name":"Muala","lat":-9.4497187,"lon":17.0200179,"type":"village"},{"id":"3299489500","name":"Cainguila","lat":-9.4628561,"lon":17.0123135,"type":"village"},{"id":"3300968738","name":"Yandza","lat":-4.4090169,"lon":12.8869529,"type":"village"},{"id":"3320051361","name":"Bungo","lat":-7.44,"lon":15.386667,"type":"town"},{"id":"3327793393","name":"Moculla","lat":-6.9710292,"lon":12.8362492,"type":"village"},{"id":"3397753634","name":"Quicole:","lat":-10.2775656,"lon":14.7733316,"type":"village"},{"id":"3443815593","name":"Bentiaba","lat":-14.259353,"lon":12.3924526,"type":"village"},{"id":"3649526278","name":"Mavinga","lat":-15.7943989,"lon":20.3656709,"type":"town"},{"id":"3747292784","name":"Kavalawa","lat":-16.1317769,"lon":14.1124934,"type":"village"},{"id":"3747304472","name":"Chiulo","lat":-16.5371952,"lon":14.8490701,"type":"village"},{"id":"3747403907","name":"Catata","lat":-13.3965237,"lon":15.416133,"type":"village"},{"id":"4111706925","name":"Macondo","lat":-12.5830182,"lon":23.7575863,"type":"village"},{"id":"4129135035","name":"Muriege","lat":-9.9047888,"lon":21.2143955,"type":"village"},{"id":"4207200920","name":"Aldeia","lat":-8.5701524,"lon":13.4812859,"type":"village"},{"id":"4459492689","name":"Marimba","lat":-8.3610995,"lon":17.0238756,"type":"village"},{"id":"4516898742","name":"Hungéria","lat":-15.3163122,"lon":13.5330037,"type":"village"},{"id":"4525020578","name":"Capunda Cavilongo","lat":-14.9625092,"lon":13.9825397,"type":"village"},{"id":"4525020620","name":"Cangolo","lat":-15.0027312,"lon":13.8720709,"type":"village"},{"id":"4531279136","name":"Vila Pacifica","lat":-8.9778534,"lon":13.4015465,"type":"village"},{"id":"4531635649","name":"Caçoço","lat":-11.3384012,"lon":15.2731448,"type":"village"},{"id":"4727830567","name":"Quitexe","lat":-7.9416281,"lon":15.0415751,"type":"town"},{"id":"4789874404","name":"Mukua","lat":-17.2089424,"lon":16.0656157,"type":"village"},{"id":"4789874405","name":"Omandobe","lat":-17.2536636,"lon":16.11363,"type":"village"},{"id":"4789874406","name":"Chipela","lat":-17.2140279,"lon":16.2328262,"type":"village"},{"id":"4822837419","name":"Kamungo","lat":-10.3973834,"lon":14.8535746,"type":"village"},{"id":"4824679992","name":"Ngumba (Vinte Sete)","lat":-10.9399067,"lon":14.3270409,"type":"village"},{"id":"4824680145","name":"Cachilo","lat":-10.9360565,"lon":14.3048644,"type":"village"},{"id":"4828465936","name":"Quizenga","lat":-9.3623211,"lon":15.4679239,"type":"village"},{"id":"4830816972","name":"Maria Ganza","lat":-10.8943916,"lon":14.3529296,"type":"village"},{"id":"4857118771","name":"Camassa","lat":-9.9068279,"lon":14.9683195,"type":"village"},{"id":"4857118781","name":"Quilumbo","lat":-9.894758,"lon":14.9818861,"type":"village"},{"id":"4859577049","name":"Caxica","lat":-9.8779313,"lon":14.9128353,"type":"village"},{"id":"4883719112","name":"Malanje","lat":-9.9627588,"lon":14.9257475,"type":"village"},{"id":"4883761396","name":"Zela","lat":-9.8568281,"lon":14.8140979,"type":"village"},{"id":"4883761432","name":"Bango de Magia","lat":-9.811557,"lon":14.7887403,"type":"village"},{"id":"4885073565","name":"Kiulo","lat":-9.9457929,"lon":14.8963237,"type":"village"},{"id":"4885073947","name":"Kissaco","lat":-9.9294444,"lon":14.8958999,"type":"village"},{"id":"4885073957","name":"Casa Manga","lat":-9.9360442,"lon":14.8873919,"type":"village"},{"id":"4885073964","name":"Cataquele","lat":-9.9345329,"lon":14.8908788,"type":"village"},{"id":"4885073972","name":"Tunda dos Dambos","lat":-9.9178536,"lon":14.8569515,"type":"village"},{"id":"4885400848","name":"Cassanha","lat":-9.8499044,"lon":14.8487949,"type":"village"},{"id":"4885612295","name":"Bulo","lat":-9.7598087,"lon":14.8384537,"type":"village"},{"id":"4885991011","name":"Banza dos Dambos","lat":-9.9783712,"lon":14.859159,"type":"village"},{"id":"4887706939","name":"Sabendo Andar","lat":-9.9183266,"lon":14.9191922,"type":"village"},{"id":"4887706943","name":"Pingana","lat":-9.9125878,"lon":14.9286282,"type":"village"},{"id":"4887706952","name":"Boa Vista da Pingana","lat":-9.9460571,"lon":14.9380374,"type":"village"},{"id":"4887706961","name":"Musseque dos Dambos","lat":-9.9906625,"lon":14.8634666,"type":"village"},{"id":"4887706968","name":"Cabunda","lat":-9.968494,"lon":14.82631,"type":"village"},{"id":"4908809615","name":"Cainde","lat":-15.4982459,"lon":13.3685455,"type":"village"},{"id":"5064103791","name":"Magia","lat":-9.8445952,"lon":14.8036319,"type":"village"},{"id":"5064103803","name":"Quiela II","lat":-9.8764621,"lon":14.8428029,"type":"village"},{"id":"5064104625","name":"Cabuta-Sede","lat":-9.8355649,"lon":14.8634291,"type":"village"},{"id":"5064104644","name":"Bango de Caxica","lat":-9.8510724,"lon":14.8864102,"type":"village"},{"id":"5064104663","name":"Nguelela","lat":-9.8810071,"lon":14.8968923,"type":"village"},{"id":"5065785478","name":"Kachongono","lat":-11.2434514,"lon":15.0543702,"type":"village"},{"id":"5066305584","name":"Sanga","lat":-11.1303422,"lon":15.4304229,"type":"village"},{"id":"5066706085","name":"Kimone","lat":-10.6291546,"lon":14.9610239,"type":"village"},{"id":"5066793726","name":"Boa Vista","lat":-10.0372585,"lon":14.924857,"type":"village"},{"id":"5068753702","name":"Kizumbo do Mucongo","lat":-10.0185057,"lon":14.8113593,"type":"village"},{"id":"5070844365","name":"Mucula dos Dambos","lat":-9.9486145,"lon":14.8792916,"type":"village"},{"id":"5071146150","name":"Mugilaengue","lat":-9.9900946,"lon":15.0784188,"type":"village"},{"id":"5071146154","name":"Quissuto","lat":-10.0513197,"lon":15.0931549,"type":"village"},{"id":"5091988037","name":"Maria Augusta","lat":-10.9192543,"lon":14.3448776,"type":"village"},{"id":"5126085752","name":"Cahomba","lat":-10.0365243,"lon":14.9345398,"type":"village"},{"id":"5126085768","name":"Terra Nova","lat":-10.0553446,"lon":14.9527144,"type":"village"},{"id":"5126085782","name":"Catete","lat":-10.0800266,"lon":14.9733943,"type":"village"},{"id":"5126085800","name":"Ubalanga","lat":-10.1551936,"lon":15.0655818,"type":"village"},{"id":"5126085815","name":"Kissumbata","lat":-10.1711743,"lon":15.0862884,"type":"village"},{"id":"5126085833","name":"Lucola","lat":-10.0354361,"lon":14.9307606,"type":"village"},{"id":"5126085844","name":"Canamembe","lat":-10.0467876,"lon":14.9420822,"type":"village"},{"id":"5126085862","name":"Carinje","lat":-10.110199,"lon":15.0705385,"type":"village"},{"id":"5126085869","name":"Cambulungo","lat":-10.06069,"lon":15.0769865,"type":"village"},{"id":"5126085884","name":"Quitalemba","lat":-9.8664576,"lon":14.8813999,"type":"village"},{"id":"5126085892","name":"Kituma","lat":-9.8527954,"lon":14.8326588,"type":"village"},{"id":"5130260709","name":"Cambingo","lat":-9.8177785,"lon":14.5434684,"type":"village"},{"id":"5223413021","name":"Kissuquila","lat":-11.1604767,"lon":15.0493705,"type":"village"},{"id":"5224948844","name":"Hichingo","lat":-10.9051007,"lon":14.2481947,"type":"village"},{"id":"5224948852","name":"Casal","lat":-10.9342605,"lon":14.2958844,"type":"village"},{"id":"5243303295","name":"Xele","lat":-10.4406239,"lon":14.8731399,"type":"village"},{"id":"5306835869","name":"Capolo","lat":-10.3906721,"lon":13.9857421,"type":"village"},{"id":"5359781122","name":"Luvo","lat":-5.8537625,"lon":14.0852001,"type":"village"},{"id":"5365953952","name":"Dinge","lat":-5.0086428,"lon":12.3298412,"type":"village"},{"id":"5365978288","name":"Banza Quitel","lat":-8.9687316,"lon":13.6301709,"type":"village"},{"id":"5365978309","name":"Mazozo","lat":-9.1071181,"lon":13.6190557,"type":"village"},{"id":"5365978310","name":"Sangano","lat":-9.5570894,"lon":13.2112205,"type":"village"},{"id":"5366016343","name":"Quibaxe","lat":-8.4972072,"lon":14.5909642,"type":"town"},{"id":"5366016360","name":"Piri","lat":-8.5321542,"lon":14.4373011,"type":"village"},{"id":"5366016395","name":"Muxaluando","lat":-8.1236097,"lon":14.2867058,"type":"town"},{"id":"5366034349","name":"Cuvati","lat":-15.3295561,"lon":16.8506047,"type":"village"},{"id":"5366034377","name":"Diziva","lat":-15.5195504,"lon":17.3065647,"type":"village"},{"id":"5366034383","name":"Cacondo","lat":-13.5363009,"lon":21.381669,"type":"village"},{"id":"5366034384","name":"Lutembo","lat":-13.4867911,"lon":21.3743734,"type":"village"},{"id":"5366046188","name":"Mulondo","lat":-15.6432048,"lon":15.1968598,"type":"village"},{"id":"5366079623","name":"Sôngua","lat":-9.6942515,"lon":17.4636698,"type":"village"},{"id":"5366079635","name":"Chissenga","lat":-9.836104,"lon":19.1518736,"type":"village"},{"id":"5366209109","name":"Cruzamento","lat":-11.848068,"lon":15.3508601,"type":"village"},{"id":"5366209110","name":"Franca","lat":-11.9868931,"lon":15.3643155,"type":"village"},{"id":"5366314817","name":"Cachoeira","lat":-10.9834583,"lon":14.0966392,"type":"town"},{"id":"5366315471","name":"Seles","lat":-11.4065682,"lon":14.3006319,"type":"town"},{"id":"5366363734","name":"Quicombo","lat":-11.320816,"lon":13.8179469,"type":"village"},{"id":"5366946720","name":"Cafofo","lat":-9.0290057,"lon":14.5593256,"type":"village"},{"id":"5366954821","name":"Zongue","lat":-9.0235144,"lon":14.5696843,"type":"village"},{"id":"5366954823","name":"Mussungo Aposse","lat":-9.1107822,"lon":14.5034176,"type":"village"},{"id":"5366954828","name":"Bumba Adondo","lat":-9.123792,"lon":14.5024788,"type":"village"},{"id":"5366954829","name":"Caleba","lat":-9.146736,"lon":14.4599283,"type":"village"},{"id":"5366954843","name":"Pango Aluquém","lat":-8.7123557,"lon":14.4607329,"type":"village"},{"id":"5366954846","name":"Cazua","lat":-8.8367851,"lon":14.4716227,"type":"village"},{"id":"5366954847","name":"Úcua","lat":-8.6499789,"lon":14.1603623,"type":"village"},{"id":"5366955220","name":"Cadá","lat":-10.8641796,"lon":14.3287334,"type":"town"},{"id":"5366955221","name":"Binge","lat":-10.8897191,"lon":14.3543887,"type":"village"},{"id":"5366955236","name":"Lemboca","lat":-10.8799155,"lon":14.3561482,"type":"village"},{"id":"5366955400","name":"Kaxicane","lat":-9.2209386,"lon":13.7258291,"type":"village"},{"id":"5366955403","name":"Chio","lat":-9.852708,"lon":14.0392442,"type":"village"},{"id":"5367632036","name":"Carima","lat":-9.5993112,"lon":15.6848395,"type":"village"},{"id":"5367632044","name":"M'Banza N'Dongo","lat":-9.6233291,"lon":15.5962515,"type":"village"},{"id":"5367635354","name":"Gazella","lat":-9.4026511,"lon":15.5966002,"type":"village"},{"id":"5458879426","name":"Deleto","lat":-17.1302107,"lon":18.2087413,"type":"village"},{"id":"5459818344","name":"Chingongo","lat":-12.3198373,"lon":14.5132426,"type":"village"},{"id":"5469344861","name":"Mamué","lat":-13.7996206,"lon":13.1182943,"type":"village"},{"id":"5469362547","name":"Camucuio","lat":-14.1145199,"lon":13.2423353,"type":"village"},{"id":"5515135279","name":"Mumbué","lat":-13.8957361,"lon":17.2958218,"type":"town"},{"id":"5519660149","name":"Sacambunge","lat":-10.4130885,"lon":22.2290606,"type":"village"},{"id":"5533205990","name":"Mbango","lat":-9.4812192,"lon":17.2303859,"type":"village"},{"id":"5533206679","name":"Nzagi","lat":-9.4291724,"lon":17.1830127,"type":"village"},{"id":"5533206681","name":"Catuto","lat":-9.4604733,"lon":17.2023017,"type":"village"},{"id":"5533258958","name":"Moma","lat":-9.7767463,"lon":17.4046147,"type":"village"},{"id":"5533964814","name":"Candala","lat":-9.2523663,"lon":18.2062997,"type":"village"},{"id":"5534057282","name":"Calandala","lat":-9.1652325,"lon":17.9966335,"type":"town"},{"id":"5534085769","name":"Caxito","lat":-8.5827504,"lon":13.6600788,"type":"town"},{"id":"5536504899","name":"Bairro Cahombo de Baixo","lat":-9.1619448,"lon":15.679227,"type":"village"},{"id":"5539767586","name":"Chioca","lat":-14.2235402,"lon":17.7541828,"type":"village"},{"id":"5548798503","name":"Quinguele","lat":-6.2490292,"lon":15.7186012,"type":"village"},{"id":"5548818123","name":"Quingoma","lat":-6.0447117,"lon":15.710855,"type":"village"},{"id":"6046294266","name":"Bundas","lat":-14.1118701,"lon":21.4354383,"type":"town"},{"id":"6199736535","name":"Quarteirão Quedas de Kalandula- Bloco J","lat":-9.004693,"lon":13.2578866,"type":"city_block"},{"id":"6200856524","name":"Massabi","lat":-4.9909516,"lon":12.0612973,"type":"village"},{"id":"6375873783","name":"Nene","lat":-15.1168522,"lon":13.5066175,"type":"village"},{"id":"6536599286","name":"Quilemba","lat":-9.6824952,"lon":14.7917614,"type":"village"},{"id":"6536940729","name":"Cahana","lat":-10.4705206,"lon":14.8886955,"type":"village"},{"id":"6542334369","name":"Chipomba","lat":-11.8035746,"lon":14.2925933,"type":"village"},{"id":"6544887492","name":"Quingala","lat":-5.9597247,"lon":16.1308694,"type":"village"},{"id":"6591202799","name":"Cunda-dia-Baze","lat":-8.9075227,"lon":17.0560522,"type":"town"},{"id":"6591203667","name":"Bairro Kibau/Milando","lat":-8.8949871,"lon":17.4081047,"type":"village"},{"id":"6762647403","name":"Luvei","lat":-13.0769963,"lon":21.1619156,"type":"village"},{"id":"6805462356","name":"Calomboloca","lat":-9.1596503,"lon":13.8285261,"type":"village"},{"id":"6997269494","name":"Kissuquila","lat":-11.1538664,"lon":15.057106,"type":"village"},{"id":"6997269522","name":"Kitundo-tungo","lat":-11.0975459,"lon":15.073328,"type":"village"},{"id":"6997612222","name":"Kazanga","lat":-10.9755827,"lon":15.0777107,"type":"village"},{"id":"6998029086","name":"Quilunda","lat":-10.9931295,"lon":14.0624893,"type":"village"},{"id":"6998065633","name":"Atango","lat":-10.9628222,"lon":14.1097176,"type":"village"},{"id":"6998103260","name":"Zambia","lat":-10.9432722,"lon":14.1443449,"type":"town"},{"id":"6998212232","name":"Hengue","lat":-10.9217115,"lon":14.2857242,"type":"village"},{"id":"6998985541","name":"Lembu","lat":-10.9387111,"lon":14.3109584,"type":"village"},{"id":"7003409203","name":"Pepa","lat":-10.827409,"lon":14.4422674,"type":"village"},{"id":"7003443095","name":"Kapango","lat":-10.8280477,"lon":14.4238257,"type":"village"},{"id":"7003777822","name":"Kijanga","lat":-10.7856699,"lon":15.0036444,"type":"village"},{"id":"7004256637","name":"Kassamba","lat":-11.0080973,"lon":15.0808382,"type":"village"},{"id":"7006124353","name":"Luxanda","lat":-10.462017,"lon":14.8851335,"type":"village"},{"id":"7006173685","name":"Mulemba","lat":-10.4081733,"lon":14.8564446,"type":"village"},{"id":"7006940856","name":"Kizou","lat":-10.3751534,"lon":14.8417568,"type":"village"},{"id":"7006958829","name":"Cambwembwe","lat":-10.2958688,"lon":14.8147282,"type":"village"},{"id":"7006994834","name":"Mabulo","lat":-10.2736554,"lon":14.8127434,"type":"village"},{"id":"7137226220","name":"Kigia","lat":-10.6769161,"lon":14.9710966,"type":"village"},{"id":"7138306372","name":"Massangano","lat":-9.6269371,"lon":14.2563028,"type":"village"},{"id":"7138735422","name":"Kilometro Dezasseis","lat":-9.3453201,"lon":14.2629097,"type":"village"},{"id":"7138735498","name":"Kilometro Dezoito","lat":-9.3768468,"lon":14.2772951,"type":"village"},{"id":"7138735578","name":"Kilometro Dezanove","lat":-9.3916291,"lon":14.2885389,"type":"village"},{"id":"7212015471","name":"Matala","lat":-14.7383594,"lon":15.0289306,"type":"town"},{"id":"7443296964","name":"Sandando","lat":-11.6599385,"lon":20.6940901,"type":"village"},{"id":"7541784964","name":"Huíla","lat":-15.0519536,"lon":13.5444085,"type":"town"},{"id":"7732426527","name":"Cuvelai-Mucolongodijo","lat":-15.6645206,"lon":15.8024087,"type":"village"},{"id":"7732459610","name":"Evale","lat":-16.5526626,"lon":15.740215,"type":"village"},{"id":"7732496295","name":"Ombala yo Mungo","lat":-17.0822031,"lon":15.1254491,"type":"village"},{"id":"7733518595","name":"Oncócua","lat":-16.6562913,"lon":13.4235285,"type":"village"},{"id":"7733584749","name":"Otchinjau","lat":-16.5032898,"lon":13.9249103,"type":"village"},{"id":"7801823723","name":"Capelongo","lat":-14.8871709,"lon":15.0809974,"type":"village"},{"id":"7801823777","name":"Freixiel","lat":-14.9227519,"lon":15.102622,"type":"village"},{"id":"7801836635","name":"Alcácer","lat":-14.8428022,"lon":15.0455821,"type":"village"},{"id":"7801836644","name":"Castanheira","lat":-14.8261095,"lon":15.0265236,"type":"village"},{"id":"7802897287","name":"Hombo","lat":-14.9092796,"lon":14.7775621,"type":"village"},{"id":"7836133532","name":"Capembe","lat":-14.8654662,"lon":14.1111803,"type":"village"},{"id":"7847747162","name":"Micosse","lat":-14.7621872,"lon":15.2582792,"type":"village"},{"id":"7911300857","name":"Lucira","lat":-13.8654983,"lon":12.5248067,"type":"town"},{"id":"7935726510","name":"Canacassala","lat":-8.1642923,"lon":14.1164214,"type":"village"},{"id":"7935850073","name":"Nambuangongo","lat":-8.0178739,"lon":14.2009745,"type":"village"},{"id":"7942005484","name":"Quela","lat":-9.2656993,"lon":17.0728653,"type":"village"},{"id":"7942597943","name":"Caombo","lat":-8.6953879,"lon":16.519571,"type":"village"},{"id":"7947648254","name":"Calandula","lat":-9.0894697,"lon":15.9570919,"type":"town"},{"id":"7960259773","name":"Monte Belo","lat":-12.4181986,"lon":14.3945416,"type":"village"},{"id":"7978776460","name":"Camaxilo","lat":-8.3385658,"lon":18.9157837,"type":"town"},{"id":"8037906655","name":"Sautar","lat":-11.1836018,"lon":18.4419514,"type":"town"},{"id":"8044962932","name":"Iongo","lat":-9.2064913,"lon":17.747739,"type":"town"},{"id":"8047014950","name":"Mecumba","lat":-10.0339634,"lon":18.363302,"type":"town"},{"id":"8067902150","name":"Songo","lat":-7.3530133,"lon":14.8473619,"type":"town"},{"id":"8068248876","name":"Nova Esperança","lat":-6.7344135,"lon":15.8882582,"type":"town"},{"id":"8073054398","name":"Cutato","lat":-12.3869912,"lon":16.4325815,"type":"town"},{"id":"8573113793","name":"Mucaba","lat":-7.2618613,"lon":15.0775981,"type":"village"},{"id":"8891482195","name":"Missombo","lat":-14.7921377,"lon":17.6818813,"type":"village"},{"id":"8913618265","name":"Tchihongo","lat":-14.5614316,"lon":17.7198853,"type":"village"},{"id":"8937015059","name":"Colui","lat":-14.5130006,"lon":15.9966719,"type":"village"},{"id":"8939245323","name":"Caholo","lat":-15.1332766,"lon":13.333328,"type":"village"},{"id":"8945465823","name":"Impulo","lat":-13.901321,"lon":13.6757116,"type":"village"},{"id":"8945465824","name":"Dinde","lat":-14.2704939,"lon":13.6935401,"type":"village"},{"id":"8949840631","name":"Gungue","lat":-13.733659,"lon":15.4087176,"type":"village"},{"id":"8979828364","name":"Caraculo","lat":-15.0215998,"lon":12.657491,"type":"village"},{"id":"8993609623","name":"Baía dos Tigres","lat":-16.6009447,"lon":11.7227012,"type":"village"},{"id":"8993609624","name":"Iona","lat":-16.8831804,"lon":12.5703407,"type":"village"},{"id":"9633927998","name":"Léua","lat":-11.6542475,"lon":20.4442454,"type":"town"},{"id":"9634197473","name":"Chianda","lat":-12.973883,"lon":20.8057475,"type":"village"},{"id":"9634197474","name":"Lungue","lat":-12.7555791,"lon":20.7296708,"type":"village"},{"id":"9643449266","name":"Cangombe","lat":-14.435102,"lon":20.0355503,"type":"village"},{"id":"9643538274","name":"Tempué","lat":-13.4377409,"lon":18.8814826,"type":"town"},{"id":"9646091357","name":"Mona Quimbundo","lat":-9.915391,"lon":20.0109852,"type":"village"},{"id":"9646437225","name":"Luia","lat":-8.1693816,"lon":21.5528683,"type":"village"},{"id":"9652161876","name":"Mupa","lat":-16.1804847,"lon":15.7459148,"type":"village"},{"id":"9654465652","name":"Cuchi","lat":-14.6519667,"lon":16.89399,"type":"town"},{"id":"9655134778","name":"Chiede","lat":-17.1734183,"lon":15.9915262,"type":"village"},{"id":"9661152045","name":"Cambandua","lat":-12.5103246,"lon":17.3227142,"type":"town"},{"id":"9661299787","name":"Cota","lat":-9.2681995,"lon":16.0969877,"type":"village"},{"id":"9661377413","name":"Calucinga","lat":-11.3248557,"lon":16.1951351,"type":"town"},{"id":"9661476881","name":"Mungo","lat":-11.8373101,"lon":16.2209165,"type":"town"},{"id":"9663719320","name":"Chicala-Choloanga","lat":-12.6338815,"lon":16.0461295,"type":"village"},{"id":"9663719327","name":"Lunge","lat":-12.211306,"lon":16.1096477,"type":"village"},{"id":"9664105647","name":"Gove","lat":-13.4592439,"lon":15.8464935,"type":"village"},{"id":"9666559352","name":"Catuculuca","lat":-12.222672,"lon":15.0927467,"type":"village"},{"id":"9675008562","name":"Ilha","lat":-9.0363035,"lon":13.5754752,"type":"village"},{"id":"9677806892","name":"Cassange","lat":-10.2339434,"lon":14.8049837,"type":"village"},{"id":"9677806893","name":"Lussusso","lat":-10.2257977,"lon":14.8064589,"type":"village"},{"id":"9677806897","name":"Muxixi","lat":-10.1874366,"lon":14.803471,"type":"village"},{"id":"9677806898","name":"Cangulo","lat":-10.1805675,"lon":14.7953224,"type":"village"},{"id":"9677806899","name":"Tatala","lat":-10.173223,"lon":14.7816968,"type":"village"},{"id":"9677806900","name":"Pedra Escrita","lat":-10.1538286,"lon":14.7420216,"type":"village"},{"id":"9677806907","name":"Banza de Munenga","lat":-10.0272061,"lon":14.6329737,"type":"village"},{"id":"9677806908","name":"Leha","lat":-10.0154999,"lon":14.6682152,"type":"village"},{"id":"9677806909","name":"Samba Karinje","lat":-9.995404,"lon":14.6961021,"type":"village"},{"id":"9677806910","name":"Tumba Pequena","lat":-9.989001,"lon":14.7069544,"type":"village"},{"id":"9677806911","name":"Bansa de Mussende","lat":-9.9863858,"lon":14.7658718,"type":"village"},{"id":"9677806914","name":"Vila Flor","lat":-10.0039782,"lon":14.8576462,"type":"village"},{"id":"9677806915","name":"Alto Ventura","lat":-10.0055419,"lon":14.8533815,"type":"village"},{"id":"9677806916","name":"Dala Uso","lat":-10.0015164,"lon":14.8392302,"type":"village"},{"id":"9677837719","name":"Popular","lat":-9.9685019,"lon":14.7943944,"type":"village"},{"id":"9677837720","name":"Cateculo","lat":-9.9706998,"lon":14.7980958,"type":"village"},{"id":"9677837721","name":"Qumbondo/Bango","lat":-9.9764164,"lon":14.798364,"type":"village"},{"id":"9677837810","name":"Gungo","lat":-11.8150994,"lon":14.1498811,"type":"village"},{"id":"9678026584","name":"Equimina","lat":-13.1963933,"lon":12.786865,"type":"village"},{"id":"9686042429","name":"Buco-Zau","lat":-4.7621662,"lon":12.5388765,"type":"city"},{"id":"9686042438","name":"Tando Zinze","lat":-5.37614,"lon":12.4848085,"type":"village"},{"id":"9686134019","name":"Mbanza Magina","lat":-6.2671869,"lon":14.289034,"type":"village"},{"id":"9695471812","name":"Quissaca","lat":-6.9254895,"lon":16.3433217,"type":"town"},{"id":"9695471832","name":"Uamba","lat":-7.319921,"lon":16.167105,"type":"village"},{"id":"9700969768","name":"Cassanguide","lat":-7.483672,"lon":21.303393,"type":"village"},{"id":"9703464819","name":"Lumboma","lat":-8.0371027,"lon":21.5067274,"type":"village"},{"id":"9709488057","name":"Nanguanza","lat":-9.888768,"lon":20.366558,"type":"village"},{"id":"9836850121","name":"Tchomporo Oximolo","lat":-16.3208946,"lon":16.6964533,"type":"village"},{"id":"10739211929","name":"Chicuaqueia","lat":-14.6159664,"lon":14.3005415,"type":"village"},{"id":"10768289410","name":"Alto Catumbela","lat":-12.9519348,"lon":14.7637299,"type":"village"},{"id":"10768404213","name":"Biópio","lat":-12.4698193,"lon":13.7348123,"type":"village"},{"id":"10776098552","name":"Cusse","lat":-13.5177863,"lon":15.1903075,"type":"town"},{"id":"10782394500","name":"Calépi","lat":-13.8720673,"lon":14.4977156,"type":"village"},{"id":"10787155107","name":"Capupa","lat":-13.4424862,"lon":14.2803109,"type":"village"},{"id":"10801572829","name":"Uaba","lat":-13.8742915,"lon":14.8897601,"type":"village"},{"id":"10862097911","name":"Ngola","lat":-14.1402513,"lon":14.4938438,"type":"village"},{"id":"10929011503","name":"Necuto","lat":-4.9524482,"lon":12.6198997,"type":"village"},{"id":"10961542848","name":"Miconge","lat":-4.5172995,"lon":12.8787095,"type":"village"},{"id":"10977443177","name":"Catumbela","lat":-12.4334253,"lon":13.543048,"type":"town"},{"id":"11021013702","name":"Palanca","lat":-14.9991331,"lon":13.4375955,"type":"village"},{"id":"11126807909","name":"Aldeia de Salieza","lat":-11.4016334,"lon":18.713004,"type":"village"},{"id":"11174922039","name":"Aldeia de Chiembele","lat":-11.5209275,"lon":19.8819627,"type":"village"},{"id":"11174922041","name":"Sacambundji","lat":-11.436787,"lon":19.8740791,"type":"village"},{"id":"11174922043","name":"Muxiringingi","lat":-11.5890042,"lon":19.9658918,"type":"village"},{"id":"11174928039","name":"Samuhala","lat":-11.5354768,"lon":19.9153643,"type":"village"},{"id":"11179482237","name":"Sachico","lat":-11.5304519,"lon":19.933191,"type":"village"},{"id":"11179482337","name":"Aldeia de Caweji","lat":-11.3646825,"lon":19.8443344,"type":"village"},{"id":"11250077813","name":"Tchivunga","lat":-8.5664896,"lon":18.8817562,"type":"village"},{"id":"11250078017","name":"Casseque Capasso","lat":-8.6378728,"lon":18.8194597,"type":"village"},{"id":"11407391469","name":"Samufundji","lat":-11.5435224,"lon":19.8419304,"type":"village"},{"id":"11542703891","name":"Fucauma","lat":-7.3798076,"lon":21.1973406,"type":"village"},{"id":"11581510259","name":"Aldeia do Kwanza","lat":-9.879894,"lon":16.2920849,"type":"village"},{"id":"11581510260","name":"Aldeia dos Rapidos do Kwanza","lat":-9.8856405,"lon":16.3010822,"type":"village"},{"id":"11595477069","name":"Nhamupenda","lat":-12.1597217,"lon":20.6402178,"type":"village"},{"id":"11681673670","name":"Aldeia de Sucali","lat":-11.4470194,"lon":19.7368074,"type":"village"},{"id":"11710456369","name":"Aldeia de Pinto Chaji","lat":-11.407562,"lon":19.7307753,"type":"village"},{"id":"11759050769","name":"Kanhengue","lat":-11.7460209,"lon":19.8533291,"type":"village"},{"id":"11759050770","name":"Luxia Sector","lat":-11.566335,"lon":19.742765,"type":"village"},{"id":"11759050869","name":"Samutambi","lat":-11.5979516,"lon":19.7404524,"type":"village"},{"id":"11759050870","name":"Samussua","lat":-11.5744017,"lon":19.7534849,"type":"village"},{"id":"11759050969","name":"Kambatchokwe","lat":-11.6415511,"lon":19.7722239,"type":"village"},{"id":"11950934617","name":"Cautoto","lat":-7.9008011,"lon":21.4320409,"type":"town"},{"id":"11950934618","name":"Samulenga","lat":-7.9137818,"lon":21.4402163,"type":"village"},{"id":"12006795061","name":"Quitongui","lat":-6.4471919,"lon":16.2374711,"type":"village"},{"id":"12006795062","name":"Cundi","lat":-6.4504009,"lon":16.2711596,"type":"village"},{"id":"12006848361","name":"Quimubabu","lat":-6.3837285,"lon":16.2243873,"type":"village"},{"id":"12021362064","name":"Diádiá","lat":-6.0410572,"lon":14.6804219,"type":"village"},{"id":"12022782365","name":"Bembe","lat":-7.0292358,"lon":14.3062699,"type":"town"},{"id":"12078183933","name":"Cambueia","lat":-12.5599148,"lon":17.034806,"type":"village"},{"id":"12118310401","name":"Vila da Muxima","lat":-9.5426951,"lon":13.911379,"type":"village"},{"id":"12118613575","name":"Cavunda","lat":-8.9238294,"lon":14.6530995,"type":"village"},{"id":"12120195665","name":"Canaúlo","lat":-9.1305292,"lon":14.8535693,"type":"village"},{"id":"12149759254","name":"Sabataca","lat":-8.6333293,"lon":17.3982641,"type":"village"},{"id":"12149787836","name":"Nguriacama","lat":-8.3906643,"lon":17.6941851,"type":"village"},{"id":"12149790639","name":"Catchinga","lat":-8.5580897,"lon":17.7717429,"type":"village"},{"id":"12149790730","name":"Cáfu","lat":-8.6156015,"lon":17.5344425,"type":"town"},{"id":"12149790988","name":"Demena","lat":-8.5683833,"lon":17.6104993,"type":"village"},{"id":"12179295923","name":"Vunge","lat":-10.4829211,"lon":14.0376707,"type":"village"},{"id":"12179295924","name":"Calumbi","lat":-10.4007544,"lon":14.0478263,"type":"village"},{"id":"12408349315","name":"Xissa Mucari","lat":-9.4730472,"lon":16.9139567,"type":"village"},{"id":"12408349341","name":"Quibuco","lat":-9.5083793,"lon":16.9999055,"type":"village"},{"id":"12408349349","name":"Bumbatumba de Cima","lat":-9.5352064,"lon":17.0120014,"type":"village"},{"id":"12408349350","name":"Caxinga","lat":-9.5434133,"lon":17.0193062,"type":"village"},{"id":"12408349360","name":"Candumbo","lat":-9.9831299,"lon":17.3100101,"type":"village"},{"id":"12408349365","name":"Malengue","lat":-9.6329918,"lon":17.1812154,"type":"village"},{"id":"12408349366","name":"Ngando Calomba","lat":-9.6192041,"lon":17.1677342,"type":"village"},{"id":"12408349367","name":"Zungue","lat":-9.6051762,"lon":17.1523123,"type":"village"},{"id":"12408349368","name":"Quicunga Nuno","lat":-9.5934996,"lon":17.1298495,"type":"village"},{"id":"12454203486","name":"Pêso Velho","lat":-10.0272158,"lon":19.8106341,"type":"village"},{"id":"12461708858","name":"Toca","lat":-11.0078422,"lon":20.1255423,"type":"village"},{"id":"12461708860","name":"Cazôa","lat":-10.8438276,"lon":19.871867,"type":"village"},{"id":"12461708866","name":"Macuamuilo","lat":-10.7116033,"lon":19.8430252,"type":"village"},{"id":"12469712103","name":"Cavuba","lat":-8.7620254,"lon":17.6044882,"type":"village"},{"id":"12469712149","name":"Cassele","lat":-8.8244821,"lon":17.6092261,"type":"village"},{"id":"12469712179","name":"Quinzunzo","lat":-8.9313478,"lon":17.6829009,"type":"village"},{"id":"12469712181","name":"Cassanje Calucala","lat":-8.9105928,"lon":17.6425449,"type":"village"},{"id":"12474252201","name":"Camundambala","lat":-9.7476292,"lon":20.4034444,"type":"village"},{"id":"12476983539","name":"Catambue","lat":-17.0647541,"lon":18.1681466,"type":"village"},{"id":"12478534051","name":"Pedra de Feitiço","lat":-5.923411,"lon":12.9632749,"type":"village"},{"id":"12478534075","name":"Umpuelo","lat":-5.9089078,"lon":13.039623,"type":"village"},{"id":"12488236772","name":"Cacóco","lat":-11.7753019,"lon":17.300865,"type":"village"},{"id":"12488236773","name":"Mingungo","lat":-11.8558012,"lon":17.3663807,"type":"village"},{"id":"12488236774","name":"Casseque","lat":-11.7872698,"lon":17.4260384,"type":"village"},{"id":"12488236788","name":"Tchimbonde","lat":-11.8152841,"lon":17.3890293,"type":"village"},{"id":"12488236789","name":"Calalavela","lat":-11.8158827,"lon":17.4315584,"type":"village"},{"id":"12488236934","name":"Tchilala","lat":-11.7932247,"lon":17.2757435,"type":"village"},{"id":"12488237258","name":"Cavimo","lat":-11.7571677,"lon":17.1543735,"type":"village"},{"id":"12493947477","name":"Canguengo","lat":-11.8440567,"lon":16.8100369,"type":"village"},{"id":"12493947679","name":"Capeça","lat":-11.8832677,"lon":16.8391871,"type":"village"},{"id":"12493947995","name":"Capango","lat":-11.8208446,"lon":17.103374,"type":"village"},{"id":"12493948015","name":"Satchiuala","lat":-11.8873623,"lon":17.0922267,"type":"village"},{"id":"12493948016","name":"Tchahuila","lat":-11.8787112,"lon":17.1042752,"type":"village"},{"id":"12497003302","name":"Chindundo","lat":-11.7224507,"lon":16.3412726,"type":"village"},{"id":"12500667181","name":"Ienga","lat":-6.7735824,"lon":13.5506795,"type":"village"},{"id":"12500698011","name":"N'koko","lat":-5.9821404,"lon":14.0706266,"type":"village"},{"id":"12524917620","name":"Kambila","lat":-11.4300897,"lon":19.8676494,"type":"village"},{"id":"12524917621","name":"Katawala","lat":-11.4224143,"lon":19.9364351,"type":"village"},{"id":"12550114700","name":"Muatchimbundo","lat":-8.4137856,"lon":19.6105635,"type":"village"},{"id":"12572451996","name":"Quimecanza","lat":-7.7829948,"lon":16.6022462,"type":"village"},{"id":"12610650981","name":"Samussamba Velho","lat":-11.6149315,"lon":20.7587099,"type":"village"},{"id":"12610691022","name":"Tchissombo","lat":-11.4404254,"lon":20.7521063,"type":"village"},{"id":"12610698901","name":"Tchimbongue","lat":-11.5731282,"lon":20.7342213,"type":"village"},{"id":"12644211797","name":"Niatchihungo","lat":-11.7126729,"lon":20.9062636,"type":"village"},{"id":"12644219066","name":"Ndongue","lat":-11.5482535,"lon":20.0223791,"type":"village"},{"id":"12644247075","name":"Tchinganga-Samateu","lat":-11.6697765,"lon":20.3713755,"type":"village"},{"id":"12644247083","name":"Tchilundo","lat":-11.7619679,"lon":20.3951579,"type":"village"},{"id":"12646653995","name":"Ngua","lat":-11.0936135,"lon":20.4989755,"type":"village"},{"id":"12648337375","name":"Luxilo","lat":-7.5903247,"lon":21.3484604,"type":"town"},{"id":"12648337923","name":"Cacabamba","lat":-7.7427001,"lon":21.411093,"type":"village"},{"id":"12648469064","name":"Mundazala","lat":-7.3541194,"lon":20.2329701,"type":"village"},{"id":"12648469065","name":"Samunguindo","lat":-7.3840184,"lon":20.2987379,"type":"village"},{"id":"12648469066","name":"Camussalumuqe","lat":-7.4281344,"lon":20.4689777,"type":"village"},{"id":"12648469076","name":"Xá-Tambué","lat":-7.4307303,"lon":20.4925328,"type":"village"},{"id":"12648469077","name":"Lumua","lat":-7.4317941,"lon":20.5203795,"type":"town"},{"id":"12707557678","name":"Mambande","lat":-7.6011082,"lon":17.2216487,"type":"village"},{"id":"12714442643","name":"Quimbenga Teca","lat":-6.916543,"lon":16.1198133,"type":"village"},{"id":"12714701816","name":"Mbanza Cumi","lat":-6.9056043,"lon":15.7625996,"type":"village"},{"id":"12714712151","name":"Quitala","lat":-6.6467821,"lon":15.5828542,"type":"village"},{"id":"12714748760","name":"Mbanza Lucala","lat":-6.0374996,"lon":15.8841313,"type":"village"},{"id":"12715962365","name":"Cassanda","lat":-6.4807516,"lon":16.1758447,"type":"village"},{"id":"12716176419","name":"Quitubo","lat":-6.4435139,"lon":16.3148153,"type":"village"},{"id":"12716176746","name":"Pulolo","lat":-6.3331493,"lon":16.1858869,"type":"village"},{"id":"12716379129","name":"Quitudi","lat":-5.9894762,"lon":15.9933738,"type":"village"},{"id":"12716433184","name":"Quimbanji","lat":-6.3606693,"lon":16.1501952,"type":"village"},{"id":"12716433189","name":"Quimbaringa","lat":-6.4049348,"lon":16.1752915,"type":"village"},{"id":"12716433215","name":"Quimidembequesse","lat":-6.4391159,"lon":16.1760738,"type":"village"},{"id":"12732091405","name":"Quissembo","lat":-6.5930131,"lon":15.7724082,"type":"village"},{"id":"12741022739","name":"Quimelunga","lat":-7.5520946,"lon":15.347036,"type":"village"},{"id":"12741022740","name":"Calanda","lat":-7.5542588,"lon":15.4189927,"type":"village"},{"id":"12741022764","name":"Tema","lat":-7.6464236,"lon":15.4533657,"type":"village"},{"id":"12741064029","name":"Quibaba","lat":-7.6209572,"lon":15.707649,"type":"village"},{"id":"12741064035","name":"Cauenda","lat":-7.6725559,"lon":15.335919,"type":"village"},{"id":"12741064036","name":"Quindinga","lat":-7.6966916,"lon":15.4393583,"type":"village"},{"id":"12741064048","name":"Quimussandi","lat":-7.7136496,"lon":15.5040479,"type":"village"},{"id":"12741095992","name":"Nvungi","lat":-7.828239,"lon":15.4455811,"type":"village"},{"id":"12741150357","name":"Quituia","lat":-7.8343027,"lon":15.2365887,"type":"town"},{"id":"12744288865","name":"Quimalalo","lat":-7.4871448,"lon":14.9188747,"type":"village"},{"id":"12744288866","name":"Quiangala","lat":-7.4502441,"lon":14.8949246,"type":"village"},