[{"id":"81590481","name":"Buenos Aires","lat":-34.6095579,"lon":-58.3887904,"type":"city"},{"id":"177115640","name":"Valeria del Mar","lat":-37.1448156,"lon":-56.8796542,"type":"village"},{"id":"177242511","name":"Villa Gesell","lat":-37.2556627,"lon":-56.9679411,"type":"town"},{"id":"177295063","name":"San Clemente del Tuyú","lat":-36.3560513,"lon":-56.7194301,"type":"town"},{"id":"198396225","name":"La Trinidad","lat":-27.4142512,"lon":-65.5166241,"type":"village"},{"id":"198396241","name":"La Trinidad","lat":-34.1069866,"lon":-61.1328234,"type":"village"},{"id":"198396311","name":"La Unión","lat":-23.8968436,"lon":-63.1968718,"type":"village"},{"id":"198396330","name":"Las Pampitas","lat":-24.4036124,"lon":-65.0691696,"type":"village"},{"id":"198396429","name":"Lavalle","lat":-28.193858,"lon":-65.1129335,"type":"village"},{"id":"198396442","name":"Lavalle","lat":-29.0275862,"lon":-59.1871044,"type":"village"},{"id":"198396464","name":"La Vanguardia","lat":-33.3582473,"lon":-60.6568433,"type":"village"},{"id":"198396647","name":"La Verde","lat":-27.1304632,"lon":-59.3762738,"type":"village"},{"id":"198396743","name":"La Viña","lat":-25.4680687,"lon":-65.5655736,"type":"village"},{"id":"198396774","name":"La Violeta","lat":-33.7330396,"lon":-60.1685881,"type":"village"},{"id":"198396874","name":"Lazo","lat":-32.8713908,"lon":-59.4208617,"type":"village"},{"id":"198396905","name":"Lazzarino","lat":-34.1656774,"lon":-62.4281176,"type":"village"},{"id":"198396933","name":"Leales","lat":-27.1937478,"lon":-65.310329,"type":"village"},{"id":"198396952","name":"Leandro N. Alem","lat":-27.603636,"lon":-55.3235338,"type":"town"},{"id":"198396965","name":"Leandro N. Alem","lat":-32.4863399,"lon":-66.0530443,"type":"village"},{"id":"198396982","name":"Leandro N. Alem","lat":-34.5194325,"lon":-61.3912955,"type":"village"},{"id":"198397040","name":"Lehmann","lat":-31.1253381,"lon":-61.4524214,"type":"village"},{"id":"198397052","name":"Leleque","lat":-42.4124798,"lon":-71.0712489,"type":"village"},{"id":"198397100","name":"León","lat":-24.0369202,"lon":-65.4308398,"type":"village"},{"id":"198397104","name":"Leones","lat":-32.6595751,"lon":-62.297024,"type":"town"},{"id":"198397117","name":"León Rouges","lat":-27.2196443,"lon":-65.5287478,"type":"village"},{"id":"198397188","name":"Líbano","lat":-37.532088,"lon":-61.285195,"type":"village"},{"id":"198397200","name":"Líbaros","lat":-32.2621896,"lon":-58.9053213,"type":"village"},{"id":"198397206","name":"Libertad","lat":-30.0431693,"lon":-57.8218931,"type":"village"},{"id":"198397213","name":"Libertad","lat":-34.7003704,"lon":-58.6834869,"type":"city"},{"id":"198397228","name":"San Martín","lat":-32.4106063,"lon":-65.6756429,"type":"village"},{"id":"198397259","name":"Licenciado Matienzo","lat":-37.9093368,"lon":-58.9120935,"type":"village"},{"id":"198397290","name":"Pueblo Liebig","lat":-32.1550231,"lon":-58.1928741,"type":"village"},{"id":"198397317","name":"Lilo Viejo","lat":-26.9368803,"lon":-62.9504737,"type":"village"},{"id":"198397358","name":"Lima","lat":-34.0446637,"lon":-59.196098,"type":"town"},{"id":"198397499","name":"Llambí Campbell","lat":-31.1842135,"lon":-60.747687,"type":"village"},{"id":"198397537","name":"Llavallol","lat":-34.7965742,"lon":-58.4301778,"type":"town"},{"id":"198397562","name":"Lobería","lat":-38.1634815,"lon":-58.7819479,"type":"town"},{"id":"198397594","name":"Lobos","lat":-35.1856322,"lon":-59.0978393,"type":"town"},{"id":"198397619","name":"Logroño","lat":-29.5038105,"lon":-61.6961816,"type":"village"},{"id":"198397656","name":"Loma Alta","lat":-31.9607452,"lon":-61.1773261,"type":"village"},{"id":"198397695","name":"Loma Blanca","lat":-30.6409819,"lon":-66.2426864,"type":"village"},{"id":"198397883","name":"Lomas de Vallejos","lat":-27.7362579,"lon":-57.9188165,"type":"village"},{"id":"198397903","name":"Lomas de Zamora","lat":-34.7572582,"lon":-58.4026638,"type":"city"},{"id":"198397935","name":"Loma Verde","lat":-35.2726548,"lon":-58.4042317,"type":"village"},{"id":"198397987","name":"Loncopué","lat":-38.073177,"lon":-70.614414,"type":"village"},{"id":"198398032","name":"Londres","lat":-27.7126212,"lon":-67.1355516,"type":"village"},{"id":"198398059","name":"Lonquimay","lat":-36.4663968,"lon":-63.6236318,"type":"village"},{"id":"198398074","name":"López","lat":-31.9037969,"lon":-61.2770597,"type":"village"},{"id":"198398091","name":"Estación López","lat":-37.5528005,"lon":-59.6270551,"type":"village"},{"id":"198398130","name":"Loreto","lat":-27.3331111,"lon":-55.5224615,"type":"village"},{"id":"198398140","name":"Loreto","lat":-27.7683482,"lon":-57.2753879,"type":"village"},{"id":"198398196","name":"Loro Huasi","lat":-26.7346706,"lon":-66.0532645,"type":"village"},{"id":"198398266","name":"Los Alamitos","lat":-34.0594431,"lon":-69.1358272,"type":"village"},{"id":"198398374","name":"Los Altos","lat":-28.0468719,"lon":-65.4997332,"type":"village"},{"id":"198398410","name":"Los Ángeles","lat":-28.5079299,"lon":-65.9540555,"type":"village"},{"id":"198398455","name":"Los Árboles","lat":-33.1825806,"lon":-68.5648017,"type":"village"},{"id":"198398517","name":"Los Baldecitos","lat":-30.2208563,"lon":-67.695112,"type":"village"},{"id":"198398583","name":"Los Blancos","lat":-23.6091595,"lon":-62.5947302,"type":"village"},{"id":"198398637","name":"Los Cajones","lat":-32.0240684,"lon":-65.3721214,"type":"village"},{"id":"198398650","name":"Los Callejones","lat":-31.9262469,"lon":-65.2382627,"type":"village"},{"id":"198398661","name":"Los Cardales","lat":-34.3302621,"lon":-58.9873067,"type":"village"},{"id":"198398676","name":"Los Cardos","lat":-32.3223332,"lon":-61.6317174,"type":"village"},{"id":"198398686","name":"Los Castillos","lat":-27.9591246,"lon":-65.8126927,"type":"village"},{"id":"198398769","name":"Los Cerrillos","lat":-31.9725928,"lon":-65.4442412,"type":"village"},{"id":"198398854","name":"Los Chañaritos","lat":-31.4026698,"lon":-63.329335,"type":"village"},{"id":"198398866","name":"Los Charrúas","lat":-31.1695333,"lon":-58.1862719,"type":"village"},{"id":"198398890","name":"Los Cipreses","lat":-43.1830949,"lon":-71.641928,"type":"village"},{"id":"198398911","name":"Los Cisnes","lat":-33.4007419,"lon":-63.4703644,"type":"village"},{"id":"198398920","name":"Los Cocos","lat":-30.9250882,"lon":-64.5027028,"type":"village"},{"id":"198398996","name":"Los Conquistadores","lat":-30.591241,"lon":-58.4678083,"type":"village"},{"id":"198399090","name":"Los Helechos","lat":-27.5569255,"lon":-55.0761591,"type":"village"},{"id":"198399112","name":"Los Hornillos","lat":-31.8992271,"lon":-64.9880077,"type":"village"},{"id":"198399203","name":"Los Lapachos","lat":-24.4761616,"lon":-65.0771294,"type":"village"},{"id":"198399272","name":"Los Manantiales","lat":-24.5339026,"lon":-64.9772447,"type":"village"},{"id":"198399294","name":"Paraje Las Chacras","lat":-32.2424508,"lon":-65.0303981,"type":"village"},{"id":"198399335","name":"Los Menucos","lat":-40.8428016,"lon":-68.0859299,"type":"village"},{"id":"198399363","name":"Los Miches","lat":-37.2054736,"lon":-70.8193579,"type":"village"},{"id":"198399397","name":"Los Mistoles","lat":-30.626166,"lon":-63.8863043,"type":"village"},{"id":"198399443","name":"Los Molinos","lat":-28.7461682,"lon":-66.9326514,"type":"village"},{"id":"198399460","name":"Villa San Isidro","lat":-31.8230183,"lon":-64.387882,"type":"village"},{"id":"198399477","name":"Los Molinos","lat":-33.1023459,"lon":-61.3259258,"type":"village"},{"id":"198399500","name":"Los Molles","lat":-31.0184034,"lon":-64.2372294,"type":"village"},{"id":"198399513","name":"Los Molles","lat":-32.4388986,"lon":-65.0097867,"type":"village"},{"id":"198399733","name":"Los Nogales","lat":-33.1423474,"lon":-61.6068707,"type":"village"},{"id":"198399743","name":"Los Núñez","lat":-27.533333,"lon":-64.533333,"type":"village"},{"id":"198399770","name":"Los Palacios","lat":-29.3718532,"lon":-68.2326531,"type":"village"},{"id":"198399890","name":"Los Pinos","lat":-37.9427358,"lon":-58.3242216,"type":"village"},{"id":"198399903","name":"Los Pirpintos","lat":-26.1348702,"lon":-62.0651898,"type":"village"},{"id":"198399924","name":"Los Polvorines","lat":-34.5106413,"lon":-58.699072,"type":"town"},{"id":"198399967","name":"Los Puestos","lat":-27.2808347,"lon":-65.0175023,"type":"village"},{"id":"198400030","name":"Los Quiroga","lat":-27.652679,"lon":-64.3548653,"type":"village"},{"id":"198400050","name":"Los Quirquinchos","lat":-33.3791194,"lon":-61.7121111,"type":"village"},{"id":"198400066","name":"Los Ralos","lat":-26.8883896,"lon":-64.99846,"type":"village"},{"id":"198400136","name":"Los Reartes","lat":-31.9207483,"lon":-64.5769489,"type":"village"},{"id":"198400178","name":"Los Robles","lat":-28.4279134,"lon":-67.1123873,"type":"village"},{"id":"198400298","name":"Los Sauces","lat":-33.5947019,"lon":-69.1755873,"type":"village"},{"id":"198400354","name":"Los Surgentes","lat":-32.9851183,"lon":-62.0218636,"type":"village"},{"id":"198400424","name":"Los Telares","lat":-28.9848716,"lon":-63.4503579,"type":"village"},{"id":"198400441","name":"Los Tigres","lat":-25.9079789,"lon":-62.5947953,"type":"village"},{"id":"198400461","name":"Los Varela","lat":-27.9314816,"lon":-65.8719682,"type":"village"},{"id":"198400478","name":"Los Zorros","lat":-32.0458314,"lon":-63.2011211,"type":"village"},{"id":"198400523","name":"Lozada","lat":-31.6497631,"lon":-64.0894839,"type":"village"},{"id":"198400556","name":"Luan Toro","lat":-36.2039719,"lon":-65.0996917,"type":"village"},{"id":"198400567","name":"Luca","lat":-32.5401357,"lon":-63.4771802,"type":"village"},{"id":"198400584","name":"Lucas González","lat":-32.3843457,"lon":-59.5308748,"type":"village"},{"id":"198400640","name":"Lucio V. López","lat":-32.7126253,"lon":-61.0215965,"type":"village"},{"id":"198400658","name":"Lucio V. Mansilla","lat":-29.8044312,"lon":-64.711337,"type":"village"},{"id":"198400669","name":"Lugones","lat":-28.3371807,"lon":-63.3373459,"type":"village"},{"id":"198400679","name":"Luis Burela","lat":-24.3867004,"lon":-63.9900314,"type":"village"},{"id":"198400688","name":"Luis Guillón","lat":-34.8035282,"lon":-58.4498911,"type":"town"},{"id":"198400715","name":"Luis Palacios","lat":-32.7797654,"lon":-60.907216,"type":"village"},{"id":"198400733","name":"Luján","lat":-32.3645319,"lon":-65.9330307,"type":"village"},{"id":"198400743","name":"Luján","lat":-34.5661734,"lon":-59.1152598,"type":"town"},{"id":"198400754","name":"Luján de Cuyo","lat":-33.0391408,"lon":-68.8799861,"type":"town"},{"id":"198400760","name":"Lules","lat":-26.9222189,"lon":-65.3377612,"type":"town"},{"id":"198400783","name":"Lumbreras","lat":-25.209566,"lon":-64.9254542,"type":"village"},{"id":"198400853","name":"Luque","lat":-31.6476606,"lon":-63.3451057,"type":"village"},{"id":"198400889","name":"Estación Luxardo","lat":-31.3052518,"lon":-62.1337092,"type":"village"},{"id":"198400893","name":"Luyaba","lat":-32.1497856,"lon":-65.0584813,"type":"village"},{"id":"198400924","name":"Macachín","lat":-37.1369966,"lon":-63.6667496,"type":"village"},{"id":"198400934","name":"Macapillo","lat":-25.4031119,"lon":-63.9820685,"type":"village"},{"id":"198400971","name":"Machagai","lat":-26.9262074,"lon":-60.0484514,"type":"town"},{"id":"198401000","name":"Maciá","lat":-32.1721133,"lon":-59.395944,"type":"village"},{"id":"198401006","name":"Maciel","lat":-32.4568421,"lon":-60.8924252,"type":"village"},{"id":"198401042","name":"Maco","lat":-27.8587405,"lon":-64.2130823,"type":"village"},{"id":"198401105","name":"Magdala","lat":-36.0854353,"lon":-61.7235058,"type":"village"},{"id":"198401138","name":"Magdalena","lat":-35.0806403,"lon":-57.5177485,"type":"town"},{"id":"198401153","name":"Maggiolo","lat":-33.7211481,"lon":-62.2461083,"type":"village"},{"id":"198401172","name":"Villa Mailín","lat":-28.4824144,"lon":-63.2762021,"type":"village"},{"id":"198401184","name":"Maimará","lat":-23.624503,"lon":-65.4086015,"type":"village"},{"id":"198401200","name":"Mainqué","lat":-39.0642355,"lon":-67.3055971,"type":"village"},{"id":"198401233","name":"Maipú","lat":-36.8627488,"lon":-57.8829114,"type":"village"},{"id":"198401284","name":"Makallé","lat":-27.2058189,"lon":-59.2871558,"type":"village"},{"id":"198401298","name":"Malabrigo","lat":-29.3489728,"lon":-59.9700883,"type":"village"},{"id":"198401308","name":"Malagueño","lat":-31.4623876,"lon":-64.354327,"type":"town"},{"id":"198401336","name":"Malargüe","lat":-35.4683806,"lon":-69.5847324,"type":"town"},{"id":"198401366","name":"Malbrán","lat":-29.3461528,"lon":-62.4393427,"type":"village"},{"id":"198401380","name":"Malena","lat":-33.4904259,"lon":-64.4309746,"type":"village"},{"id":"198401512","name":"Malvinas Argentinas","lat":-31.3797088,"lon":-64.0542891,"type":"town"},{"id":"198401588","name":"Manantiales","lat":-28.1431162,"lon":-65.4967904,"type":"village"},{"id":"198401718","name":"Colonia Alemana de Mandisoví","lat":-30.9047213,"lon":-58.0000892,"type":"village"},{"id":"198401733","name":"Manfredi","lat":-31.8457855,"lon":-63.747563,"type":"village"},{"id":"198401812","name":"Mansupa","lat":-27.4539987,"lon":-64.9105879,"type":"village"},{"id":"198401887","name":"Manuel García Fernández","lat":-26.9556508,"lon":-65.270228,"type":"village"},{"id":"198401898","name":"Lezama","lat":-35.8726231,"lon":-57.8969198,"type":"village"},{"id":"198401921","name":"Manuel Ocampo","lat":-33.7645435,"lon":-60.6514683,"type":"village"},{"id":"198401936","name":"Manzanares","lat":-34.4519717,"lon":-59.0069163,"type":"village"},{"id":"198401983","name":"Maquinchao","lat":-41.2485309,"lon":-68.7016031,"type":"village"},{"id":"198402081","name":"Marcelino Escalada","lat":-30.5792945,"lon":-60.4693816,"type":"village"},{"id":"198402110","name":"Marcos Juárez","lat":-32.6946933,"lon":-62.104385,"type":"town"},{"id":"198402142","name":"Marcos Paz","lat":-34.7823325,"lon":-58.8377737,"type":"town"},{"id":"198402159","name":"Mar de Ajó","lat":-36.7212921,"lon":-56.6776091,"type":"town"},{"id":"198402179","name":"Mar de Cobo","lat":-37.7727255,"lon":-57.4508112,"type":"village"},{"id":"198402188","name":"Mar del Plata","lat":-37.9976168,"lon":-57.5482079,"type":"city"},{"id":"198402209","name":"Mar del Sur","lat":-38.340982,"lon":-57.994718,"type":"village"},{"id":"198402224","name":"Mar del Tuyú","lat":-36.5813187,"lon":-56.6874786,"type":"village"},{"id":"198402243","name":"Ostende","lat":-37.1249787,"lon":-56.8835152,"type":"village"},{"id":"198402269","name":"Margarita","lat":-29.6875707,"lon":-60.2532273,"type":"village"},{"id":"198402320","name":"María Ignacia","lat":-37.4014142,"lon":-59.5059713,"type":"village"},{"id":"198402383","name":"Mariano Acosta","lat":-34.7236216,"lon":-58.7922836,"type":"town"},{"id":"198402396","name":"Mariano Benítez","lat":-33.7077973,"lon":-60.5834675,"type":"village"},{"id":"198402415","name":"Mariano Boedo","lat":-26.109286,"lon":-58.4870998,"type":"village"},{"id":"198402425","name":"Mariano H. Alfonzo","lat":-33.91385,"lon":-60.8352526,"type":"village"},{"id":"198402443","name":"Mariano I. Loza","lat":-29.377434,"lon":-58.1938731,"type":"village"},{"id":"198402460","name":"Haedo","lat":-34.6431369,"lon":-58.5947185,"type":"town"},{"id":"198402504","name":"Mariano Moreno","lat":-38.7613768,"lon":-70.0365175,"type":"village"},{"id":"198402532","name":"San Mariano","lat":-31.6692408,"lon":-61.3480939,"type":"village"},{"id":"198402559","name":"María Susana","lat":-32.2669443,"lon":-61.9060762,"type":"village"},{"id":"198402572","name":"María Teresa","lat":-34.0046409,"lon":-61.9075147,"type":"village"},{"id":"198402658","name":"Martín de Loyola","lat":-35.7121138,"lon":-66.3540146,"type":"village"},{"id":"198402672","name":"Martínez","lat":-34.4939666,"lon":-58.510352,"type":"town"},{"id":"198402744","name":"Mártires","lat":-27.4231411,"lon":-55.3773832,"type":"village"},{"id":"198402784","name":"Marull","lat":-30.9939263,"lon":-62.8253519,"type":"village"},{"id":"198402897","name":"Matará","lat":-28.1080998,"lon":-63.194494,"type":"village"},{"id":"198402929","name":"Matheu","lat":-34.3818222,"lon":-58.8250914,"type":"town"},{"id":"198402945","name":"Matilde","lat":-31.792113,"lon":-60.9809266,"type":"village"},{"id":"198402958","name":"Matorrales","lat":-31.7147007,"lon":-63.5107742,"type":"village"},{"id":"198402978","name":"Mattaldi","lat":-34.4812116,"lon":-64.1708953,"type":"village"},{"id":"198402997","name":"Mauricio Mayer","lat":-36.2101165,"lon":-64.031815,"type":"village"},{"id":"198403034","name":"Máximo Paz","lat":-33.4831667,"lon":-60.9561804,"type":"village"},{"id":"198403054","name":"Máximo Paz","lat":-34.9370091,"lon":-58.6192087,"type":"town"},{"id":"198403074","name":"Colonia Mayo - Barrio La Milagrosa","lat":-26.8348464,"lon":-64.9893342,"type":"village"},{"id":"198403103","name":"Villa Maza","lat":-36.8002194,"lon":-63.3392294,"type":"village"},{"id":"198403144","name":"Mburucuyá","lat":-28.0465164,"lon":-58.2303422,"type":"village"},{"id":"198403155","name":"Mechita","lat":-35.0716192,"lon":-60.4094541,"type":"village"},{"id":"198403166","name":"Mechongué","lat":-38.1462247,"lon":-58.229206,"type":"village"},{"id":"198403223","name":"Medanitos","lat":-27.5242407,"lon":-67.5913743,"type":"village"},{"id":"198403260","name":"Médanos","lat":-33.4339563,"lon":-59.0696478,"type":"village"},{"id":"198403274","name":"Médanos","lat":-38.829028,"lon":-62.6934238,"type":"village"},{"id":"198403289","name":"Medellín","lat":-28.651611,"lon":-63.7846096,"type":"village"},{"id":"198403355","name":"Río del Valle","lat":-24.6747866,"lon":-64.2001291,"type":"village"},{"id":"198403392","name":"Media Naranja","lat":-30.6435613,"lon":-64.9281911,"type":"village"},{"id":"198403428","name":"Medrano","lat":-33.1811161,"lon":-68.614301,"type":"village"},{"id":"198403444","name":"Melchor Romero","lat":-34.9523003,"lon":-58.0509356,"type":"town"},{"id":"198403469","name":"Melincué","lat":-33.6609804,"lon":-61.4571172,"type":"village"},{"id":"198403525","name":"Mencué","lat":-40.4234611,"lon":-69.6139486,"type":"village"},{"id":"198403543","name":"Mendiolaza","lat":-31.265517,"lon":-64.3033178,"type":"town"},{"id":"198403560","name":"Mendoza","lat":-32.8894155,"lon":-68.8446177,"type":"city"},{"id":"198403599","name":"Mercedes","lat":-29.1835645,"lon":-58.0799951,"type":"town"},{"id":"198403614","name":"Mercedes","lat":-34.6506717,"lon":-59.4317202,"type":"town"},{"id":"198403646","name":"Villa de Merlo","lat":-32.342558,"lon":-65.0136903,"type":"town"},{"id":"198403651","name":"Merlo","lat":-34.6604988,"lon":-58.7321695,"type":"city"},{"id":"198403656","name":"Mesón de Fierro","lat":-27.4299142,"lon":-61.0184124,"type":"village"},{"id":"198403657","name":"San José de Metán","lat":-25.4969744,"lon":-64.971005,"type":"town"},{"id":"198403658","name":"Metán Viejo","lat":-25.532203,"lon":-64.9742189,"type":"village"},{"id":"198403659","name":"Metileo","lat":-35.7741639,"lon":-63.9407169,"type":"village"},{"id":"198403660","name":"Micaela Cascallares","lat":-38.4931936,"lon":-60.4674253,"type":"village"},{"id":"198403685","name":"Miguel Cané","lat":-36.157233,"lon":-63.5126058,"type":"village"},{"id":"198403730","name":"Miguel Riglos","lat":-36.8564272,"lon":-63.6878248,"type":"village"},{"id":"198403746","name":"Miguel Torres","lat":-33.5264061,"lon":-61.4657462,"type":"village"},{"id":"198403764","name":"Milagro","lat":-31.0057634,"lon":-65.9923885,"type":"village"},{"id":"198403848","name":"Mina Clavero","lat":-31.7209484,"lon":-65.0038795,"type":"town"},{"id":"198403940","name":"Ministro Ramos Mexía","lat":-40.5072244,"lon":-67.259951,"type":"village"},{"id":"198404007","name":"Miraflores","lat":-28.6010673,"lon":-65.906996,"type":"village"},{"id":"198404032","name":"Miramar de Ansenuza","lat":-30.9178638,"lon":-62.6785706,"type":"village"},{"id":"198404045","name":"Miramar","lat":-38.2704349,"lon":-57.8387997,"type":"town"},{"id":"198404138","name":"Misión Chaqueña","lat":-23.2616874,"lon":-63.7399342,"type":"village"},{"id":"198404160","name":"Misión Tacaaglé","lat":-24.9771424,"lon":-58.8223443,"type":"village"},{"id":"198404258","name":"Mocoretá","lat":-30.6192351,"lon":-57.9665847,"type":"village"},{"id":"198404276","name":"Moctezuma","lat":-35.4778726,"lon":-61.4956816,"type":"village"},{"id":"198404320","name":"Mogna","lat":-30.6953161,"lon":-68.3603969,"type":"village"},{"id":"198404345","name":"Moisés Ville","lat":-30.7155114,"lon":-61.469608,"type":"village"},{"id":"198404371","name":"Mojón de Fierro","lat":-26.0400222,"lon":-58.0534984,"type":"village"},{"id":"198404388","name":"Mojones Norte","lat":-31.4992755,"lon":-59.2124463,"type":"village"},{"id":"198404413","name":"Mojón Grande","lat":-27.7119594,"lon":-55.1574095,"type":"village"},{"id":"198404434","name":"Molinari","lat":-31.1996696,"lon":-64.4814662,"type":"village"},{"id":"198404483","name":"Molinos","lat":-25.4371092,"lon":-66.2945633,"type":"village"},{"id":"198404499","name":"Moll","lat":-35.0780251,"lon":-59.6519995,"type":"village"},{"id":"198404544","name":"Mones Cazón","lat":-36.2280732,"lon":-62.0064497,"type":"village"},{"id":"198404563","name":"Monigotes","lat":-30.4883586,"lon":-61.6340584,"type":"village"},{"id":"198404570","name":"Monje","lat":-32.360312,"lon":-60.9430126,"type":"village"},{"id":"198404625","name":"Monteagudo","lat":-27.5123057,"lon":-65.2799429,"type":"village"},{"id":"198404681","name":"Montecarlo","lat":-26.5674207,"lon":-54.7590379,"type":"town"},{"id":"198404687","name":"Monte Caseros","lat":-30.2496832,"lon":-57.6294418,"type":"town"},{"id":"198404695","name":"Monte Chingolo","lat":-34.7304997,"lon":-58.3562051,"type":"town"},{"id":"198404699","name":"Monte Comán","lat":-34.5945162,"lon":-67.8761636,"type":"village"},{"id":"198404720","name":"Monte Cristo","lat":-31.3419789,"lon":-63.9471781,"type":"town"},{"id":"198404737","name":"Monte de los Gauchos","lat":-33.6391139,"lon":-63.8894972,"type":"village"},{"id":"198404753","name":"Monte del Rosario","lat":-30.9822469,"lon":-63.6019485,"type":"village"},{"id":"198404846","name":"Monte Grande","lat":-34.8192731,"lon":-58.4664257,"type":"city"},{"id":"198404861","name":"Monte Leña","lat":-32.6112025,"lon":-62.5900289,"type":"village"},{"id":"198404888","name":"Monte Maíz","lat":-33.2042607,"lon":-62.6006255,"type":"village"},{"id":"198404896","name":"Monte Nievas","lat":-35.8615354,"lon":-64.1531278,"type":"village"},{"id":"198404910","name":"Monte Potrero","lat":-28.1829647,"lon":-65.660128,"type":"village"},{"id":"198405005","name":"Monterrico","lat":-24.4415518,"lon":-65.1646447,"type":"village"},{"id":"198405017","name":"Monteros","lat":-27.1653249,"lon":-65.4972201,"type":"town"},{"id":"198405025","name":"Montes de Oca","lat":-32.566261,"lon":-61.7683388,"type":"village"},{"id":"198405051","name":"Monte Vera","lat":-31.5168247,"lon":-60.6758789,"type":"village"},{"id":"198405157","name":"Morea","lat":-35.5536429,"lon":-60.5632252,"type":"village"},{"id":"198405191","name":"Morón","lat":-34.6510527,"lon":-58.6217416,"type":"city"},{"id":"198405201","name":"Morrison","lat":-32.5928994,"lon":-62.8334218,"type":"village"},{"id":"198405230","name":"Morse","lat":-34.7600669,"lon":-60.8445036,"type":"village"},{"id":"198405241","name":"Morteros","lat":-30.7107038,"lon":-62.0067058,"type":"town"},{"id":"198405249","name":"Agustín Mosconi","lat":-35.7403278,"lon":-60.5572213,"type":"village"},{"id":"198405399","name":"Muñiz","lat":-34.5550359,"lon":-58.7065136,"type":"town"},{"id":"198405466","name":"Mutquín","lat":-28.3147778,"lon":-66.1492059,"type":"village"},{"id":"198405488","name":"Nácate","lat":-30.8547803,"lon":-66.4247819,"type":"village"},{"id":"198405973","name":"Villa del Nahueve","lat":-37.1204364,"lon":-70.7697903,"type":"village"},{"id":"198406027","name":"Ñanducita","lat":-30.3702825,"lon":-61.1339073,"type":"village"},{"id":"198406041","name":"Napaleofú","lat":-37.6245201,"lon":-58.746788,"type":"village"},{"id":"198406069","name":"Napenay","lat":-26.7295358,"lon":-60.6168519,"type":"village"},{"id":"198406160","name":"Naré","lat":-30.948103,"lon":-60.4668904,"type":"village"},{"id":"198406228","name":"Navarro","lat":-35.0058641,"lon":-59.2779545,"type":"town"},{"id":"198406259","name":"Campo de la Cruz","lat":-22.5000724,"lon":-65.0969023,"type":"village"},{"id":"198406286","name":"Necochea","lat":-38.5545494,"lon":-58.7392624,"type":"town"},{"id":"198406350","name":"Nelson","lat":-31.2674356,"lon":-60.7622376,"type":"village"},{"id":"198406387","name":"Neuquén","lat":-38.9519679,"lon":-68.0591741,"type":"city"},{"id":"198406438","name":"Nicolás Bruzzone","lat":-34.4401943,"lon":-64.3414848,"type":"village"},{"id":"198406531","name":"Niquivil","lat":-30.409167,"lon":-68.688889,"type":"village"},{"id":"198406595","name":"Noetinger","lat":-32.3658853,"lon":-62.3073864,"type":"village"},{"id":"198406635","name":"Nogoyá","lat":-32.3985574,"lon":-59.787777,"type":"town"},{"id":"198406649","name":"Nono","lat":-31.797191,"lon":-65.0025173,"type":"village"},{"id":"198406671","name":"Nonogasta","lat":-29.3022675,"lon":-67.5063583,"type":"village"},{"id":"198406725","name":"Ñorquincó","lat":-41.8505118,"lon":-70.9026541,"type":"village"},{"id":"198406750","name":"Caá Catí","lat":-27.7521173,"lon":-57.6219992,"type":"village"},{"id":"198406765","name":"Nuestra Señora de Talavera","lat":-25.4605474,"lon":-63.7805985,"type":"village"},{"id":"198406789","name":"Nueva California","lat":-32.7494754,"lon":-68.3242266,"type":"village"},{"id":"198406805","name":"Nueva Escocia","lat":-31.6496817,"lon":-58.0164701,"type":"village"},{"id":"198406853","name":"Nueva Esperanza","lat":-26.0335742,"lon":-63.3154961,"type":"village"},{"id":"198406872","name":"Nueva Esperanza","lat":-26.2004067,"lon":-64.2402756,"type":"village"},{"id":"198406885","name":"Nueva Francia","lat":-28.173919,"lon":-64.1998701,"type":"village"},{"id":"198406903","name":"Nueva Galia","lat":-35.1152181,"lon":-65.2587163,"type":"village"},{"id":"198406936","name":"Nueva Lehmann","lat":-31.1156764,"lon":-61.515099,"type":"village"},{"id":"198406961","name":"Nueva Plata","lat":-35.9196045,"lon":-61.8141232,"type":"village"},{"id":"198407004","name":"Nueva Trinidad","lat":-27.4881825,"lon":-65.4898245,"type":"village"},{"id":"198407023","name":"Nueva Vizcaya","lat":-30.9676077,"lon":-58.611588,"type":"village"},{"id":"198407034","name":"9 de Julio","lat":-28.8408048,"lon":-58.8300517,"type":"village"},{"id":"198407048","name":"9 de Julio","lat":-31.6698203,"lon":-68.3901031,"type":"village"},{"id":"198407115","name":"Nuevo Torino","lat":-31.3459963,"lon":-61.2343985,"type":"village"},{"id":"198407151","name":"Oberá","lat":-27.4849798,"lon":-55.1202965,"type":"town"},{"id":"198407175","name":"Obispo Trejo","lat":-30.7810682,"lon":-63.4101362,"type":"village"},{"id":"198407277","name":"Ogilvie","lat":-29.3594029,"lon":-60.1876422,"type":"village"},{"id":"198407288","name":"O’Higgins","lat":-34.584395,"lon":-60.7019251,"type":"village"},{"id":"198407292","name":"Ojeda","lat":-35.3070212,"lon":-64.0068529,"type":"village"},{"id":"198407418","name":"Olaeta","lat":-33.0445136,"lon":-63.9062102,"type":"village"},{"id":"198407442","name":"Olaroz Chico","lat":-23.3929547,"lon":-66.8028886,"type":"village"},{"id":"198407463","name":"Olavarría","lat":-36.8938752,"lon":-60.3231676,"type":"city"},{"id":"198407479","name":"Olegario Víctor Andrade","lat":-27.569147,"lon":-55.5022242,"type":"village"},{"id":"198407515","name":"Oliden","lat":-35.1843158,"lon":-57.9486525,"type":"village"},{"id":"198407528","name":"Oliva","lat":-32.0424889,"lon":-63.5670199,"type":"town"},{"id":"198407535","name":"Olivera","lat":-34.6262241,"lon":-59.2536303,"type":"village"},{"id":"198407551","name":"Oliveros","lat":-32.5764738,"lon":-60.85222,"type":"village"},{"id":"198407588","name":"Olpas","lat":-30.8040557,"lon":-66.2433109,"type":"village"},{"id":"198407598","name":"Olta","lat":-30.630651,"lon":-66.2672978,"type":"village"},{"id":"198407612","name":"María Luisa","lat":-31.010786,"lon":-60.9107622,"type":"village"},{"id":"198407673","name":"Onagoity","lat":-34.7726098,"lon":-63.6710756,"type":"village"},{"id":"198407688","name":"Oncativo","lat":-31.9133731,"lon":-63.6817724,"type":"town"},{"id":"198407717","name":"Open Door","lat":-34.4910826,"lon":-59.0754031,"type":"village"},{"id":"198407760","name":"Oratorio","lat":-22.099268,"lon":-66.1331616,"type":"village"},{"id":"198407801","name":"Ordóñez","lat":-32.8410457,"lon":-62.8659311,"type":"village"},{"id":"198407819","name":"Ordoqui","lat":-35.8804426,"lon":-61.1601118,"type":"village"},{"id":"198407832","name":"Orense","lat":-38.6882222,"lon":-59.7807284,"type":"village"},{"id":"198407843","name":"Oriente","lat":-38.7442371,"lon":-60.6094327,"type":"village"},{"id":"198407861","name":"Oro Verde","lat":-31.8236822,"lon":-60.5158993,"type":"village"},{"id":"198407866","name":"Osvaldo Magnasco","lat":-31.3130427,"lon":-58.0592889,"type":"village"},{"id":"198407872","name":"Otumpa","lat":-27.3282875,"lon":-62.2249069,"type":"village"},{"id":"198408016","name":"Pachimoco","lat":-30.1979169,"lon":-68.8300915,"type":"village"},{"id":"198408032","name":"Campo de Herrera","lat":-27.0266679,"lon":-65.346104,"type":"village"},{"id":"198408051","name":"Padre Lozano","lat":-23.2162448,"lon":-63.8440405,"type":"village"},{"id":"198408142","name":"Palacios","lat":-30.7094368,"lon":-61.6221167,"type":"village"},{"id":"198408186","name":"Pala Pala","lat":-27.0594986,"lon":-65.2196244,"type":"village"},{"id":"198408306","name":"Palermo Oeste","lat":-24.9352008,"lon":-66.1638954,"type":"village"},{"id":"198408365","name":"Palmar Grande","lat":-27.9402008,"lon":-57.8994654,"type":"village"},{"id":"198408398","name":"Palma Sola","lat":-23.977989,"lon":-64.3035033,"type":"village"},{"id":"198408416","name":"Palma Sola","lat":-25.2480777,"lon":-57.9789733,"type":"village"},{"id":"198408430","name":"Palmira","lat":-33.050274,"lon":-68.5611335,"type":"town"},{"id":"198408512","name":"Palo Blanco","lat":-27.3357183,"lon":-67.7584041,"type":"village"},{"id":"198408532","name":"Palo Labrado","lat":-28.3228277,"lon":-65.619809,"type":"village"},{"id":"198408599","name":"Palo Negro","lat":-29.6750925,"lon":-62.1356515,"type":"village"},{"id":"198408641","name":"Palo Santo","lat":-25.5644541,"lon":-59.3376622,"type":"village"},{"id":"198408681","name":"Palpalá","lat":-24.2554935,"lon":-65.2093985,"type":"town"},{"id":"198408711","name":"Pampa Almirón","lat":-26.7010215,"lon":-59.1240566,"type":"village"},{"id":"198408719","name":"Pampa Blanca","lat":-24.535051,"lon":-65.072471,"type":"village"},{"id":"198408798","name":"Pampa del Indio","lat":-26.0485147,"lon":-59.9447808,"type":"village"},{"id":"198408815","name":"Pampa del Infierno","lat":-26.5034702,"lon":-61.1764799,"type":"village"},{"id":"198408822","name":"Pampa de los Guanacos","lat":-26.2315682,"lon":-61.8345299,"type":"village"},{"id":"198408973","name":"Pampa Pozo","lat":-26.49377,"lon":-64.5158346,"type":"village"},{"id":"198409020","name":"Pampa Vieja","lat":-30.2130061,"lon":-68.6907144,"type":"village"},{"id":"198409036","name":"Pampayasta Sud","lat":-32.25,"lon":-63.65,"type":"village"},{"id":"198409050","name":"Pampichuela","lat":-23.5550167,"lon":-65.0087184,"type":"village"},{"id":"198409081","name":"Panacán","lat":-29.9219772,"lon":-68.6831744,"type":"village"},{"id":"198409102","name":"Panambí","lat":-27.7223,"lon":-54.9148948,"type":"village"},{"id":"198409166","name":"Papagayos","lat":-32.6750204,"lon":-64.9888849,"type":"village"},{"id":"198409252","name":"San Isidro","lat":-29.498367,"lon":-59.3156815,"type":"village"},{"id":"198409278","name":"Paraná","lat":-31.7330145,"lon":-60.5298511,"type":"city"},{"id":"198409298","name":"Pardo","lat":-36.2430546,"lon":-59.3672619,"type":"village"},{"id":"198409309","name":"Pareditas","lat":-33.9425618,"lon":-69.0786038,"type":"village"},{"id":"198409348","name":"Parera","lat":-35.146788,"lon":-64.5022841,"type":"village"},{"id":"198409417","name":"Pascanas","lat":-33.1254772,"lon":-63.040249,"type":"village"},{"id":"198409427","name":"Pasco","lat":-32.7463243,"lon":-63.3416687,"type":"village"},{"id":"198409452","name":"Pasman","lat":-37.2244756,"lon":-62.1630242,"type":"village"},{"id":"198409528","name":"Paso de la Laguna","lat":-31.8020814,"lon":-59.1600682,"type":"village"},{"id":"198409540","name":"Paso de la Patria","lat":-27.3173037,"lon":-58.572589,"type":"village"},{"id":"198409557","name":"Paso de los Indios","lat":-38.5311191,"lon":-69.4121343,"type":"village"},{"id":"198409601","name":"Paso del Rey","lat":-34.6433257,"lon":-58.7521874,"type":"town"},{"id":"198409667","name":"Paso Grande","lat":-32.8774036,"lon":-65.6350751,"type":"village"},{"id":"198409779","name":"Paso Viejo","lat":-30.7670335,"lon":-65.1906075,"type":"village"},{"id":"198409799","name":"Pasteur","lat":-35.1411616,"lon":-62.2436381,"type":"village"},{"id":"198409841","name":"Patay","lat":-26.839573,"lon":-62.9299911,"type":"village"},{"id":"198409846","name":"Patquía","lat":-30.0480698,"lon":-66.8797228,"type":"village"},{"id":"198409860","name":"Patricios","lat":-35.4411137,"lon":-60.7165947,"type":"village"},{"id":"198409888","name":"Pavón","lat":-33.2432347,"lon":-60.4065545,"type":"village"},{"id":"198409892","name":"Pavón","lat":-34.3807747,"lon":-59.0426333,"type":"village"},{"id":"198409902","name":"Pavón Arriba","lat":-33.3116666,"lon":-60.8242434,"type":"village"},{"id":"198409912","name":"Payogasta","lat":-25.0513871,"lon":-66.1030959,"type":"village"},{"id":"198409940","name":"Pearson","lat":-33.6525761,"lon":-60.8902936,"type":"village"},{"id":"198409950","name":"Pedernal","lat":-31.6720681,"lon":-58.2308352,"type":"village"},{"id":"198409998","name":"Kilómetro 658","lat":-31.3701592,"lon":-63.5306311,"type":"village"},{"id":"198410008","name":"Pedro Gómez Cello","lat":-30.0374046,"lon":-60.3153054,"type":"village"},{"id":"198410021","name":"Mantilla","lat":-28.751389,"lon":-58.6530602,"type":"village"},{"id":"198410039","name":"El Sombrero","lat":-27.7028104,"lon":-58.7681271,"type":"village"},{"id":"198410047","name":"Pehuajó","lat":-35.8104933,"lon":-61.899055,"type":"town"},{"id":"198410074","name":"Pellegrini","lat":-36.2678695,"lon":-63.1645324,"type":"village"},{"id":"198410120","name":"Perdriel","lat":-33.0778575,"lon":-68.885441,"type":"village"},{"id":"198410125","name":"Pereyra","lat":-34.8350819,"lon":-58.0948019,"type":"village"},{"id":"198410129","name":"Pérez","lat":-32.9982237,"lon":-60.7708529,"type":"town"},{"id":"198410141","name":"Pérez Millán","lat":-33.7702343,"lon":-60.0938486,"type":"village"},{"id":"198410145","name":"Pergamino","lat":-33.897495,"lon":-60.575046,"type":"city"},{"id":"198410156","name":"Perico","lat":-24.3761853,"lon":-65.1181555,"type":"town"},{"id":"198410180","name":"Perito Moreno","lat":-46.5915874,"lon":-70.925525,"type":"village"},{"id":"198410197","name":"Perugorría","lat":-29.3407733,"lon":-58.6082715,"type":"village"},{"id":"198410240","name":"Peyrano","lat":-33.5383536,"lon":-60.7997448,"type":"village"},{"id":"198410245","name":"Philipps","lat":-33.2041702,"lon":-68.3778322,"type":"village"},{"id":"198410246","name":"Piamonte","lat":-32.1439613,"lon":-61.980515,"type":"village"},{"id":"198410248","name":"Gobernador López","lat":-27.6661265,"lon":-55.2136008,"type":"village"},{"id":"198410251","name":"Pichanal","lat":-23.3220599,"lon":-64.2269308,"type":"town"},{"id":"198410254","name":"Pichi Huinca","lat":-35.6485157,"lon":-64.7697858,"type":"village"},{"id":"198410281","name":"Picún Leufú","lat":-39.5185334,"lon":-69.2911066,"type":"village"},{"id":"198410351","name":"Piedra del Águila","lat":-40.0485524,"lon":-70.075178,"type":"village"},{"id":"198410404","name":"Piedra Pintada","lat":-31.9260548,"lon":-65.1511748,"type":"village"},{"id":"198410495","name":"Piedras Blancas","lat":-31.1855197,"lon":-59.9508327,"type":"village"},{"id":"198410564","name":"Piedritas","lat":-34.7672035,"lon":-62.9857141,"type":"village"},{"id":"198410587","name":"Pigüé","lat":-37.6027951,"lon":-62.4023096,"type":"town"},{"id":"198410603","name":"Pila","lat":-36.0041337,"lon":-58.1411256,"type":"village"},{"id":"198410660","name":"Pilar","lat":-31.6814428,"lon":-63.8823844,"type":"town"},{"id":"198410665","name":"Pilar","lat":-34.4570918,"lon":-58.9141609,"type":"town"},{"id":"198410681","name":"Pilcaniyeu","lat":-41.1223885,"lon":-70.722091,"type":"village"},{"id":"198410721","name":"Pilo Lil","lat":-39.6042393,"lon":-70.9354347,"type":"village"},{"id":"198410801","name":"Pincén","lat":-34.8379139,"lon":-63.9165997,"type":"village"},{"id":"198410820","name":"Pinchas","lat":-28.934793,"lon":-66.9612076,"type":"village"},{"id":"198410838","name":"Piñero","lat":-33.1092111,"lon":-60.7966353,"type":"village"},{"id":"198410915","name":"Pinzón","lat":-33.9933863,"lon":-60.7305187,"type":"village"},{"id":"198410929","name":"Piquete Cabado","lat":-24.8199213,"lon":-64.1779238,"type":"village"},{"id":"198410946","name":"Piquillín","lat":-31.300212,"lon":-63.7586562,"type":"village"},{"id":"198410980","name":"Pirané","lat":-25.7281876,"lon":-59.1064419,"type":"town"},{"id":"198410998","name":"Pirovano","lat":-36.5101321,"lon":-61.5554592,"type":"village"},{"id":"198411047","name":"Pituil","lat":-28.5760223,"lon":-67.449135,"type":"village"},{"id":"198411063","name":"Plá","lat":-35.1224585,"lon":-60.2210492,"type":"village"},{"id":"198411082","name":"Plátanos","lat":-34.7829749,"lon":-58.1757579,"type":"town"},{"id":"198411222","name":"Plaza Huincul","lat":-38.9304191,"lon":-69.200246,"type":"town"},{"id":"198411271","name":"Plaza San Francisco","lat":-31.3711366,"lon":-62.0982137,"type":"village"},{"id":"198411300","name":"Plaza Vieja","lat":-28.965725,"lon":-67.5166025,"type":"village"},{"id":"198411320","name":"Plomer","lat":-34.7930828,"lon":-59.0293976,"type":"village"},{"id":"198411345","name":"Pluma de Pato","lat":-23.3705136,"lon":-63.094872,"type":"village"},{"id":"198411360","name":"Villa de Pocho","lat":-31.4902789,"lon":-65.2818514,"type":"village"},{"id":"198411376","name":"La Rinconada","lat":-31.6886468,"lon":-68.5852673,"type":"village"},{"id":"198411390","name":"Estación La Punta","lat":-28.4113103,"lon":-64.7552412,"type":"village"},{"id":"198411463","name":"Polvaredas","lat":-32.7929377,"lon":-69.6519408,"type":"village"},{"id":"198411476","name":"Polvaredas","lat":-35.5945896,"lon":-59.5069432,"type":"village"},{"id":"198411485","name":"Pomán","lat":-28.3951319,"lon":-66.2183688,"type":"village"},{"id":"198411500","name":"Pomancillo Este","lat":-28.3041607,"lon":-65.7192343,"type":"village"},{"id":"198411512","name":"Pomona","lat":-39.4871502,"lon":-65.6105865,"type":"village"},{"id":"198411527","name":"Pontaut","lat":-37.7317458,"lon":-61.3238735,"type":"village"},{"id":"198411541","name":"Pontevedra","lat":-34.7497921,"lon":-58.7017773,"type":"town"},{"id":"198411569","name":"Porteña","lat":-31.0141185,"lon":-62.0620489,"type":"village"},{"id":"198411627","name":"Porvenir","lat":-34.9501836,"lon":-62.223094,"type":"village"},{"id":"198411639","name":"Posadas","lat":-27.3664824,"lon":-55.894295,"type":"city"},{"id":"198411650","name":"Posta Cambio Zalazar","lat":-24.2114832,"lon":-60.1954676,"type":"village"},{"id":"198411659","name":"General San Martín II","lat":-24.4372268,"lon":-59.6545371,"type":"village"},{"id":"198411722","name":"El Potrero","lat":-27.5096936,"lon":-66.3291327,"type":"village"},{"id":"198411746","name":"Potrero de los Funes","lat":-33.2135198,"lon":-66.2229416,"type":"village"},{"id":"198411783","name":"Pozo Bertbeder","lat":-26.4099262,"lon":-64.3371099,"type":"village"},{"id":"198411797","name":"Pozo Borrado","lat":-28.9380061,"lon":-61.7052023,"type":"village"},{"id":"198412032","name":"Pozo del Mortero","lat":-24.4031455,"lon":-61.0321492,"type":"village"},{"id":"198412096","name":"Pozo del Tigre","lat":-24.8957726,"lon":-60.319435,"type":"village"},{"id":"198412134","name":"Pozo de Maza","lat":-23.5709595,"lon":-61.707022,"type":"village"},{"id":"198412153","name":"Pozo de Piedra","lat":-27.5667328,"lon":-67.1381789,"type":"village"},{"id":"198412249","name":"Pozo Hondo","lat":-27.1670114,"lon":-64.4908677,"type":"village"},{"id":"198412340","name":"Pozuelos","lat":-27.3080494,"lon":-64.7537924,"type":"village"},{"id":"198412386","name":"Presidencia de la Plaza","lat":-26.998633,"lon":-59.8465764,"type":"village"},{"id":"198412412","name":"Presidencia Roque Sáenz Peña","lat":-26.7911715,"lon":-60.4411021,"type":"town"},{"id":"198412419","name":"Presidente Derqui","lat":-34.4928427,"lon":-58.8387197,"type":"town"},{"id":"198412447","name":"Presidente Roca","lat":-31.2121164,"lon":-61.6135175,"type":"village"},{"id":"198412486","name":"Profesor Salvador Mazza","lat":-22.0515107,"lon":-63.6919523,"type":"town"},{"id":"198412498","name":"Profundidad","lat":-27.5617996,"lon":-55.7044543,"type":"village"},{"id":"198412512","name":"Progreso","lat":-31.1378938,"lon":-60.9896847,"type":"village"},{"id":"198412517","name":"Pronunciamiento","lat":-32.3461182,"lon":-58.4439843,"type":"village"},{"id":"198412542","name":"Providencia","lat":-30.9830804,"lon":-61.0209889,"type":"village"},{"id":"198412559","name":"Puan","lat":-37.5481203,"lon":-62.7683905,"type":"village"},{"id":"198412625","name":"Parada Pucheta","lat":-29.905836,"lon":-57.5744047,"type":"village"},{"id":"198412699","name":"Pueblo Brugo","lat":-31.3874682,"lon":-60.0918469,"type":"village"},{"id":"198412759","name":"Pueblo Italiano","lat":-33.8822805,"lon":-62.8405243,"type":"village"},{"id":"198412796","name":"Pueblo Libertador","lat":-30.2207322,"lon":-59.3920936,"type":"village"},{"id":"198412806","name":"Pueblo Marini","lat":-31.0384962,"lon":-61.8893648,"type":"village"},{"id":"198412825","name":"Pueblo Moreno","lat":-31.5869061,"lon":-60.0602868,"type":"village"},{"id":"198412840","name":"Las Moscas","lat":-32.091452,"lon":-58.9559185,"type":"village"},{"id":"198412856","name":"Pueblo Muñoz","lat":-33.1724748,"lon":-60.8968966,"type":"village"},{"id":"198412941","name":"San José","lat":-37.5069516,"lon":-61.9177864,"type":"village"},{"id":"198413090","name":"Puelches","lat":-38.1463642,"lon":-65.9140456,"type":"village"},{"id":"198413103","name":"Puelén","lat":-37.3475108,"lon":-67.6247011,"type":"village"},{"id":"198413142","name":"Puente del Inca","lat":-32.8249195,"lon":-69.9097755,"type":"village"},{"id":"198413181","name":"Puerta de Corral Quemado","lat":-27.227949,"lon":-66.9341063,"type":"village"},{"id":"198413360","name":"Puerto Aragón","lat":-32.2445231,"lon":-60.9185466,"type":"village"},{"id":"198413391","name":"Puerto Bandera","lat":-50.3137244,"lon":-72.7918845,"type":"village"},{"id":"198413425","name":"Puerto Bermejo Viejo","lat":-26.92909,"lon":-58.5089509,"type":"village"},{"id":"198413565","name":"Puerto Deseado","lat":-47.7516166,"lon":-65.9013234,"type":"town"},{"id":"198413761","name":"Puerto Iguazú","lat":-25.6107508,"lon":-54.5764199,"type":"town"},{"id":"198413899","name":"Puerto Leoni","lat":-26.9886138,"lon":-55.1658693,"type":"village"},{"id":"198413913","name":"Puerto Libertad","lat":-25.9213347,"lon":-54.5843226,"type":"village"},{"id":"198413946","name":"Puerto Pinares","lat":-26.4260058,"lon":-54.6839017,"type":"village"},{"id":"198413971","name":"Puerto Madryn","lat":-42.7673414,"lon":-65.0365942,"type":"city"},{"id":"198414134","name":"Puerto Piray","lat":-26.4672678,"lon":-54.7180771,"type":"village"},{"id":"198414179","name":"Puerto Reconquista","lat":-29.2347296,"lon":-59.5808045,"type":"village"},{"id":"198414254","name":"Puerto Ruiz","lat":-33.2211852,"lon":-59.3641248,"type":"village"},{"id":"198414310","name":"Puerto San Julián","lat":-49.3069531,"lon":-67.7297851,"type":"town"},{"id":"198414346","name":"Puerto General San Martín","lat":-32.7116197,"lon":-60.7341243,"type":"town"},{"id":"198414366","name":"Puerto Santa Cruz","lat":-50.0199667,"lon":-68.5200723,"type":"village"},{"id":"198414399","name":"Puerto Tirol","lat":-27.3750604,"lon":-59.087509,"type":"village"},{"id":"198414440","name":"Puerto Vilelas","lat":-27.5171208,"lon":-58.9405157,"type":"village"},{"id":"198414475","name":"Puerto Yeruá","lat":-31.533997,"lon":-58.0143686,"type":"village"},{"id":"198414489","name":"Puesto de Castro","lat":-30.2704259,"lon":-63.4264901,"type":"village"},{"id":"198414503","name":"Puesto del Marqués","lat":-22.536303,"lon":-65.696624,"type":"village"},{"id":"198414625","name":"Pujato","lat":-33.0176021,"lon":-61.0430978,"type":"village"},{"id":"198414659","name":"Pumahuasi","lat":-22.2885902,"lon":-65.6799123,"type":"village"},{"id":"198414697","name":"Punta Alta","lat":-38.8804693,"lon":-62.0744033,"type":"town"},{"id":"198414755","name":"Punta de Balasto","lat":-26.9526401,"lon":-66.1351768,"type":"village"},{"id":"198414817","name":"Punta del Agua","lat":-32.5757687,"lon":-63.8102121,"type":"village"},{"id":"198414832","name":"Punta del Agua","lat":-35.5270868,"lon":-68.0753495,"type":"village"},{"id":"198414866","name":"Punta de los Llanos","lat":-30.151361,"lon":-66.5454767,"type":"village"},{"id":"198414891","name":"Punta del Indio","lat":-35.2751181,"lon":-57.2310232,"type":"village"},{"id":"198414983","name":"Purmamarca","lat":-23.74655,"lon":-65.4992167,"type":"village"},{"id":"198415062","name":"Quebracho Herrado","lat":-31.5490966,"lon":-62.2250326,"type":"village"},{"id":"198415076","name":"Quebracho Ladeado","lat":-32.2589933,"lon":-65.0320652,"type":"village"},{"id":"198415142","name":"Quebrada de los Pozos","lat":-31.9121998,"lon":-65.0342635,"type":"village"},{"id":"198415157","name":"Quehué","lat":-37.1218163,"lon":-64.5151104,"type":"village"},{"id":"198415183","name":"Quemú Quemú","lat":-36.0548131,"lon":-63.5659467,"type":"village"},{"id":"198415213","name":"Quenumá","lat":-36.5693498,"lon":-63.0878908,"type":"village"},{"id":"198415229","name":"Quequén","lat":-38.5553375,"lon":-58.7162217,"type":"town"},{"id":"198415245","name":"Quetrequén","lat":-35.0570295,"lon":-64.5231278,"type":"village"},{"id":"198415330","name":"Quilino","lat":-30.2141962,"lon":-64.4993771,"type":"village"},{"id":"198415358","name":"Quilmes","lat":-34.7257054,"lon":-58.2630762,"type":"city"},{"id":"198415380","name":"Quimilí","lat":-27.6446881,"lon":-62.4174351,"type":"town"},{"id":"198415392","name":"Quines","lat":-32.2328371,"lon":-65.8050739,"type":"village"},{"id":"198415444","name":"Alfredo Demarchi","lat":-35.2924494,"lon":-61.4057189,"type":"village"},{"id":"198415460","name":"Quirós","lat":-28.7859082,"lon":-65.1108653,"type":"village"},{"id":"198415478","name":"Quitilipi","lat":-26.870771,"lon":-60.2150144,"type":"town"},{"id":"198415496","name":"Rada Tilly","lat":-45.9238502,"lon":-67.5557769,"type":"town"},{"id":"198415522","name":"Rafael Calzada","lat":-34.7916002,"lon":-58.3507175,"type":"town"},{"id":"198415538","name":"Rafael Castillo","lat":-34.6996518,"lon":-58.6308765,"type":"city"},{"id":"198415557","name":"Rafael García","lat":-31.6485427,"lon":-64.2603209,"type":"village"},{"id":"198415602","name":"Raíces","lat":-31.9091478,"lon":-59.2606838,"type":"village"},{"id":"198415631","name":"Ramada Paso","lat":-27.3648756,"lon":-58.3001722,"type":"village"},{"id":"198415656","name":"Ramallo","lat":-33.4849394,"lon":-60.0044551,"type":"town"},{"id":"198415665","name":"Ramayón","lat":-30.6725959,"lon":-60.5035744,"type":"village"},{"id":"198415694","name":"Ramírez de Velazco","lat":-29.2314522,"lon":-63.4739269,"type":"village"},{"id":"198415747","name":"Ramón Castro","lat":-38.8643551,"lon":-69.7448672,"type":"village"},{"id":"198415764","name":"Ramón Santamarina","lat":-38.4490606,"lon":-59.3321102,"type":"village"},{"id":"198415783","name":"Ramos Mejía","lat":-34.6481661,"lon":-58.5622869,"type":"city"},{"id":"198415801","name":"Ramos Otero","lat":-37.5400707,"lon":-58.3408278,"type":"village"},{"id":"198415813","name":"Rancagua","lat":-34.0299629,"lon":-60.5045833,"type":"village"},{"id":"198415819","name":"Ranchillos","lat":-26.9569354,"lon":-65.0474696,"type":"village"},{"id":"198415889","name":"Ranchos","lat":-35.5160129,"lon":-58.3188042,"type":"village"},{"id":"198415892","name":"Rancul","lat":-35.067731,"lon":-64.6842369,"type":"village"},{"id":"198415903","name":"Ranelagh","lat":-34.7867829,"lon":-58.2072598,"type":"town"},{"id":"198416027","name":"Rapelli","lat":-26.3946871,"lon":-64.5034556,"type":"village"},{"id":"198416041","name":"Colonia Raquel","lat":-30.8368073,"lon":-61.488036,"type":"village"},{"id":"198416090","name":"Rauch","lat":-36.7744093,"lon":-59.0882855,"type":"town"},{"id":"198416116","name":"Rawson","lat":-34.6052357,"lon":-60.0670639,"type":"village"},{"id":"198416132","name":"Rawson","lat":-43.2995252,"lon":-65.1055636,"type":"town"},{"id":"198416142","name":"Rayo Cortado","lat":-30.0762926,"lon":-63.8251324,"type":"village"},{"id":"198416160","name":"Real del Padre","lat":-34.8395197,"lon":-67.7644219,"type":"village"},{"id":"198416169","name":"Realicó","lat":-35.0381841,"lon":-64.2463205,"type":"village"},{"id":"198416182","name":"Real Sayana","lat":-28.8147112,"lon":-62.8433032,"type":"village"},{"id":"198416201","name":"Recalde","lat":-36.6518793,"lon":-61.084791,"type":"village"},{"id":"198416226","name":"Recreo","lat":-29.2787589,"lon":-65.0586418,"type":"town"},{"id":"198416242","name":"Recreo","lat":-31.4909067,"lon":-60.7354891,"type":"town"},{"id":"198416290","name":"Remedios de Escalada","lat":-34.7275895,"lon":-58.3953738,"type":"town"},{"id":"198416316","name":"Renca","lat":-32.7715745,"lon":-65.3640248,"type":"village"},{"id":"198416434","name":"Riacho He-Hé","lat":-25.3617642,"lon":-58.2788879,"type":"village"},{"id":"198416448","name":"Riachuelo","lat":-27.5826061,"lon":-58.7454717,"type":"village"},{"id":"198416484","name":"Ricardone","lat":-32.7706675,"lon":-60.7841945,"type":"village"},{"id":"198416502","name":"Rincón","lat":-28.2212631,"lon":-66.1434813,"type":"village"},{"id":"198416544","name":"Rinconada","lat":-22.440454,"lon":-66.1664137,"type":"village"},{"id":"198416562","name":"Rinconadillas","lat":-23.3850752,"lon":-65.9567215,"type":"village"},{"id":"198416628","name":"Rincón de Nogoyá","lat":-32.7804173,"lon":-59.907618,"type":"village"},{"id":"198416701","name":"Río Ceballos","lat":-31.1709088,"lon":-64.3160951,"type":"town"},{"id":"198416715","name":"Río Chico","lat":-27.4793276,"lon":-65.6252491,"type":"village"},{"id":"198416742","name":"Río Chico","lat":-41.7117205,"lon":-70.4754316,"type":"village"},{"id":"198416759","name":"Río Colorado","lat":-27.1503766,"lon":-65.3557946,"type":"village"},{"id":"198416797","name":"La Adela","lat":-38.9853616,"lon":-64.0907025,"type":"village"},{"id":"198416805","name":"Río Colorado","lat":-38.9908428,"lon":-64.0957548,"type":"town"},{"id":"198416817","name":"Río Cuarto","lat":-33.1237585,"lon":-64.3489782,"type":"city"},{"id":"198416870","name":"Río de los Sauces","lat":-32.5283727,"lon":-64.5862919,"type":"village"},{"id":"198416899","name":"Río Gallegos","lat":-51.6215268,"lon":-69.2150374,"type":"city"},{"id":"198416920","name":"Río Grande","lat":-53.7858275,"lon":-67.7018562,"type":"city"},{"id":"198416941","name":"Lomas del Río Luján","lat":-34.2795056,"lon":-58.8917399,"type":"village"},{"id":"198416963","name":"Río Mayo","lat":-45.6861412,"lon":-70.2563809,"type":"village"},{"id":"198417032","name":"Río Pico","lat":-44.1792865,"lon":-71.3682849,"type":"village"},{"id":"198417057","name":"Río Primero","lat":-31.3338778,"lon":-63.6185447,"type":"village"},{"id":"198417106","name":"Río Seco","lat":-27.2675579,"lon":-65.559154,"type":"village"},{"id":"198417118","name":"Río Segundo","lat":-31.6501467,"lon":-63.9116179,"type":"town"},{"id":"198417127","name":"Río Tala","lat":-33.7690748,"lon":-59.6390662,"type":"village"},{"id":"198417148","name":"Río Tercero","lat":-32.1767655,"lon":-64.1129881,"type":"town"},{"id":"198417191","name":"Río Villegas","lat":-41.5779465,"lon":-71.5026872,"type":"village"},{"id":"198417221","name":"Rivadavia","lat":-24.183333,"lon":-62.883333,"type":"village"},{"id":"198417249","name":"Rivadavia","lat":-31.5304707,"lon":-68.5945111,"type":"city"},{"id":"198417261","name":"Rivadavia","lat":-33.1957848,"lon":-68.4661361,"type":"town"},{"id":"198417269","name":"América","lat":-35.4891187,"lon":-62.9756868,"type":"town"},{"id":"198417301","name":"General Rivas","lat":-34.6082306,"lon":-59.7511204,"type":"village"},{"id":"198417313","name":"Rivera","lat":-37.1605304,"lon":-63.2417835,"type":"village"},{"id":"198417370","name":"Roberts","lat":-35.1429018,"lon":-61.970349,"type":"village"},{"id":"198417381","name":"Robles","lat":-28.0476491,"lon":-63.9922467,"type":"village"},{"id":"198417396","name":"Rocamora","lat":-32.343262,"lon":-58.9689711,"type":"village"},{"id":"198417450","name":"Rodeo","lat":-30.2101856,"lon":-69.1315839,"type":"village"},{"id":"198417493","name":"Rodeo del Medio","lat":-32.993188,"lon":-68.6860357,"type":"town"},{"id":"198417587","name":"La Llave Nueva","lat":-34.640191,"lon":-68.0099164,"type":"village"},{"id":"198417615","name":"Rodríguez Peña","lat":-33.1213143,"lon":-68.5979462,"type":"village"},{"id":"198417624","name":"Rojas","lat":-34.1977548,"lon":-60.7336808,"type":"town"},{"id":"198417641","name":"Roldán","lat":-32.9000832,"lon":-60.9066116,"type":"town"},{"id":"198417661","name":"Romang","lat":-29.4995238,"lon":-59.747991,"type":"village"},{"id":"198417682","name":"Roosevelt","lat":-35.8480243,"lon":-63.294543,"type":"village"},{"id":"198417773","name":"Rosario","lat":-32.9593609,"lon":-60.6617024,"type":"city"},{"id":"198417797","name":"Rosario de Colana","lat":-28.3623803,"lon":-66.1599113,"type":"village"},{"id":"198417808","name":"Rosario de la Frontera","lat":-25.7985752,"lon":-64.9739247,"type":"town"},{"id":"198417832","name":"Rosario de Lerma","lat":-24.9815849,"lon":-65.5794575,"type":"town"},{"id":"198417847","name":"Rosario del Tala","lat":-32.3008178,"lon":-59.138887,"type":"town"},{"id":"198417870","name":"Roversi","lat":-27.5911418,"lon":-61.945006,"type":"village"},{"id":"198417898","name":"Rucanelo","lat":-36.04338,"lon":-64.8349563,"type":"village"},{"id":"198417906","name":"Rueda","lat":-33.3355941,"lon":-60.4589616,"type":"village"},{"id":"198417920","name":"Rufino","lat":-34.2617313,"lon":-62.7110819,"type":"town"},{"id":"198417934","name":"Villa Ruiz","lat":-34.4339366,"lon":-59.262566,"type":"village"},{"id":"198417944","name":"Ruiz de Montoya","lat":-26.9701195,"lon":-55.0523056,"type":"village"},{"id":"198418008","name":"Rumi Punco","lat":-27.9848359,"lon":-65.5739654,"type":"village"},{"id":"198418056","name":"Russell","lat":-33.0054157,"lon":-68.7968997,"type":"village"},{"id":"198418068","name":"Saavedra","lat":-37.7637651,"lon":-62.3536074,"type":"village"},{"id":"198418107","name":"Sacanta","lat":-31.6634501,"lon":-63.0479142,"type":"village"},{"id":"198418120","name":"Sacháyoj","lat":-26.6749136,"lon":-61.8153369,"type":"village"},{"id":"198418126","name":"Sáenz Peña","lat":-34.5995495,"lon":-58.5315967,"type":"town"},{"id":"198418148","name":"Saforcada","lat":-34.5727568,"lon":-61.0744564,"type":"village"},{"id":"198418174","name":"Plaza Saguier","lat":-31.3243009,"lon":-61.6681366,"type":"village"},{"id":"198418211","name":"Saira","lat":-32.4082593,"lon":-62.1016414,"type":"village"},{"id":"198418226","name":"Saladas","lat":-28.2547059,"lon":-58.6233333,"type":"town"},{"id":"198418235","name":"Saladero Mariano Cabal","lat":-30.8795361,"lon":-60.037479,"type":"village"},{"id":"198418287","name":"Saladillo","lat":-32.9355606,"lon":-62.3425529,"type":"village"},{"id":"198418301","name":"Saladillo","lat":-33.2024015,"lon":-65.8553591,"type":"village"},{"id":"198418312","name":"Saladillo","lat":-35.6388525,"lon":-59.7794241,"type":"town"},{"id":"198418339","name":"Salado","lat":-28.3048497,"lon":-67.2478078,"type":"village"},{"id":"198418390","name":"Villa Salavina","lat":-28.8043184,"lon":-63.4295196,"type":"village"},{"id":"198418414","name":"Salazar","lat":-36.3071617,"lon":-62.2029082,"type":"village"},{"id":"198418434","name":"Saldán","lat":-31.3158816,"lon":-64.3121295,"type":"town"},{"id":"198418465","name":"Saldungaray","lat":-38.2049693,"lon":-61.7695802,"type":"village"},{"id":"198418488","name":"Salicas","lat":-28.3737786,"lon":-67.0706531,"type":"village"},{"id":"198418493","name":"Salliqueló","lat":-36.7515777,"lon":-62.9590104,"type":"village"},{"id":"198418513","name":"Salsacate","lat":-31.3178114,"lon":-65.0895741,"type":"village"},{"id":"198418533","name":"Salsipuedes","lat":-31.1364074,"lon":-64.2965681,"type":"town"},{"id":"198418541","name":"Salta","lat":-24.7892946,"lon":-65.4103194,"type":"city"},{"id":"198418593","name":"Salto","lat":-34.2917828,"lon":-60.2544888,"type":"town"},{"id":"198418604","name":"Salto de las Rosas","lat":-34.7241795,"lon":-68.229215,"type":"village"},{"id":"198418634","name":"Salvador María","lat":-35.3006575,"lon":-59.1699996,"type":"village"},{"id":"198418652","name":"Samborombón","lat":-35.2188116,"lon":-58.2831105,"type":"village"},{"id":"198418662","name":"Sampacho","lat":-33.3839919,"lon":-64.7228966,"type":"village"},{"id":"198418679","name":"Samuhú","lat":-27.5187374,"lon":-60.3934925,"type":"village"},{"id":"198418719","name":"San Agustín","lat":-24.9960818,"lon":-65.4407854,"type":"village"},{"id":"198418758","name":"San Agustín","lat":-31.6822655,"lon":-60.9406392,"type":"village"},{"id":"198418771","name":"San Agustín","lat":-31.9777021,"lon":-64.375558,"type":"village"},{"id":"198418782","name":"San Agustín","lat":-38.0140723,"lon":-58.3559248,"type":"village"},{"id":"198418807","name":"San Alberto","lat":-26.8,"lon":-54.983333,"type":"village"},{"id":"198418848","name":"San Andrés","lat":-26.899346,"lon":-65.1969285,"type":"village"},{"id":"198418871","name":"San Andrés de Giles","lat":-34.4423682,"lon":-59.4475148,"type":"town"},{"id":"198418908","name":"Lote El Puesto","lat":-24.19913,"lon":-64.788694,"type":"village"},{"id":"198418921","name":"San Antonio","lat":-24.3703757,"lon":-65.3315958,"type":"village"},{"id":"198418972","name":"San Antonio","lat":-26.0573302,"lon":-53.7341764,"type":"village"},{"id":"198419077","name":"San Antonio","lat":-28.9324694,"lon":-65.0967732,"type":"village"},{"id":"198419122","name":"San Antonio","lat":-31.0858364,"lon":-66.733101,"type":"village"},{"id":"198419130","name":"San Antonio","lat":-31.2123674,"lon":-61.7248001,"type":"village"},{"id":"198419172","name":"San Antonio de Areco","lat":-34.2437294,"lon":-59.4734187,"type":"town"},{"id":"198419201","name":"San Antonio de Litín","lat":-32.2135801,"lon":-62.6314731,"type":"village"},{"id":"198419217","name":"San Antonio de los Cobres","lat":-24.217675,"lon":-66.3178734,"type":"village"},{"id":"198419239","name":"San Antonio de Padua","lat":-34.6674521,"lon":-58.6986561,"type":"town"},{"id":"198419263","name":"San Antonio Oeste","lat":-40.7302125,"lon":-64.9389955,"type":"town"},{"id":"198419307","name":"San Basilio","lat":-33.4985129,"lon":-64.3146681,"type":"village"},{"id":"198419312","name":"San Benito","lat":-31.7815004,"lon":-60.4375463,"type":"village"},{"id":"198419385","name":"San Bernardo","lat":-27.2867286,"lon":-60.7128954,"type":"village"},{"id":"198419472","name":"San Bernardo del Tuyú","lat":-36.6865934,"lon":-56.6841459,"type":"village"},{"id":"198419485","name":"San Blas de los Sauces","lat":-28.4136462,"lon":-67.0975973,"type":"village"},{"id":"198419509","name":"El Angosto de Parani","lat":-23.2510757,"lon":-64.7227558,"type":"village"},{"id":"198419524","name":"San Carlos","lat":-25.8930324,"lon":-65.9291539,"type":"village"},{"id":"198419561","name":"San Carlos","lat":-27.7466978,"lon":-55.8955906,"type":"village"},{"id":"198419591","name":"San Martin","lat":-29.3349239,"lon":-63.330404,"type":"village"},{"id":"198419621","name":"San Carlos Minas","lat":-31.1765775,"lon":-65.1018711,"type":"village"},{"id":"198419650","name":"San Carlos Centro","lat":-31.7265884,"lon":-61.090777,"type":"town"},{"id":"198419670","name":"San Carlos de Bariloche","lat":-41.1334781,"lon":-71.3101474,"type":"city"},{"id":"198419685","name":"San Carlos de Bolívar","lat":-36.2302232,"lon":-61.114254,"type":"town"},{"id":"198419692","name":"San Carlos Norte","lat":-31.6734613,"lon":-61.0747934,"type":"village"},{"id":"198419700","name":"San Carlos Sud","lat":-31.7609584,"lon":-61.1006758,"type":"village"},{"id":"198419722","name":"Villa General Savio","lat":-33.4350116,"lon":-60.1459721,"type":"village"},{"id":"198419753","name":"San Clemente","lat":-31.7145967,"lon":-64.6282789,"type":"village"},{"id":"198419789","name":"San Cosme","lat":-27.3703186,"lon":-58.5125679,"type":"village"},{"id":"198419801","name":"San Cristóbal","lat":-30.311107,"lon":-61.2418955,"type":"town"},{"id":"198419811","name":"Sancti Spíritu","lat":-34.0076455,"lon":-62.2414297,"type":"village"},{"id":"198419833","name":"San Eduardo","lat":-33.8712702,"lon":-62.0889225,"type":"village"},{"id":"198419861","name":"San Emilio","lat":-35.0321517,"lon":-60.8649208,"type":"village"},{"id":"198419873","name":"San Enrique","lat":-35.7702188,"lon":-60.3502141,"type":"village"},{"id":"198419912","name":"San Eugenio","lat":-32.0762941,"lon":-61.1156953,"type":"village"},{"id":"198419924","name":"San Fabián","lat":-32.1381515,"lon":-60.9835222,"type":"village"},{"id":"198420020","name":"San Fernando","lat":-27.3341634,"lon":-66.8980594,"type":"village"},{"id":"198420042","name":"San Fernando","lat":-34.4471919,"lon":-58.5701505,"type":"town"},{"id":"198420062","name":"San Fernando del Valle de Catamarca","lat":-28.4688806,"lon":-65.7790642,"type":"city"},{"id":"198420230","name":"San Francisco de Asís","lat":-27.4630999,"lon":-54.7450303,"type":"village"},{"id":"198420242","name":"San Francisco de Bellocq","lat":-38.6895638,"lon":-60.0139725,"type":"village"},{"id":"198420260","name":"San Francisco del Laishí","lat":-26.2439679,"lon":-58.6297373,"type":"village"},{"id":"198420273","name":"San Francisco del Chañar","lat":-29.786376,"lon":-63.941706,"type":"village"},{"id":"198420288","name":"San Francisco del Monte de Oro","lat":-32.6002472,"lon":-66.1271253,"type":"village"},{"id":"198420307","name":"San Francisco de Santa Fe","lat":-33.5884391,"lon":-62.1239203,"type":"village"},{"id":"198420322","name":"San Francisco Solano","lat":-34.7862141,"lon":-58.3234077,"type":"town"},{"id":"198420361","name":"San Genaro","lat":-32.3715833,"lon":-61.3600947,"type":"village"},{"id":"198420394","name":"San Germán","lat":-38.301059,"lon":-62.9817432,"type":"village"},{"id":"198420402","name":"San Gerónimo","lat":-33.1385127,"lon":-66.5200498,"type":"village"},{"id":"198420426","name":"San Gregorio","lat":-34.3252403,"lon":-62.035798,"type":"village"},{"id":"198420433","name":"San Guillermo","lat":-30.3583009,"lon":-61.9176721,"type":"village"},{"id":"198420451","name":"San Gustavo","lat":-30.6911979,"lon":-59.3934632,"type":"village"},{"id":"198420465","name":"San Hilario","lat":-26.0275164,"lon":-58.6513938,"type":"village"},{"id":"198420492","name":"San Ignacio","lat":-27.2583992,"lon":-55.5392216,"type":"town"},{"id":"198420501","name":"San Ignacio","lat":-27.7525297,"lon":-65.623664,"type":"village"},{"id":"198420566","name":"San Isidro","lat":-22.7572786,"lon":-65.2417042,"type":"village"},{"id":"198420614","name":"San Isidro","lat":-28.4578883,"lon":-65.7249757,"type":"village"},{"id":"198420711","name":"San Isidro","lat":-34.4739792,"lon":-58.5264866,"type":"town"},{"id":"198420740","name":"San Jaime de la Frontera","lat":-30.3403336,"lon":-58.3070069,"type":"village"},{"id":"198420768","name":"San Javier","lat":-26.7881506,"lon":-65.3593351,"type":"village"},{"id":"198420784","name":"San Javier","lat":-27.8738956,"lon":-55.1347737,"type":"town"},{"id":"198420795","name":"San Javier","lat":-30.5815988,"lon":-59.9280841,"type":"town"},{"id":"198420812","name":"San Javier","lat":-32.0263861,"lon":-65.0300802,"type":"village"},{"id":"198420827","name":"Fuerte San Javier","lat":-40.7499219,"lon":-63.2670243,"type":"village"},{"id":"198420885","name":"San Jerónimo del Sauce","lat":-31.6090552,"lon":-61.1414039,"type":"village"},{"id":"198420901","name":"San Jerónimo Norte","lat":-31.5525222,"lon":-61.0777138,"type":"village"},{"id":"198420919","name":"San Jerónimo Sud","lat":-32.8788862,"lon":-61.0230257,"type":"village"},{"id":"198420990","name":"San Jorge","lat":-31.8962813,"lon":-61.8597235,"type":"town"},{"id":"198421006","name":"Pueblo San Jorge","lat":-37.228602,"lon":-60.9613187,"type":"village"},{"id":"198421036","name":"San José","lat":-26.8012401,"lon":-66.0698568,"type":"village"},{"id":"198421075","name":"San José","lat":-27.7700457,"lon":-55.7801147,"type":"village"},{"id":"198421109","name":"San José de Piedra Blanca","lat":-28.3947636,"lon":-65.7031314,"type":"village"},{"id":"198421193","name":"San José","lat":-31.9562703,"lon":-65.3139232,"type":"village"},{"id":"198421225","name":"San José","lat":-33.3112223,"lon":-69.1592424,"type":"village"},{"id":"198421273","name":"San José de Feliciano","lat":-30.3854477,"lon":-58.7506643,"type":"town"},{"id":"198421320","name":"San José de la Dormida","lat":-30.3561952,"lon":-63.9502987,"type":"village"},{"id":"198421334","name":"San José de la Esquina","lat":-33.1122156,"lon":-61.7026628,"type":"village"},{"id":"198421349","name":"San José de la Horqueta","lat":-25.2642365,"lon":-64.075781,"type":"village"},{"id":"198421366","name":"San José de las Salinas","lat":-30.0066582,"lon":-64.6248303,"type":"village"},{"id":"198421380","name":"San José del Boquerón","lat":-26.1160761,"lon":-63.7031751,"type":"village"},{"id":"198421399","name":"San José del Rincón","lat":-31.6064264,"lon":-60.5674713,"type":"village"},{"id":"198421422","name":"San José de Macomitas","lat":-26.7297784,"lon":-65.0102695,"type":"village"},{"id":"198421467","name":"San Juan","lat":-31.5370909,"lon":-68.5251802,"type":"city"},{"id":"198421549","name":"San Juan y Oros","lat":-22.2249155,"lon":-66.2488078,"type":"village"},{"id":"198421594","name":"San Justo","lat":-30.7890881,"lon":-60.5933274,"type":"town"},{"id":"198421608","name":"San Justo","lat":-32.4457988,"lon":-58.4352974,"type":"village"},{"id":"198421620","name":"San Justo","lat":-34.6774186,"lon":-58.5607837,"type":"city"},{"id":"198421659","name":"San Lorenzo","lat":-24.7309996,"lon":-65.487055,"type":"town"},{"id":"198421699","name":"San Lorenzo","lat":-28.1380974,"lon":-58.7681222,"type":"village"},{"id":"198421722","name":"San Lorenzo","lat":-31.6697967,"lon":-65.0168065,"type":"village"},{"id":"198421733","name":"San Lorenzo","lat":-32.7454865,"lon":-60.743091,"type":"town"},{"id":"198421849","name":"San Luis del Palmar","lat":-27.5077031,"lon":-58.5561657,"type":"town"},{"id":"198421872","name":"San Manuel","lat":-37.7873843,"lon":-58.84801,"type":"village"},{"id":"198421882","name":"San Marcos Sud","lat":-32.6302297,"lon":-62.4815673,"type":"village"},{"id":"198421895","name":"San Marcos Sierras","lat":-30.7830811,"lon":-64.6361331,"type":"village"},{"id":"198421957","name":"San Martín","lat":-29.22129,"lon":-65.7749357,"type":"village"},{"id":"198422022","name":"San Martín","lat":-33.0803973,"lon":-68.4705288,"type":"town"},{"id":"198422024","name":"San Martín de las Escobas","lat":-31.857828,"lon":-61.5697407,"type":"village"},{"id":"198422025","name":"San Martín de los Andes","lat":-40.1568791,"lon":-71.3525588,"type":"town"},{"id":"198422026","name":"San Martín Norte","lat":-30.3467495,"lon":-60.3051449,"type":"village"},{"id":"198422106","name":"San Miguel","lat":-27.9980337,"lon":-57.5872678,"type":"village"},{"id":"198422140","name":"San Miguel","lat":-28.1400307,"lon":-66.2025667,"type":"village"},{"id":"198422334","name":"San Miguel de Tucumán","lat":-26.8303703,"lon":-65.2038133,"type":"city"},{"id":"198422401","name":"San Nicolás","lat":-29.1184952,"lon":-67.4747272,"type":"village"},{"id":"198422475","name":"San Nicolás de los Arroyos","lat":-33.3277089,"lon":-60.2165909,"type":"city"},{"id":"198422492","name":"Sañogasta","lat":-29.3222398,"lon":-67.6028503,"type":"village"},{"id":"198422511","name":"San Pablo","lat":-26.8705501,"lon":-65.3112549,"type":"village"},{"id":"198422549","name":"San Pablo","lat":-28.6991436,"lon":-66.037249,"type":"village"},{"id":"198422564","name":"San Pablo","lat":-32.6611629,"lon":-65.3055683,"type":"village"},{"id":"198422654","name":"San Pedro de Jujuy","lat":-24.2316261,"lon":-64.8678819,"type":"town"},{"id":"198422661","name":"San Pedro","lat":-26.624054,"lon":-54.1111534,"type":"town"},{"id":"198422696","name":"San Pedro","lat":-27.9546106,"lon":-65.1665606,"type":"village"},{"id":"198422709","name":"San Pedro","lat":-28.6616356,"lon":-66.9230863,"type":"village"},{"id":"198422716","name":"San Pedro","lat":-28.7480094,"lon":-66.1253902,"type":"village"},{"id":"198422748","name":"San Pedro de Gutenberg","lat":-29.6977129,"lon":-63.5604453,"type":"village"},{"id":"198422762","name":"Campo Andino","lat":-31.2386114,"lon":-60.5304845,"type":"village"},{"id":"198422800","name":"San Pedro","lat":-31.9364496,"lon":-65.2188982,"type":"village"},{"id":"198422806","name":"San Pedro","lat":-33.6758085,"lon":-59.6627189,"type":"town"},{"id":"198422809","name":"San Pedro Norte","lat":-30.0900507,"lon":-64.1549154,"type":"village"},{"id":"198422869","name":"San Rafael","lat":-34.6126025,"lon":-68.330514,"type":"city"},{"id":"198423067","name":"San Ramón de la Nueva Orán","lat":-23.1286284,"lon":-64.3214309,"type":"town"},{"id":"198423120","name":"San Roque","lat":-28.5709194,"lon":-58.7119707,"type":"village"},{"id":"198423156","name":"Villa Parque Siquiman","lat":-31.3461791,"lon":-64.4776441,"type":"village"},{"id":"198423186","name":"San Roque","lat":-33.0321121,"lon":-68.5853187,"type":"village"},{"id":"198423257","name":"San Salvador","lat":-31.6247717,"lon":-58.5051869,"type":"town"},{"id":"198423279","name":"San Salvador de Jujuy","lat":-24.1852569,"lon":-65.2994789,"type":"city"},{"id":"198423297","name":"San Sebastián","lat":-34.941944,"lon":-59.7018415,"type":"village"},{"id":"198423345","name":"Sansinena","lat":-35.2742703,"lon":-63.2140836,"type":"village"},{"id":"198423378","name":"Santa Ana","lat":-23.3559711,"lon":-64.9891473,"type":"village"},{"id":"198423396","name":"Santa Ana de los Guacaras","lat":-27.4551934,"lon":-58.6547393,"type":"village"},{"id":"198423462","name":"Santa Ana","lat":-30.9,"lon":-57.933333,"type":"village"},{"id":"198423480","name":"Santa Anita","lat":-32.1744651,"lon":-58.7861233,"type":"village"},{"id":"198423547","name":"Santa Catalina","lat":-21.9470472,"lon":-66.0518095,"type":"village"},{"id":"198423583","name":"Santa Catalina","lat":-30.8714289,"lon":-64.2351901,"type":"village"},{"id":"198423610","name":"Santa Catalina","lat":-33.2053017,"lon":-64.437917,"type":"village"},{"id":"198423644","name":"Santa Clara","lat":-24.3093688,"lon":-64.6617616,"type":"village"},{"id":"198423652","name":"Santa Clara","lat":-29.560757,"lon":-68.533235,"type":"village"},{"id":"198423663","name":"Santa Clara de Buena Vista","lat":-31.7623445,"lon":-61.315749,"type":"village"},{"id":"198423683","name":"Santa Clara de Saguier","lat":-31.335615,"lon":-61.8181197,"type":"village"},{"id":"198423705","name":"Santa Coloma","lat":-34.0594325,"lon":-59.5581082,"type":"village"},{"id":"198423765","name":"Santa Cruz","lat":-27.3894237,"lon":-65.4582208,"type":"village"},{"id":"198423814","name":"Santa Cruz","lat":-28.483797,"lon":-67.6937586,"type":"village"},{"id":"198423828","name":"Santa Cruz","lat":-28.499014,"lon":-65.6667629,"type":"village"},{"id":"198423845","name":"Santa Elena","lat":-30.1157903,"lon":-63.8449729,"type":"village"},{"id":"198423850","name":"Santa Elena","lat":-30.9448227,"lon":-59.789128,"type":"village"},{"id":"198423886","name":"Santa Eleodora","lat":-34.6924435,"lon":-62.6942676,"type":"village"},{"id":"198423917","name":"Santa Eufemia","lat":-33.1778417,"lon":-63.2823034,"type":"village"},{"id":"198423933","name":"Santa Fe","lat":-31.6186951,"lon":-60.7019561,"type":"city"},{"id":"198423953","name":"Santa Florentina","lat":-29.1296292,"lon":-67.5560022,"type":"village"},{"id":"198424031","name":"Santa Isabel","lat":-36.2319527,"lon":-66.9408256,"type":"village"},{"id":"198424079","name":"Santa Lucía","lat":-28.9897454,"lon":-59.1006988,"type":"town"},{"id":"198424129","name":"Santa Lucía","lat":-33.8807952,"lon":-59.8750123,"type":"village"},{"id":"198424157","name":"Jovita","lat":-34.518857,"lon":-63.9440228,"type":"village"},{"id":"198424170","name":"Santa Margarita","lat":-28.3138245,"lon":-61.5488537,"type":"village"},{"id":"198424185","name":"Santa María","lat":-22.1537884,"lon":-62.8088049,"type":"village"},{"id":"198424229","name":"La Corita","lat":-27.8919261,"lon":-55.3554835,"type":"village"},{"id":"198424235","name":"Santa María","lat":-27.947868,"lon":-64.2152707,"type":"village"},{"id":"198424325","name":"Santa María","lat":-37.5593947,"lon":-61.8753219,"type":"village"},{"id":"198424342","name":"Santa María de Oro","lat":-33.2073532,"lon":-68.4253832,"type":"village"},{"id":"198424513","name":"Santa Rosa","lat":-28.0406744,"lon":-67.5856311,"type":"village"},{"id":"198424529","name":"Santa Rosa","lat":-28.2683288,"lon":-58.123458,"type":"village"},{"id":"198424624","name":"Santa Rosa","lat":-31.4203376,"lon":-60.3327882,"type":"village"},{"id":"198424676","name":"Santa Rosa","lat":-36.6203503,"lon":-64.2905765,"type":"city"},{"id":"198424711","name":"Santa Rosa de Calamuchita","lat":-32.0644855,"lon":-64.5396135,"type":"town"},{"id":"198424722","name":"Santa Rosa del Conlara","lat":-32.3428631,"lon":-65.2088793,"type":"village"},{"id":"198424733","name":"Santa Rosa de Leales","lat":-27.1378033,"lon":-65.2608916,"type":"village"},{"id":"198424739","name":"Santa Rosa de los Pastos Grandes","lat":-24.4669515,"lon":-66.6736998,"type":"village"},{"id":"198424755","name":"Villa Santa Rosa","lat":-31.1534891,"lon":-63.3993819,"type":"village"},{"id":"198424845","name":"Santa Sylvina","lat":-27.8315753,"lon":-61.1360183,"type":"village"},{"id":"198424883","name":"Santa Teresa","lat":-33.4366946,"lon":-60.7904524,"type":"village"},{"id":"198424914","name":"Santa Teresa","lat":-37.5747711,"lon":-63.4313453,"type":"village"},{"id":"198424927","name":"Santa Teresita","lat":-36.5431401,"lon":-56.7043746,"type":"town"},{"id":"198424935","name":"Santa Trinidad","lat":-37.4884999,"lon":-61.9223473,"type":"village"},{"id":"198424948","name":"Santa Victoria","lat":-22.2512115,"lon":-64.9647841,"type":"village"},{"id":"198424959","name":"Santa Victoria Este","lat":-22.2743225,"lon":-62.7123219,"type":"village"},{"id":"198425012","name":"Santiago del Estero","lat":-27.7877148,"lon":-64.2595062,"type":"city"},{"id":"198425035","name":"Santiago Temple","lat":-31.3859947,"lon":-63.419628,"type":"village"},{"id":"198425160","name":"Santo Domingo","lat":-26.2147075,"lon":-63.7785643,"type":"village"},{"id":"198425231","name":"Santo Domingo","lat":-28.5547551,"lon":-67.6698537,"type":"village"},{"id":"198425288","name":"Santo Domingo","lat":-31.1203629,"lon":-60.8881871,"type":"village"},{"id":"198425320","name":"Santo Domingo","lat":-36.7114534,"lon":-57.5862548,"type":"village"},{"id":"198425331","name":"Santo Pipó","lat":-27.1400034,"lon":-55.4087254,"type":"village"},{"id":"198425350","name":"Santos Lugares","lat":-26.6879726,"lon":-63.5545493,"type":"village"},{"id":"198425369","name":"Santos Lugares","lat":-34.5990188,"lon":-58.5474668,"type":"town"},{"id":"198425425","name":"Santo Tomás","lat":-39.8212187,"lon":-70.1001987,"type":"village"},{"id":"198425441","name":"Santo Tomé","lat":-28.5497034,"lon":-56.0351419,"type":"town"},{"id":"198425455","name":"Santo Tomé","lat":-31.6630458,"lon":-60.7618282,"type":"town"},{"id":"198425506","name":"San Vicente","lat":-26.9932723,"lon":-54.4866356,"type":"town"},{"id":"198425598","name":"San Vicente","lat":-31.6990379,"lon":-61.5675521,"type":"village"},{"id":"198425614","name":"San Vicente","lat":-31.8505658,"lon":-65.4294027,"type":"village"},{"id":"198425646","name":"San Vicente","lat":-35.0248544,"lon":-58.4241138,"type":"town"},{"id":"198425663","name":"San Victor","lat":-30.4862151,"lon":-59.0315108,"type":"village"},{"id":"198425682","name":"Sa Pereira","lat":-31.5709855,"lon":-61.3768046,"type":"village"},{"id":"198425710","name":"Sarah","lat":-35.0280657,"lon":-63.6858817,"type":"village"},{"id":"198425730","name":"Sarandí","lat":-34.680758,"lon":-58.3463289,"type":"town"},{"id":"198425754","name":"Sargento Cabral","lat":-33.429999,"lon":-60.6278018,"type":"village"},{"id":"198425768","name":"Sarmiento","lat":-30.7743618,"lon":-64.1096862,"type":"village"},{"id":"198425778","name":"Sarmiento","lat":-31.0588187,"lon":-61.1671724,"type":"village"},{"id":"198425784","name":"Sarmiento","lat":-45.5867861,"lon":-69.0687743,"type":"town"},{"id":"198425802","name":"Sastre","lat":-31.7675113,"lon":-61.8288888,"type":"village"},{"id":"198425816","name":"Saturnino María Laspiur","lat":-31.7035886,"lon":-62.4830872,"type":"village"},{"id":"198425935","name":"Sauce de Luna","lat":-31.2395251,"lon":-59.2175232,"type":"village"},{"id":"198425977","name":"Sauce Viejo","lat":-31.7710276,"lon":-60.8372302,"type":"village"},{"id":"198426020","name":"Saujil","lat":-27.5669974,"lon":-67.6217697,"type":"village"},{"id":"198426028","name":"Saujil","lat":-28.1738086,"lon":-66.2114866,"type":"village"},{"id":"198426041","name":"Sauzal","lat":-27.487283,"lon":-64.58242,"type":"village"},{"id":"198426075","name":"Schaqui","lat":-28.4762092,"lon":-67.1273542,"type":"village"},{"id":"198426110","name":"Sebastián Elcano","lat":-30.1603346,"lon":-63.5927172,"type":"village"},{"id":"198426153","name":"Seclantás","lat":-25.3315208,"lon":-66.2441513,"type":"village"},{"id":"198426176","name":"Seeber","lat":-30.9254811,"lon":-61.9733181,"type":"village"},{"id":"198426193","name":"Seguí","lat":-31.9555798,"lon":-60.1267199,"type":"village"},{"id":"198426233","name":"Selva","lat":-29.7682426,"lon":-62.0475704,"type":"village"},{"id":"198426265","name":"Selvas del Río de Oro","lat":-26.8029435,"lon":-58.956749,"type":"village"},{"id":"198426278","name":"Uquía","lat":-23.3029711,"lon":-65.3557058,"type":"village"},{"id":"198426325","name":"Senillosa","lat":-39.0134511,"lon":-68.4267867,"type":"village"},{"id":"198426375","name":"Serodino","lat":-32.6036519,"lon":-60.9474434,"type":"village"},{"id":"198426393","name":"Serrano","lat":-34.4710688,"lon":-63.5400798,"type":"village"},{"id":"198426417","name":"Serrezuela","lat":-30.6387912,"lon":-65.3887145,"type":"village"},{"id":"198426459","name":"Sevigné","lat":-36.2082794,"lon":-57.7415851,"type":"village"},{"id":"198426468","name":"Puesto Sey","lat":-23.9455277,"lon":-66.4883461,"type":"village"},{"id":"198426576","name":"Sierra Chica","lat":-36.8441373,"lon":-60.2288604,"type":"village"},{"id":"198426594","name":"Sierra Colorada","lat":-40.5873209,"lon":-67.7556105,"type":"village"},{"id":"198426638","name":"Sierra Pailemán","lat":-41.1904124,"lon":-65.9776742,"type":"village"},{"id":"198426672","name":"Sierras Bayas","lat":-36.9366533,"lon":-60.1561071,"type":"village"},{"id":"198426698","name":"Siete de Abril","lat":-26.2917641,"lon":-64.4998579,"type":"village"},{"id":"198426713","name":"Siete Palmas","lat":-25.2036719,"lon":-58.3319785,"type":"village"},{"id":"198426728","name":"Siján","lat":-28.2614878,"lon":-66.22427,"type":"village"},{"id":"198426757","name":"Villa Silípica","lat":-28.1086247,"lon":-64.1470812,"type":"village"},{"id":"198426776","name":"Silvio Pellico","lat":-32.2496759,"lon":-62.9307206,"type":"village"},{"id":"198426788","name":"Simbol","lat":-28.1013917,"lon":-64.2138351,"type":"village"},{"id":"198426844","name":"Simbolar","lat":-30.4766388,"lon":-63.9820564,"type":"village"},{"id":"198426880","name":"Simoca","lat":-27.2629465,"lon":-65.3579473,"type":"village"},{"id":"198426971","name":"Singuil","lat":-27.8049722,"lon":-65.8711928,"type":"village"},{"id":"198426985","name":"Sinsacate","lat":-30.942822,"lon":-64.0939374,"type":"village"},{"id":"198427013","name":"Smith","lat":-35.4952968,"lon":-61.5926298,"type":"village"},{"id":"198427124","name":"Sol de Julio","lat":-29.5650833,"lon":-63.4597288,"type":"village"},{"id":"198427206","name":"Soldini","lat":-33.0242175,"lon":-60.7553007,"type":"village"},{"id":"198427236","name":"Soledad","lat":-30.6196133,"lon":-60.9144282,"type":"village"},{"id":"198427252","name":"Solís","lat":-34.2979991,"lon":-59.3236461,"type":"village"},{"id":"198427279","name":"Sorocayense","lat":-31.5576815,"lon":-69.4429614,"type":"village"},{"id":"198427294","name":"Sosa","lat":-31.7361307,"lon":-59.9120171,"type":"village"},{"id":"198427358","name":"Speluzzi","lat":-35.5497003,"lon":-63.8204812,"type":"village"},{"id":"198427430","name":"Strobel","lat":-32.0549836,"lon":-60.6125099,"type":"village"},{"id":"198427442","name":"Suardi","lat":-30.5342762,"lon":-61.9610646,"type":"village"},{"id":"198427460","name":"Suco","lat":-33.439992,"lon":-64.8308823,"type":"village"},{"id":"198427529","name":"Suipacha","lat":-34.7685168,"lon":-59.6871377,"type":"village"},{"id":"198427563","name":"Sumamao","lat":-28.166667,"lon":-64.1,"type":"village"},{"id":"198427603","name":"Sumampa","lat":-29.3830617,"lon":-63.4728569,"type":"village"},{"id":"198427651","name":"Sunchales","lat":-30.9450891,"lon":-61.5608072,"type":"town"},{"id":"198427682","name":"Suncho Corral","lat":-27.9341752,"lon":-63.4260351,"type":"village"},{"id":"198427780","name":"Suriyaco","lat":-28.5369228,"lon":-67.1576357,"type":"village"},{"id":"198427783","name":"Susana","lat":-31.3557161,"lon":-61.5159907,"type":"village"},{"id":"198427794","name":"Susques","lat":-23.3991768,"lon":-66.3675681,"type":"village"},{"id":"198427890","name":"Tabay","lat":-28.3061346,"lon":-58.2848185,"type":"village"},{"id":"198427921","name":"La Tablada","lat":-34.6867073,"lon":-58.5298812,"type":"town"},{"id":"198427967","name":"Taboada","lat":-28.0076112,"lon":-63.7464474,"type":"village"},{"id":"198427988","name":"Tabossi","lat":-31.8017761,"lon":-59.9359504,"type":"village"},{"id":"198428035","name":"Tacanas","lat":-27.1383027,"lon":-64.8100112,"type":"village"},{"id":"198428055","name":"Tacañitas","lat":-28.6233155,"lon":-62.6050617,"type":"village"},{"id":"198428089","name":"Taco Pozo","lat":-25.6149753,"lon":-63.2649055,"type":"village"},{"id":"198428149","name":"Taco Ralo","lat":-27.8357346,"lon":-65.1959141,"type":"village"},{"id":"198428168","name":"Tacuarendí","lat":-28.412835,"lon":-59.2601746,"type":"village"},{"id":"198428270","name":"Tafí Viejo","lat":-26.7343146,"lon":-65.259223,"type":"town"},{"id":"198428332","name":"Tala Cañada","lat":-31.3583489,"lon":-64.9806419,"type":"village"},{"id":"198428444","name":"El Alcalde","lat":-31.1166205,"lon":-63.6001301,"type":"village"},{"id":"198428463","name":"Talapampa","lat":-25.5448916,"lon":-65.5650041,"type":"village"},{"id":"198428642","name":"Tamangueyú","lat":-38.2032202,"lon":-58.7411597,"type":"village"},{"id":"198428690","name":"Tamberías","lat":-31.4580945,"lon":-69.4216806,"type":"village"},{"id":"198428762","name":"Tancacha","lat":-32.2374827,"lon":-63.9798348,"type":"village"},{"id":"198428780","name":"Tandil","lat":-37.3282887,"lon":-59.1356957,"type":"city"},{"id":"198428798","name":"Tanti","lat":-31.3547972,"lon":-64.592479,"type":"village"},{"id":"198428824","name":"Tapalqué","lat":-36.3563106,"lon":-60.0251321,"type":"village"},{"id":"198428839","name":"Tapebicuá","lat":-29.5063208,"lon":-56.9756923,"type":"village"},{"id":"198428851","name":"Tapia","lat":-26.5943413,"lon":-65.278693,"type":"village"},{"id":"198428884","name":"Tapso","lat":-28.4034623,"lon":-65.0962954,"type":"village"},{"id":"198428918","name":"Taquimilán","lat":-37.5174749,"lon":-70.2487798,"type":"village"},{"id":"198428967","name":"Tartagal","lat":-22.5194493,"lon":-63.7986328,"type":"town"},{"id":"198428978","name":"Tartagal","lat":-28.6710439,"lon":-59.8481967,"type":"village"},{"id":"198429047","name":"Tatón","lat":-27.3401349,"lon":-67.5313472,"type":"village"},{"id":"198429062","name":"Tecka","lat":-43.4927699,"lon":-70.8109003,"type":"village"},{"id":"198429077","name":"Tedín Uriburu","lat":-37.3649984,"lon":-59.7592656,"type":"village"},{"id":"198429162","name":"Telén","lat":-36.2641584,"lon":-65.5111766,"type":"village"},{"id":"198429170","name":"Tellier","lat":-47.6489643,"lon":-66.0403473,"type":"village"},{"id":"198429197","name":"Temperley","lat":-34.7758816,"lon":-58.3971199,"type":"city"},{"id":"198429310","name":"Teodelina","lat":-34.1895388,"lon":-61.5265613,"type":"village"},{"id":"198429328","name":"Termas de Río Hondo","lat":-27.4959255,"lon":-64.8640783,"type":"town"},{"id":"198429343","name":"Termas Santa Teresita","lat":-28.5909387,"lon":-66.5553151,"type":"village"},{"id":"198429368","name":"Tezanos Pinto","lat":-31.8709152,"lon":-60.4921257,"type":"village"},{"id":"198429404","name":"Theobald","lat":-33.3101025,"lon":-60.3099856,"type":"village"},{"id":"198429438","name":"Ticino","lat":-32.693005,"lon":-63.4370528,"type":"village"},{"id":"198429487","name":"Tigre","lat":-34.422659,"lon":-58.5808887,"type":"town"},{"id":"198429516","name":"Tilcara","lat":-23.5769014,"lon":-65.393396,"type":"village"},{"id":"198429528","name":"Tilimuqui","lat":-29.148183,"lon":-67.4301374,"type":"village"},{"id":"198429540","name":"Tilisarao","lat":-32.7312315,"lon":-65.2914654,"type":"village"},{"id":"198429630","name":"Timote","lat":-35.3465706,"lon":-62.2266675,"type":"village"},{"id":"198429676","name":"Tinogasta","lat":-28.0655005,"lon":-67.5644496,"type":"town"},{"id":"198429706","name":"Tintina","lat":-27.0261139,"lon":-62.7064687,"type":"village"},{"id":"198429741","name":"Tío Pujio","lat":-32.2870786,"lon":-63.3533231,"type":"village"},{"id":"198429822","name":"Toay","lat":-36.6729064,"lon":-64.3796744,"type":"town"},{"id":"198429835","name":"Toba","lat":-29.2677596,"lon":-60.1715594,"type":"village"},{"id":"198429876","name":"Tobuna","lat":-26.4697123,"lon":-53.8914762,"type":"village"},{"id":"198429930","name":"Todd","lat":-34.0311992,"lon":-60.1545554,"type":"village"},{"id":"198429956","name":"Tolar Grande","lat":-24.590288,"lon":-67.3967325,"type":"village"},{"id":"198429972","name":"Los Toldos","lat":-22.2804243,"lon":-64.6961363,"type":"village"},{"id":"198429977","name":"Toledo","lat":-31.5528597,"lon":-64.0088031,"type":"village"},{"id":"198429989","name":"Tolloche","lat":-25.5264141,"lon":-63.5225949,"type":"village"},{"id":"198430017","name":"Tolombón","lat":-26.1827537,"lon":-65.9398439,"type":"village"},{"id":"198430066","name":"Tomás Jofré","lat":-34.7005395,"lon":-59.3181961,"type":"village"},{"id":"198430080","name":"Tomás Manuel Anchorena","lat":-36.8400534,"lon":-63.5248245,"type":"village"},{"id":"198430099","name":"Tomás Young","lat":-28.6001902,"lon":-62.183262,"type":"village"},{"id":"198430131","name":"Tornquist","lat":-38.1013726,"lon":-62.2228603,"type":"village"},{"id":"198430197","name":"Torres","lat":-34.4308421,"lon":-59.1270662,"type":"village"},{"id":"198430240","name":"Tortugas","lat":-32.7464842,"lon":-61.8182922,"type":"village"},{"id":"198430312","name":"Tosquita","lat":-33.8197403,"lon":-64.457718,"type":"village"},{"id":"198430331","name":"Tostado","lat":-29.2323991,"lon":-61.7710504,"type":"town"},{"id":"198430407","name":"Totoras","lat":-32.5842697,"lon":-61.1667933,"type":"town"},{"id":"198430509","name":"Trancas","lat":-26.230956,"lon":-65.2835347,"type":"village"},{"id":"198430544","name":"Tránsito","lat":-31.4242807,"lon":-63.1944565,"type":"village"},{"id":"198430578","name":"Trapiche","lat":-33.1163592,"lon":-66.0629656,"type":"village"},{"id":"198430665","name":"30 de Agosto","lat":-36.2787547,"lon":-62.5451145,"type":"village"},{"id":"198430708","name":"Trenel","lat":-35.6983113,"lon":-64.1332564,"type":"village"},{"id":"198430723","name":"Trenque Lauquen","lat":-35.9731074,"lon":-62.7328794,"type":"town"},{"id":"198430738","name":"Tres Algarrobos","lat":-35.195872,"lon":-62.7741597,"type":"village"},{"id":"198430798","name":"Tres Arroyos","lat":-38.3770014,"lon":-60.2755685,"type":"town"},{"id":"198430897","name":"Tres Cruces","lat":-22.9191812,"lon":-65.588694,"type":"village"},{"id":"198430948","name":"Tres Estacas","lat":-26.9208525,"lon":-61.626999,"type":"village"},{"id":"198430978","name":"Tres Isletas","lat":-26.3403492,"lon":-60.4313372,"type":"town"},{"id":"198430992","name":"Tres Lagos","lat":-49.5990118,"lon":-71.4467076,"type":"village"},{"id":"198431026","name":"Tres Lagunas","lat":-25.2160881,"lon":-58.5130073,"type":"village"},{"id":"198431072","name":"Tres Lomas","lat":-36.4590428,"lon":-62.8620986,"type":"village"},{"id":"198431171","name":"Tres Picos","lat":-38.2885807,"lon":-62.2077548,"type":"village"},{"id":"198431325","name":"Tres Sargentos","lat":-34.4670175,"lon":-60.0008939,"type":"village"},{"id":"198431387","name":"Tricao Malal","lat":-37.0426002,"lon":-70.3333783,"type":"village"},{"id":"198431493","name":"Tristán Suárez","lat":-34.8907622,"lon":-58.5666894,"type":"town"},{"id":"198431556","name":"Tuclame","lat":-30.7476469,"lon":-65.2371768,"type":"village"},{"id":"198431657","name":"Tudcum","lat":-30.188204,"lon":-69.2708103,"type":"village"},{"id":"198431687","name":"Tumbaya","lat":-23.8575495,"lon":-65.4670199,"type":"village"},{"id":"198431749","name":"Tunuyán","lat":-33.5812925,"lon":-69.0154258,"type":"town"},{"id":"198431766","name":"Tupungato","lat":-33.3727633,"lon":-69.1475646,"type":"town"},{"id":"198431792","name":"Tusaquillas","lat":-23.1900615,"lon":-65.9894411,"type":"village"},{"id":"198431817","name":"Tuyubil","lat":-28.5802183,"lon":-67.1984602,"type":"village"},{"id":"198431841","name":"Ubajay","lat":-31.792412,"lon":-58.314684,"type":"village"},{"id":"198431846","name":"Ucacha","lat":-33.0313187,"lon":-63.5061713,"type":"village"},{"id":"198431854","name":"Udaquiola","lat":-36.5623778,"lon":-58.5329689,"type":"village"},{"id":"198431868","name":"Ugarteche","lat":-33.209815,"lon":-68.8898297,"type":"village"},{"id":"198431899","name":"Ulapes","lat":-31.5727531,"lon":-66.2376466,"type":"village"},{"id":"198431910","name":"Villa Ibáñez","lat":-31.4598475,"lon":-68.7220372,"type":"village"},{"id":"198431920","name":"Humberto Primo","lat":-30.8683155,"lon":-61.3480283,"type":"village"},{"id":"198431967","name":"Unquillo","lat":-31.2339887,"lon":-64.3164639,"type":"town"},{"id":"198431999","name":"Pueblo Uranga","lat":-33.2637886,"lon":-60.7059966,"type":"village"},{"id":"198432011","name":"Urdampilleta","lat":-36.431644,"lon":-61.4200983,"type":"village"},{"id":"198432020","name":"Urdinarrain","lat":-32.6910946,"lon":-58.8885673,"type":"village"},{"id":"198432030","name":"Uribelarrea","lat":-35.1238961,"lon":-58.8921126,"type":"village"},{"id":"198432045","name":"Uriburu","lat":-36.5062803,"lon":-63.8600313,"type":"village"},{"id":"198432070","name":"Urundel","lat":-23.5582035,"lon":-64.3978211,"type":"village"},{"id":"198432082","name":"Urutaú","lat":-25.7158677,"lon":-63.0445179,"type":"village"},{"id":"198432092","name":"Ushuaia","lat":-54.807306,"lon":-68.3084133,"type":"town"},{"id":"198432129","name":"Uspallata","lat":-32.5909282,"lon":-69.3479601,"type":"village"},{"id":"198432205","name":"Vaca Huañuna","lat":-27.45288,"lon":-63.4728187,"type":"village"},{"id":"198432246","name":"Valcheta","lat":-40.6760789,"lon":-66.1660771,"type":"village"},{"id":"198432261","name":"Valdés","lat":-35.6480745,"lon":-60.4656515,"type":"village"},{"id":"198432311","name":"Vallecito","lat":-31.737991,"lon":-67.9864718,"type":"village"},{"id":"198432328","name":"Valle Colorado","lat":-23.4136646,"lon":-64.9334276,"type":"village"},{"id":"198432361","name":"Valle Grande","lat":-23.4767516,"lon":-64.9460176,"type":"village"},{"id":"198432378","name":"Valle Hermoso","lat":-31.1169195,"lon":-64.4830387,"type":"village"},{"id":"198432390","name":"Valle María","lat":-31.990497,"lon":-60.5882194,"type":"village"},{"id":"198432423","name":"Vaqueros","lat":-24.6964999,"lon":-65.4103579,"type":"village"},{"id":"198432468","name":"Varvarco","lat":-36.8478253,"lon":-70.6772605,"type":"village"},{"id":"198432517","name":"20 de Setiembre","lat":-32.3850655,"lon":-59.6640019,"type":"village"},{"id":"198432528","name":"Veinticinco de Mayo","lat":-27.3779381,"lon":-54.7450286,"type":"village"},{"id":"198432543","name":"Veinticinco de Mayo","lat":-34.5837675,"lon":-68.5446503,"type":"village"},{"id":"198432558","name":"25 de Mayo","lat":-35.4324152,"lon":-60.171624,"type":"town"},{"id":"198432572","name":"25 de Mayo","lat":-37.7707789,"lon":-67.7176368,"type":"town"},{"id":"198432585","name":"28 de Noviembre","lat":-51.5795673,"lon":-72.2114721,"type":"village"},{"id":"198432615","name":"Puerto Eva Perón","lat":-26.6634275,"lon":-58.6333575,"type":"village"},{"id":"198432632","name":"Velloso","lat":-36.1206584,"lon":-59.6542164,"type":"village"},{"id":"198432643","name":"Venados Grandes","lat":-27.8153318,"lon":-61.3859168,"type":"village"},{"id":"198432657","name":"Venado Tuerto","lat":-33.7455871,"lon":-61.9686068,"type":"town"},{"id":"198432675","name":"Vera","lat":-29.4577916,"lon":-60.2158054,"type":"town"},{"id":"198432689","name":"Vera y Pintado","lat":-30.1432165,"lon":-60.3368778,"type":"village"},{"id":"198432730","name":"Verónica","lat":-35.387149,"lon":-57.3383564,"type":"village"},{"id":"198432744","name":"Vértiz","lat":-35.4274428,"lon":-63.9099687,"type":"village"},{"id":"198432757","name":"Viale","lat":-31.8720895,"lon":-60.0129648,"type":"village"},{"id":"198432777","name":"Viamonte","lat":-33.7461952,"lon":-63.0974115,"type":"village"},{"id":"198432847","name":"Vicente Casares","lat":-34.9656138,"lon":-58.6518649,"type":"village"},{"id":"198432888","name":"Vichigasta","lat":-29.4835475,"lon":-67.5100611,"type":"village"},{"id":"198432906","name":"Victoria","lat":-32.6217981,"lon":-60.1576895,"type":"town"},{"id":"198432918","name":"Victoria","lat":-34.4541012,"lon":-58.5407091,"type":"town"},{"id":"198432946","name":"Victorica","lat":-36.2164693,"lon":-65.4370862,"type":"village"},{"id":"198432974","name":"Vicuña Mackenna","lat":-33.9156871,"lon":-64.3898493,"type":"town"},{"id":"198432981","name":"Videla","lat":-30.9441655,"lon":-60.6522379,"type":"village"},{"id":"198432984","name":"Viedma","lat":-40.8084274,"lon":-62.994722,"type":"town"},{"id":"198432991","name":"Vieytes","lat":-35.2682937,"lon":-57.575487,"type":"village"},{"id":"198432994","name":"Vila","lat":-31.1903062,"lon":-61.8325798,"type":"village"},{"id":"198433008","name":"Vilelas","lat":-27.9632901,"lon":-62.608927,"type":"village"},{"id":"198433043","name":"Vilismán","lat":-28.4976906,"lon":-65.4330831,"type":"village"},{"id":"198433055","name":"Villa Aberastain","lat":-31.6576505,"lon":-68.5795555,"type":"village"},{"id":"198433112","name":"Juan Bautista Alberdi","lat":-27.5855433,"lon":-65.617946,"type":"town"},{"id":"198433179","name":"Villa Allende","lat":-31.2936231,"lon":-64.2976203,"type":"town"},{"id":"198433193","name":"Valentín Alsina","lat":-34.6719714,"lon":-58.4130153,"type":"town"},{"id":"198433206","name":"Villa Amelia","lat":-33.1759838,"lon":-60.6641381,"type":"village"},{"id":"198433233","name":"Villa Ana","lat":-28.4927126,"lon":-59.6134742,"type":"village"},{"id":"198433254","name":"Villa Ángela","lat":-27.5768225,"lon":-60.7112067,"type":"town"},{"id":"198433265","name":"Anisacate","lat":-31.7221633,"lon":-64.4041395,"type":"village"},{"id":"198433306","name":"Villa La Arcadia","lat":-38.135147,"lon":-61.788646,"type":"village"},{"id":"198433329","name":"Villa Ascasubi","lat":-32.1626779,"lon":-63.8925389,"type":"village"},{"id":"198433343","name":"Villa Atamisqui","lat":-28.4962654,"lon":-63.8173269,"type":"village"},{"id":"198433377","name":"Villa Atuel","lat":-34.8321169,"lon":-67.9206383,"type":"village"},{"id":"198433442","name":"Villa Sarmiento","lat":-34.6351149,"lon":-58.5735769,"type":"town"},{"id":"198433456","name":"Villa Bastías","lat":-33.3503904,"lon":-69.1371226,"type":"village"},{"id":"198433470","name":"Villa Belgrano","lat":-27.529915,"lon":-65.6158158,"type":"village"},{"id":"198433514","name":"Villa Berthet","lat":-27.2939767,"lon":-60.4115856,"type":"town"},{"id":"198433555","name":"Villa Sanagasta","lat":-29.2889218,"lon":-67.0218005,"type":"village"},{"id":"198433590","name":"Villa Cañás","lat":-34.0042781,"lon":-61.6054955,"type":"village"},{"id":"198433603","name":"Villa Candelaria Norte","lat":-29.8120753,"lon":-63.3544382,"type":"village"},{"id":"198433616","name":"Villa Carlos Paz","lat":-31.4183774,"lon":-64.4936985,"type":"town"},{"id":"198433647","name":"Villa Casana","lat":-31.1125985,"lon":-66.5516109,"type":"village"},{"id":"198433667","name":"Villa Castelli","lat":-29.0094492,"lon":-68.2239689,"type":"village"},{"id":"198433683","name":"Villa Cerro Azul","lat":-31.0706143,"lon":-64.3163558,"type":"village"},{"id":"198433691","name":"Chañar Ladeado","lat":-33.3261137,"lon":-62.0352689,"type":"village"},{"id":"198433702","name":"Villa Cochi-Tue","lat":-36.9699535,"lon":-60.3105194,"type":"village"},{"id":"198433724","name":"Colonia Italiana","lat":-33.3117012,"lon":-62.1780805,"type":"village"},{"id":"198433734","name":"Villa Concepción del Tío","lat":-31.3221408,"lon":-62.8140755,"type":"village"},{"id":"198433736","name":"Villa Constitución","lat":-33.227206,"lon":-60.3298225,"type":"town"},{"id":"198433765","name":"Villa Córdoba","lat":-28.9931776,"lon":-59.0766957,"type":"village"},{"id":"198433832","name":"Villada","lat":-33.3487788,"lon":-61.4466868,"type":"village"},{"id":"198433844","name":"Villa de la Quebrada","lat":-33.013234,"lon":-66.2923247,"type":"village"},{"id":"198433860","name":"Villa del Carmen","lat":-32.9399503,"lon":-65.038915,"type":"village"},{"id":"198433873","name":"Villa del Dique","lat":-32.1706023,"lon":-64.4536532,"type":"village"},{"id":"198433893","name":"Villa del Mar","lat":-38.8525765,"lon":-62.1171494,"type":"village"},{"id":"198433913","name":"Villa del Rosario","lat":-30.7957506,"lon":-57.9146132,"type":"village"},{"id":"198433972","name":"Villa del Tránsito","lat":-31.4472331,"lon":-63.1949516,"type":"village"},{"id":"198433985","name":"Villa de María","lat":-29.9065473,"lon":-63.7226242,"type":"village"},{"id":"198434026","name":"Villa de Praga","lat":-32.5332761,"lon":-65.6458381,"type":"village"},{"id":"198434034","name":"Villa de Soto","lat":-30.8553315,"lon":-64.9849239,"type":"village"},{"id":"198434089","name":"Villa Dolores","lat":-28.4444983,"lon":-65.7213391,"type":"village"},{"id":"198434096","name":"Villa Dolores","lat":-31.9449632,"lon":-65.1902298,"type":"town"},{"id":"198434107","name":"Villa Dominguito","lat":-31.5589906,"lon":-68.2992589,"type":"village"},{"id":"198434122","name":"Villa Domínico","lat":-34.6938734,"lon":-58.3324019,"type":"town"},{"id":"198434161","name":"Villa Cacique","lat":-37.6711509,"lon":-59.4004292,"type":"village"},{"id":"198434175","name":"Villa El Chocón","lat":-39.2611427,"lon":-68.7837698,"type":"village"},{"id":"198434176","name":"Villa Elisa","lat":-32.1631324,"lon":-58.4004902,"type":"town"},{"id":"198434206","name":"Villa Eloísa","lat":-32.9623404,"lon":-61.5462137,"type":"village"},{"id":"198434215","name":"9 de Abril","lat":-34.7553639,"lon":-58.4853799,"type":"town"},{"id":"198434243","name":"Villa Escolar","lat":-26.6218505,"lon":-58.6699675,"type":"village"},{"id":"198434252","name":"Villa España","lat":-34.7742876,"lon":-58.1946114,"type":"town"},{"id":"198434279","name":"Villa Estela","lat":-33.708113,"lon":-61.3115903,"type":"village"},{"id":"198434287","name":"Villa Fiad","lat":-27.0695896,"lon":-65.2332449,"type":"village"},{"id":"198434304","name":"Villa Figueroa","lat":-27.7173223,"lon":-63.5084206,"type":"village"},{"id":"198434327","name":"Villa Fontana","lat":-30.8947447,"lon":-63.114931,"type":"village"},{"id":"198434338","name":"Loma Negra","lat":-36.980852,"lon":-60.2789168,"type":"village"},{"id":"198434355","name":"Villa Fournier","lat":-35.4985894,"lon":-60.8666432,"type":"village"},{"id":"198434411","name":"Villa General Belgrano","lat":-31.9764896,"lon":-64.5590227,"type":"town"},