[{"id":"588370","name":"Merzenstein","lat":48.5694232,"lon":15.0950756,"type":"village"},{"id":"17328659","name":"Wien","lat":48.2083537,"lon":16.3725042,"type":"city"},{"id":"17328660","name":"Knoppen","lat":47.5672079,"lon":13.871179,"type":"village"},{"id":"17328664","name":"Hallstatt","lat":47.5621698,"lon":13.6486697,"type":"village"},{"id":"17330426","name":"Purkersdorf","lat":48.2076724,"lon":16.1772068,"type":"town"},{"id":"21015489","name":"Graz","lat":47.0708678,"lon":15.4382786,"type":"city"},{"id":"21395751","name":"Obersdorf","lat":47.5698586,"lon":13.8900794,"type":"village"},{"id":"21700104","name":"Kaprun","lat":47.2713898,"lon":12.7573679,"type":"village"},{"id":"25181326","name":"Linz","lat":48.3059078,"lon":14.286198,"type":"city"},{"id":"25232949","name":"Asten","lat":48.2202092,"lon":14.4214667,"type":"village"},{"id":"26370473","name":"Zell am See","lat":47.3239636,"lon":12.7963165,"type":"town"},{"id":"26566216","name":"Pettenbach","lat":47.9614255,"lon":14.0161792,"type":"village"},{"id":"26748998","name":"Wels","lat":48.1565472,"lon":14.0243752,"type":"town"},{"id":"26751022","name":"Eberstalzell","lat":48.0433366,"lon":13.9814852,"type":"village"},{"id":"26754457","name":"Leoben","lat":47.3805128,"lon":15.0947756,"type":"town"},{"id":"26759080","name":"Voitsberg","lat":47.0504742,"lon":15.1474771,"type":"town"},{"id":"26759287","name":"Köflach","lat":47.0644882,"lon":15.0850032,"type":"town"},{"id":"26806588","name":"Maria Ellend","lat":48.1115223,"lon":16.6856133,"type":"village"},{"id":"26806589","name":"Maria Elend/Podgorje","lat":46.5302614,"lon":14.084037,"type":"village"},{"id":"26807229","name":"Wiener Neustadt","lat":47.8131847,"lon":16.2441166,"type":"town"},{"id":"26807230","name":"Mattersburg","lat":47.7368423,"lon":16.3980488,"type":"town"},{"id":"26807231","name":"Parndorf/Pandrof","lat":47.9973956,"lon":16.8608307,"type":"village"},{"id":"26807232","name":"Gattendorf","lat":48.0155051,"lon":16.9841624,"type":"village"},{"id":"26807233","name":"Kittsee","lat":48.0924999,"lon":17.0638888,"type":"village"},{"id":"26807235","name":"Bruckneudorf","lat":48.0198451,"lon":16.7792466,"type":"village"},{"id":"26807236","name":"Berg","lat":48.1028069,"lon":17.0373013,"type":"village"},{"id":"26807241","name":"Eisenstadt","lat":47.8454821,"lon":16.5249288,"type":"town"},{"id":"26902436","name":"Wörgl","lat":47.4872718,"lon":12.0637633,"type":"town"},{"id":"26902437","name":"Kufstein","lat":47.582996,"lon":12.1692134,"type":"town"},{"id":"26902438","name":"Kirchbichl","lat":47.5111617,"lon":12.0859208,"type":"village"},{"id":"26921713","name":"Schleißheim","lat":48.1598261,"lon":14.0758845,"type":"village"},{"id":"26921784","name":"Weißkirchen an der Traun","lat":48.1642098,"lon":14.1271488,"type":"village"},{"id":"27030087","name":"Westendorf","lat":47.4320467,"lon":12.2141675,"type":"village"},{"id":"27147370","name":"Stadl-Paura","lat":48.0838623,"lon":13.8694007,"type":"village"},{"id":"27184848","name":"Itter","lat":47.4701866,"lon":12.1434521,"type":"village"},{"id":"27255535","name":"Laab im Walde","lat":48.1555671,"lon":16.1746578,"type":"village"},{"id":"27255536","name":"Wolfsgraben","lat":48.1579894,"lon":16.1209769,"type":"village"},{"id":"27255539","name":"Mayerling","lat":48.0450978,"lon":16.0967323,"type":"village"},{"id":"27255542","name":"St. Corona am Schöpfl","lat":48.0664562,"lon":15.923188,"type":"village"},{"id":"27255543","name":"Klamm","lat":48.0845418,"lon":15.8649268,"type":"village"},{"id":"27256675","name":"Veitsau","lat":47.936952,"lon":16.1007716,"type":"village"},{"id":"27257342","name":"Seebenstein","lat":47.6998726,"lon":16.1477079,"type":"village"},{"id":"27257343","name":"Grimmenstein","lat":47.6162058,"lon":16.1259492,"type":"village"},{"id":"27257344","name":"Aspang Markt","lat":47.5557781,"lon":16.0923525,"type":"village"},{"id":"27257345","name":"Kirchberg am Wechsel","lat":47.6097666,"lon":15.9913438,"type":"village"},{"id":"27257350","name":"St. Jakob im Walde","lat":47.4660432,"lon":15.786947,"type":"village"},{"id":"27257351","name":"Vorau","lat":47.406214,"lon":15.8883404,"type":"village"},{"id":"27257352","name":"Dechantskirchen","lat":47.416287,"lon":16.0189451,"type":"village"},{"id":"27257353","name":"Tauchen","lat":47.4870471,"lon":16.0550731,"type":"village"},{"id":"27257354","name":"Mönichkirchen","lat":47.5120788,"lon":16.0361905,"type":"village"},{"id":"27270090","name":"Altenmarkt an der Triesting","lat":48.015706,"lon":15.9917879,"type":"village"},{"id":"27270092","name":"Baunzen","lat":48.1831637,"lon":16.1781375,"type":"village"},{"id":"27270094","name":"Neulengbach","lat":48.1970124,"lon":15.907098,"type":"town"},{"id":"27270098","name":"Klein Wolkersdorf","lat":47.7481585,"lon":16.2467165,"type":"village"},{"id":"27270101","name":"Alland","lat":48.0585791,"lon":16.0786108,"type":"town"},{"id":"27270102","name":"Rohrbach an der Gölsen","lat":48.0477731,"lon":15.7415074,"type":"village"},{"id":"27270104","name":"Hainfeld","lat":48.0348237,"lon":15.7711936,"type":"town"},{"id":"27270105","name":"Kaumberg","lat":48.0241207,"lon":15.8980956,"type":"village"},{"id":"27270106","name":"Stockerau","lat":48.3846124,"lon":16.2076303,"type":"town"},{"id":"27270107","name":"Korneuburg","lat":48.3440605,"lon":16.3334321,"type":"town"},{"id":"27270108","name":"Bad Sauerbrunn","lat":47.7752135,"lon":16.3258026,"type":"village"},{"id":"27270476","name":"Kottingbrunn","lat":47.9513587,"lon":16.2285187,"type":"village"},{"id":"27293707","name":"Bruckhäusl","lat":47.4870846,"lon":12.1107973,"type":"village"},{"id":"27339107","name":"Angath","lat":47.5072393,"lon":12.0648925,"type":"village"},{"id":"27339108","name":"Oberlangkampfen","lat":47.5241403,"lon":12.0880059,"type":"village"},{"id":"27393337","name":"Heiligenkreuz","lat":48.0560466,"lon":16.1292957,"type":"village"},{"id":"27484883","name":"Selzthal","lat":47.5495159,"lon":14.314379,"type":"village"},{"id":"27559577","name":"Möderbrugg","lat":47.2831616,"lon":14.4806443,"type":"village"},{"id":"28230208","name":"Inzersdorf im Kremstal","lat":47.9263917,"lon":14.0780469,"type":"village"},{"id":"28230423","name":"Scharnstein","lat":47.904491,"lon":13.9609752,"type":"village"},{"id":"28235961","name":"Schlierbach","lat":47.9378369,"lon":14.1264301,"type":"village"},{"id":"28341623","name":"Sankt Radegund bei Graz","lat":47.1805259,"lon":15.4896288,"type":"village"},{"id":"29046568","name":"Angerberg","lat":47.5065843,"lon":12.0399435,"type":"village"},{"id":"29046569","name":"Mariastein","lat":47.5261836,"lon":12.05395,"type":"village"},{"id":"29046570","name":"Niederbreitenbach","lat":47.5379625,"lon":12.0816788,"type":"village"},{"id":"29170977","name":"Niederau","lat":47.4496738,"lon":12.0892967,"type":"village"},{"id":"29170980","name":"Oberau","lat":47.4441615,"lon":12.0526292,"type":"village"},{"id":"29736212","name":"Kleinsemmering","lat":47.1935286,"lon":15.5748215,"type":"village"},{"id":"29736575","name":"Gutenberg","lat":47.2076129,"lon":15.5627932,"type":"village"},{"id":"29745215","name":"Breitenfurt Ost","lat":48.1357786,"lon":16.1944408,"type":"village"},{"id":"29745217","name":"Rekawinkel","lat":48.1801065,"lon":16.0242089,"type":"village"},{"id":"29745219","name":"Hutten","lat":48.1778256,"lon":15.992543,"type":"village"},{"id":"29745226","name":"Altlengbach","lat":48.1534694,"lon":15.91884,"type":"village"},{"id":"29745227","name":"Untertullnerbach","lat":48.1884656,"lon":16.1248453,"type":"village"},{"id":"29745228","name":"Tullnerbach-Lawies","lat":48.1879915,"lon":16.0933148,"type":"village"},{"id":"29747054","name":"Hochstraß","lat":48.1386429,"lon":15.9862291,"type":"village"},{"id":"29747057","name":"Stangau","lat":48.1054414,"lon":16.1337704,"type":"village"},{"id":"29747059","name":"Rappoltenkirchen","lat":48.2348719,"lon":16.0229075,"type":"village"},{"id":"29747062","name":"Ollern","lat":48.2673924,"lon":16.0830741,"type":"village"},{"id":"29747063","name":"Staasdorf","lat":48.3005067,"lon":16.0623219,"type":"village"},{"id":"29747064","name":"Chorherrn","lat":48.2858765,"lon":16.0864432,"type":"village"},{"id":"29747066","name":"Tulbing","lat":48.2904507,"lon":16.1230974,"type":"village"},{"id":"29747070","name":"Ried am Riederberg","lat":48.2552614,"lon":16.071244,"type":"village"},{"id":"29747071","name":"Baumgarten am Tullnerfeld","lat":48.2831751,"lon":16.0317687,"type":"village"},{"id":"29747896","name":"Lackenhof","lat":47.8697008,"lon":15.1515861,"type":"village"},{"id":"29747899","name":"Maria Raisenmarkt","lat":48.0307705,"lon":16.0734219,"type":"village"},{"id":"29748312","name":"Purbach am Neusiedler See","lat":47.913427,"lon":16.6957954,"type":"town"},{"id":"29748316","name":"Breitenbrunn","lat":47.9463526,"lon":16.7325331,"type":"village"},{"id":"29748318","name":"Rust","lat":47.8003459,"lon":16.6749452,"type":"town"},{"id":"29748346","name":"Trausdorf an der Wulka/Trajštof","lat":47.8140457,"lon":16.558039,"type":"village"},{"id":"29748347","name":"Oslip/Uzlop","lat":47.8311862,"lon":16.6230906,"type":"village"},{"id":"29749380","name":"Sieggraben","lat":47.6490091,"lon":16.3791276,"type":"village"},{"id":"29749381","name":"Schwarzenbach","lat":47.6367323,"lon":16.349617,"type":"village"},{"id":"29749384","name":"Thernberg","lat":47.6615042,"lon":16.1771203,"type":"village"},{"id":"29749386","name":"Scheiblingkirchen","lat":47.6587836,"lon":16.1342731,"type":"village"},{"id":"29749387","name":"Kirchau","lat":47.6556071,"lon":16.0911738,"type":"village"},{"id":"29749397","name":"Willendorf","lat":47.7896479,"lon":16.0540051,"type":"village"},{"id":"29749398","name":"Grünbach am Schneeberg","lat":47.7983651,"lon":15.9876033,"type":"village"},{"id":"29749399","name":"Puchberg am Schneeberg","lat":47.7895615,"lon":15.9124064,"type":"town"},{"id":"29749402","name":"Markt Piesting","lat":47.8733551,"lon":16.1289999,"type":"village"},{"id":"29749405","name":"Pottenstein","lat":47.9585861,"lon":16.0969077,"type":"village"},{"id":"29749984","name":"Bruck an der Leitha","lat":48.0255094,"lon":16.7790041,"type":"town"},{"id":"29749985","name":"Petronell-Carnuntum","lat":48.1141485,"lon":16.8657834,"type":"village"},{"id":"29749986","name":"Orth an der Donau","lat":48.1486658,"lon":16.7017163,"type":"town"},{"id":"29749987","name":"Regelsbrunn","lat":48.109722,"lon":16.7776085,"type":"village"},{"id":"29752440","name":"Melk","lat":48.2272068,"lon":15.3369992,"type":"town"},{"id":"29777261","name":"Villach","lat":46.6167284,"lon":13.8500268,"type":"town"},{"id":"29777988","name":"Klagenfurt","lat":46.623943,"lon":14.3075976,"type":"city"},{"id":"29868275","name":"Heiligenblut","lat":47.0385366,"lon":12.8408209,"type":"village"},{"id":"30587791","name":"Gmunden","lat":47.9185855,"lon":13.8003048,"type":"town"},{"id":"30587828","name":"Baumgarten","lat":47.9294944,"lon":13.8312971,"type":"village"},{"id":"30587913","name":"Kranichsteg","lat":47.9206115,"lon":13.8713209,"type":"village"},{"id":"30589153","name":"Kirchdorf an der Krems","lat":47.905194,"lon":14.1244169,"type":"town"},{"id":"30791303","name":"Ringelsdorf","lat":48.5604539,"lon":16.8716591,"type":"village"},{"id":"31025866","name":"Kranebitten","lat":47.2656002,"lon":11.3304938,"type":"village"},{"id":"31238390","name":"Greifenburg","lat":46.7506053,"lon":13.1804131,"type":"town"},{"id":"31238397","name":"Berg","lat":46.747474,"lon":13.1362684,"type":"village"},{"id":"31238737","name":"Möllbrücke","lat":46.8370716,"lon":13.3704357,"type":"village"},{"id":"31238742","name":"Flattach","lat":46.9351835,"lon":13.1298627,"type":"village"},{"id":"31238803","name":"Iselsberg","lat":46.8374364,"lon":12.8418044,"type":"village"},{"id":"31238888","name":"Spittal an der Drau","lat":46.7982211,"lon":13.4963308,"type":"town"},{"id":"31238890","name":"Lendorf","lat":46.8337598,"lon":13.4261725,"type":"village"},{"id":"31238968","name":"Lieserbrücke","lat":46.8267491,"lon":13.4963948,"type":"village"},{"id":"31239123","name":"Fischertratten","lat":46.9394448,"lon":13.5240045,"type":"village"},{"id":"31239851","name":"Scheifling","lat":47.1502827,"lon":14.4100976,"type":"village"},{"id":"31239921","name":"Sankt Georgen ob Judenburg","lat":47.2066759,"lon":14.4998429,"type":"village"},{"id":"31372715","name":"Hagenberg im Mühlkreis","lat":48.3674201,"lon":14.516935,"type":"village"},{"id":"32119773","name":"Oetz","lat":47.2033325,"lon":10.8966104,"type":"village"},{"id":"32119775","name":"Sautens","lat":47.2083854,"lon":10.8667272,"type":"village"},{"id":"32204716","name":"Autal","lat":47.0605741,"lon":15.5496536,"type":"village"},{"id":"32204717","name":"Nestelbach bei Graz","lat":47.0618287,"lon":15.6084024,"type":"village"},{"id":"32204750","name":"Brodersdorf","lat":47.112426,"lon":15.6480391,"type":"village"},{"id":"32204751","name":"Hönigtal","lat":47.0931769,"lon":15.5631674,"type":"village"},{"id":"32463266","name":"St. Johann in Tirol","lat":47.5224141,"lon":12.4286809,"type":"town"},{"id":"32463351","name":"Reith bei Kitzbühel","lat":47.476011,"lon":12.3422357,"type":"village"},{"id":"32558655","name":"Engelhartszell","lat":48.5052032,"lon":13.7325696,"type":"village"},{"id":"32558656","name":"Niederranna","lat":48.4688223,"lon":13.7887887,"type":"village"},{"id":"32627098","name":"Feldkirch","lat":47.2375671,"lon":9.5981724,"type":"town"},{"id":"32696390","name":"Weyregg am Attersee","lat":47.9020955,"lon":13.5722764,"type":"village"},{"id":"32698938","name":"Schörfling am Attersee","lat":47.9463531,"lon":13.6035607,"type":"village"},{"id":"32703268","name":"Seewalchen am Attersee","lat":47.9539201,"lon":13.5866842,"type":"village"},{"id":"32703396","name":"Steindorf","lat":47.9653267,"lon":13.5701394,"type":"village"},{"id":"32708381","name":"Oberregau","lat":47.9885219,"lon":13.6585978,"type":"village"},{"id":"33119741","name":"Neukirchen am Großvenediger","lat":47.251607,"lon":12.2762162,"type":"village"},{"id":"33204772","name":"Unterlangkampfen","lat":47.5507378,"lon":12.1005477,"type":"village"},{"id":"33213385","name":"Aschau","lat":47.3823834,"lon":12.3104712,"type":"village"},{"id":"33965070","name":"Wernberg","lat":46.624741,"lon":13.9321561,"type":"village"},{"id":"34007073","name":"Jois","lat":47.9620701,"lon":16.794767,"type":"village"},{"id":"34103909","name":"Bad Vöslau","lat":47.9655519,"lon":16.2148073,"type":"town"},{"id":"34103910","name":"Oeynhausen","lat":47.986764,"lon":16.2936932,"type":"village"},{"id":"34103911","name":"Baden","lat":48.0076713,"lon":16.2343693,"type":"town"},{"id":"34103913","name":"Tribuswinkel","lat":48.0063222,"lon":16.2705972,"type":"village"},{"id":"34103914","name":"Leobersdorf","lat":47.9285336,"lon":16.216666,"type":"village"},{"id":"34104024","name":"Berndorf","lat":47.9455876,"lon":16.1093585,"type":"town"},{"id":"34107495","name":"Günselsdorf","lat":47.9433308,"lon":16.2616119,"type":"village"},{"id":"34187290","name":"Großau","lat":47.9558617,"lon":16.1675003,"type":"village"},{"id":"34236460","name":"Sankt Veit an der Triesting","lat":47.9389418,"lon":16.1557658,"type":"village"},{"id":"34404505","name":"Kohfidisch","lat":47.1752597,"lon":16.3579534,"type":"village"},{"id":"34404596","name":"Kotezicken","lat":47.1931154,"lon":16.3421394,"type":"village"},{"id":"34404597","name":"Kleinzicken","lat":47.2091489,"lon":16.3375501,"type":"village"},{"id":"34408095","name":"Kleinpetersdorf","lat":47.2142663,"lon":16.333158,"type":"village"},{"id":"34493853","name":"Hernstein","lat":47.8946978,"lon":16.1057941,"type":"village"},{"id":"34768663","name":"Aigen","lat":47.9006887,"lon":16.121506,"type":"village"},{"id":"34768782","name":"Lindabrunn","lat":47.9121904,"lon":16.1710653,"type":"village"},{"id":"34768784","name":"Enzesfeld","lat":47.9208029,"lon":16.1852559,"type":"village"},{"id":"34823766","name":"Schärding","lat":48.4569975,"lon":13.4318,"type":"town"},{"id":"34830137","name":"Mondsee","lat":47.8560014,"lon":13.3500658,"type":"village"},{"id":"34834640","name":"Hochwolkersdorf","lat":47.6610157,"lon":16.2824679,"type":"village"},{"id":"34837749","name":"Tattendorf","lat":47.9589755,"lon":16.302319,"type":"village"},{"id":"34840064","name":"Innsbruck","lat":47.2654296,"lon":11.3927685,"type":"city"},{"id":"34841814","name":"Oberpullendorf/Felsőpulya","lat":47.5012609,"lon":16.5054577,"type":"town"},{"id":"34844268","name":"Mank","lat":48.111069,"lon":15.3410341,"type":"town"},{"id":"34845573","name":"Fernitz","lat":46.9728396,"lon":15.4998228,"type":"village"},{"id":"34846695","name":"Studenzen","lat":47.0030362,"lon":15.7608189,"type":"village"},{"id":"34847834","name":"Fehring","lat":46.9360862,"lon":16.0104462,"type":"town"},{"id":"34848074","name":"Jennersdorf","lat":46.9371733,"lon":16.1412906,"type":"town"},{"id":"34849803","name":"Gleisdorf","lat":47.1054105,"lon":15.7098162,"type":"town"},{"id":"34852357","name":"Fürstenfeld","lat":47.0499925,"lon":16.0816815,"type":"town"},{"id":"34853571","name":"Passail","lat":47.2819214,"lon":15.515058,"type":"village"},{"id":"34854128","name":"Frohnleiten","lat":47.2715315,"lon":15.3260206,"type":"town"},{"id":"34855256","name":"Bruck an der Mur","lat":47.4121987,"lon":15.2721668,"type":"town"},{"id":"34911633","name":"Spielfeld","lat":46.7067148,"lon":15.6333168,"type":"village"},{"id":"34911640","name":"Leibnitz","lat":46.7804762,"lon":15.5407005,"type":"town"},{"id":"34911644","name":"Deutschlandsberg","lat":46.8146272,"lon":15.2137799,"type":"town"},{"id":"34911700","name":"Lavamünd","lat":46.6415802,"lon":14.942053,"type":"village"},{"id":"34911783","name":"Kapfenberg","lat":47.4405481,"lon":15.2901669,"type":"town"},{"id":"34911808","name":"Mürzzuschlag","lat":47.6053538,"lon":15.6723805,"type":"town"},{"id":"34912150","name":"Raaba","lat":47.027848,"lon":15.4965881,"type":"village"},{"id":"34912159","name":"Grambach","lat":47.0149249,"lon":15.5032296,"type":"village"},{"id":"34912198","name":"Thondorf","lat":47.0117868,"lon":15.4764042,"type":"village"},{"id":"34912214","name":"Gössendorf","lat":46.9969426,"lon":15.4869681,"type":"village"},{"id":"34912215","name":"Enzelsdorf","lat":46.9501904,"lon":15.5103172,"type":"village"},{"id":"34956197","name":"Unterpurkla","lat":46.7328837,"lon":15.9065655,"type":"village"},{"id":"34956199","name":"Weixelbaum","lat":46.7364432,"lon":15.8694951,"type":"village"},{"id":"34956200","name":"Mureck","lat":46.707647,"lon":15.7695211,"type":"town"},{"id":"34956571","name":"Mellach","lat":46.9418116,"lon":15.5161554,"type":"village"},{"id":"34959043","name":"Kirchberg an der Raab","lat":46.9870629,"lon":15.7650312,"type":"village"},{"id":"34964314","name":"Salzburg","lat":47.7981346,"lon":13.0464806,"type":"city"},{"id":"34972645","name":"Wildon","lat":46.8873498,"lon":15.5145485,"type":"village"},{"id":"34992019","name":"Bocksdorf","lat":47.1440687,"lon":16.1745205,"type":"village"},{"id":"34993015","name":"Bad Gleichenberg","lat":46.8744727,"lon":15.9049632,"type":"village"},{"id":"34994598","name":"Heiligenbrunn","lat":47.0271057,"lon":16.4162292,"type":"village"},{"id":"34994633","name":"Moschendorf","lat":47.0568399,"lon":16.4784094,"type":"village"},{"id":"34994653","name":"Gaas","lat":47.0832589,"lon":16.4628333,"type":"village"},{"id":"34994743","name":"Deutsch Schützen","lat":47.1643049,"lon":16.4485279,"type":"village"},{"id":"34994771","name":"Eisenberg an der Pinka","lat":47.18033,"lon":16.42389,"type":"village"},{"id":"35018373","name":"Hannersdorf","lat":47.2295643,"lon":16.3811473,"type":"village"},{"id":"35028972","name":"Drumling","lat":47.3106413,"lon":16.2550089,"type":"village"},{"id":"35029010","name":"Stadtschlaining","lat":47.3233193,"lon":16.2768141,"type":"village"},{"id":"35029310","name":"Neustift bei Schlaining","lat":47.3533214,"lon":16.2518917,"type":"village"},{"id":"35122981","name":"Günseck","lat":47.3952788,"lon":16.3231542,"type":"village"},{"id":"35123120","name":"Piringsdorf","lat":47.4486872,"lon":16.4158141,"type":"village"},{"id":"35128329","name":"Stoob Süd","lat":47.5097665,"lon":16.4980563,"type":"village"},{"id":"35128529","name":"Stoob","lat":47.5274371,"lon":16.477689,"type":"village"},{"id":"35197201","name":"Weppersdorf","lat":47.5793832,"lon":16.4273085,"type":"village"},{"id":"35197269","name":"Tschurndorf","lat":47.603963,"lon":16.4078459,"type":"village"},{"id":"35203249","name":"Kalkgruben","lat":47.6212389,"lon":16.3952194,"type":"village"},{"id":"35211823","name":"Schützen am Gebirge","lat":47.8509991,"lon":16.6255695,"type":"village"},{"id":"35293519","name":"Oberwart/Felsőőr","lat":47.2861513,"lon":16.2124214,"type":"town"},{"id":"35325837","name":"Teesdorf","lat":47.9500845,"lon":16.2815132,"type":"village"},{"id":"35350228","name":"Ried im Innkreis","lat":48.2085868,"lon":13.48839,"type":"town"},{"id":"35527052","name":"Wetzelsdorf","lat":48.6481267,"lon":16.6304425,"type":"village"},{"id":"35527053","name":"Erdberg","lat":48.6260622,"lon":16.6464749,"type":"village"},{"id":"35527189","name":"Gaweinstal","lat":48.4779777,"lon":16.5895025,"type":"village"},{"id":"35710980","name":"Sollenau","lat":47.8994729,"lon":16.2463342,"type":"village"},{"id":"35710981","name":"Theresienfeld","lat":47.8608075,"lon":16.2486373,"type":"village"},{"id":"35714813","name":"Matzendorf","lat":47.891716,"lon":16.214153,"type":"village"},{"id":"36268217","name":"Plainfeld","lat":47.8323325,"lon":13.1831669,"type":"village"},{"id":"36312416","name":"Deutsch Gerisdorf","lat":47.4128917,"lon":16.3621786,"type":"village"},{"id":"36312425","name":"Pilgersdorf","lat":47.4414153,"lon":16.3487551,"type":"village"},{"id":"36312466","name":"Kirchschlag in der Buckligen Welt","lat":47.503165,"lon":16.2979387,"type":"village"},{"id":"36312773","name":"Edlitz","lat":47.5978793,"lon":16.1408908,"type":"village"},{"id":"36312872","name":"Hütten","lat":47.6228527,"lon":16.1284882,"type":"village"},{"id":"36312902","name":"Petersbaumgarten","lat":47.6358137,"lon":16.1321091,"type":"village"},{"id":"36313013","name":"Schwarzau am Steinfeld","lat":47.730877,"lon":16.1720628,"type":"village"},{"id":"36313053","name":"Heideansiedlung","lat":47.8629243,"lon":16.206174,"type":"village"},{"id":"36313072","name":"Felixdorf","lat":47.8786521,"lon":16.2396573,"type":"village"},{"id":"36313120","name":"Schönau an der Triesting","lat":47.9340342,"lon":16.2545847,"type":"village"},{"id":"36322945","name":"Neustift bei Güssing","lat":47.0251655,"lon":16.2628257,"type":"village"},{"id":"36322959","name":"Goberling","lat":47.3605845,"lon":16.2825696,"type":"village"},{"id":"36322960","name":"Altschlaining","lat":47.3159288,"lon":16.2852689,"type":"village"},{"id":"36322961","name":"Neumarkt im Tauchental","lat":47.2969055,"lon":16.2972611,"type":"village"},{"id":"36322963","name":"Kirchfidisch","lat":47.1623517,"lon":16.3486047,"type":"village"},{"id":"36322964","name":"Punitz","lat":47.1202003,"lon":16.3435407,"type":"village"},{"id":"36323238","name":"Unterkohlstätten","lat":47.3760789,"lon":16.3248899,"type":"village"},{"id":"36347231","name":"Krottendorf bei Güssing","lat":47.0602313,"lon":16.3076399,"type":"village"},{"id":"36347313","name":"Tobaj","lat":47.0899178,"lon":16.3063095,"type":"village"},{"id":"36347315","name":"Deutsch Tschantschendorf","lat":47.1071423,"lon":16.288722,"type":"village"},{"id":"36404975","name":"Eugendorf","lat":47.8671332,"lon":13.1231841,"type":"village"},{"id":"36416466","name":"Ebenau","lat":47.7906849,"lon":13.175644,"type":"village"},{"id":"36431930","name":"Hölles","lat":47.8960524,"lon":16.2030919,"type":"village"},{"id":"36431949","name":"Bad Fischau","lat":47.8315377,"lon":16.166927,"type":"village"},{"id":"36432691","name":"Deutsch Kaltenbrunn","lat":47.0907356,"lon":16.1061701,"type":"village"},{"id":"36432696","name":"Neusiedl bei Güssing","lat":47.0808286,"lon":16.1758702,"type":"village"},{"id":"36432697","name":"Rehgraben","lat":47.0807617,"lon":16.2374283,"type":"village"},{"id":"36432717","name":"Gerersdorf bei Güssing","lat":47.0681028,"lon":16.2555107,"type":"village"},{"id":"36432719","name":"Sulz im Burgenland","lat":47.0759019,"lon":16.2689972,"type":"village"},{"id":"36462189","name":"Urbersdorf","lat":47.057988,"lon":16.3723678,"type":"village"},{"id":"36462535","name":"Steinfurt","lat":47.0724143,"lon":16.4176774,"type":"village"},{"id":"36487909","name":"Seeboden","lat":46.8190736,"lon":13.5186548,"type":"town"},{"id":"36488223","name":"Radenthein","lat":46.8007487,"lon":13.7107017,"type":"town"},{"id":"36488725","name":"Millstatt","lat":46.8051293,"lon":13.5714926,"type":"town"},{"id":"36491586","name":"Feistritz am Wechsel","lat":47.5999085,"lon":16.0541958,"type":"village"},{"id":"36718874","name":"Grillenberg","lat":47.9262537,"lon":16.0858784,"type":"village"},{"id":"37159330","name":"Sooß","lat":47.9845791,"lon":16.214595,"type":"village"},{"id":"37580635","name":"Heidenreichstein","lat":48.8657996,"lon":15.1230155,"type":"town"},{"id":"37580644","name":"Eisgarn","lat":48.9164996,"lon":15.100324,"type":"village"},{"id":"37581252","name":"Litschau","lat":48.9443409,"lon":15.0453244,"type":"town"},{"id":"37585033","name":"Gmünd","lat":48.7729279,"lon":14.9861752,"type":"town"},{"id":"37585038","name":"Loimanns","lat":48.9348721,"lon":15.0698186,"type":"village"},{"id":"38153649","name":"Miesenbach bei Birkfeld","lat":47.3696694,"lon":15.7593401,"type":"village"},{"id":"38191740","name":"Hofkirchen bei Hartberg","lat":47.2300703,"lon":15.8674932,"type":"village"},{"id":"38191788","name":"Schönau bei Pöllau","lat":47.263504,"lon":15.8659865,"type":"village"},{"id":"38191799","name":"Birkfeld","lat":47.3560657,"lon":15.6950405,"type":"village"},{"id":"38192146","name":"Oberfeistritz","lat":47.2600214,"lon":15.7097529,"type":"village"},{"id":"38463884","name":"Olbersdorf","lat":47.5985164,"lon":16.1199199,"type":"village"},{"id":"38552040","name":"Otterthal","lat":47.6234492,"lon":15.9431615,"type":"village"},{"id":"39425974","name":"Ebenfurth","lat":47.8774622,"lon":16.372311,"type":"village"},{"id":"39456758","name":"Steinbrunn/Štikapron","lat":47.8358338,"lon":16.4146427,"type":"village"},{"id":"39460210","name":"Neufeld an der Leitha","lat":47.8677623,"lon":16.3764014,"type":"town"},{"id":"39481078","name":"Wöllersdorf","lat":47.8653067,"lon":16.171931,"type":"village"},{"id":"41337492","name":"Reichersberg","lat":48.2621661,"lon":16.0725185,"type":"village"},{"id":"41364916","name":"Königstetten","lat":48.301191,"lon":16.1459049,"type":"village"},{"id":"41365743","name":"Klein Staasdorf","lat":48.2835276,"lon":16.0712853,"type":"village"},{"id":"41404066","name":"Pregarten","lat":48.3549825,"lon":14.5308031,"type":"town"},{"id":"41842388","name":"Aalfang","lat":48.8393882,"lon":15.0675236,"type":"village"},{"id":"41843375","name":"Waidhofen an der Thaya","lat":48.8146165,"lon":15.284518,"type":"town"},{"id":"41844024","name":"Eugenia","lat":48.8098798,"lon":15.0567575,"type":"village"},{"id":"42451019","name":"Hohensteg","lat":48.3214963,"lon":14.567418,"type":"village"},{"id":"42451696","name":"Schwertberg","lat":48.2741408,"lon":14.5817826,"type":"village"},{"id":"42452305","name":"Kefermarkt","lat":48.4429634,"lon":14.5383884,"type":"village"},{"id":"43395815","name":"Gumpoldskirchen","lat":48.0454352,"lon":16.2778213,"type":"village"},{"id":"43758039","name":"Altweitra","lat":48.7219009,"lon":14.9066185,"type":"village"},{"id":"43758043","name":"Weitra","lat":48.7007937,"lon":14.8941385,"type":"town"},{"id":"43758069","name":"Karlstift","lat":48.5916859,"lon":14.7499677,"type":"village"},{"id":"43758108","name":"Loibersdorf","lat":48.3857279,"lon":14.4822381,"type":"village"},{"id":"44460263","name":"Südstadt","lat":48.0949784,"lon":16.3055547,"type":"village"},{"id":"44462485","name":"Brunn am Gebirge","lat":48.1070931,"lon":16.2836918,"type":"village"},{"id":"44463531","name":"Vösendorf","lat":48.1216028,"lon":16.3370676,"type":"village"},{"id":"44830863","name":"Drösing","lat":48.5401579,"lon":16.9013391,"type":"village"},{"id":"44831690","name":"Niederabsdorf","lat":48.5675104,"lon":16.8572657,"type":"village"},{"id":"44832284","name":"Eichhorn","lat":48.5493666,"lon":16.8290636,"type":"village"},{"id":"44833357","name":"Zistersdorf","lat":48.5447465,"lon":16.7621379,"type":"town"},{"id":"44834591","name":"Hausbrunn","lat":48.627594,"lon":16.8282029,"type":"village"},{"id":"44837080","name":"Bernhardsthal","lat":48.6916576,"lon":16.8699891,"type":"village"},{"id":"44837506","name":"Reintal","lat":48.7011933,"lon":16.8255679,"type":"village"},{"id":"44843103","name":"Altlichtenwarth","lat":48.647373,"lon":16.7950882,"type":"village"},{"id":"44846322","name":"Mistelbach","lat":48.5694535,"lon":16.5720327,"type":"town"},{"id":"44848909","name":"Niederleis","lat":48.5510618,"lon":16.3985327,"type":"village"},{"id":"44848916","name":"Ernstbrunn","lat":48.5282016,"lon":16.3628114,"type":"town"},{"id":"44852319","name":"Waidendorf","lat":48.4645008,"lon":16.8245237,"type":"village"},{"id":"44853654","name":"Weikendorf","lat":48.3442483,"lon":16.7668257,"type":"village"},{"id":"44896256","name":"Göpfritz an der Wild","lat":48.724191,"lon":15.4032011,"type":"village"},{"id":"44904331","name":"Sigmundsherberg","lat":48.6868191,"lon":15.7468322,"type":"village"},{"id":"44905294","name":"Eggenburg","lat":48.6432222,"lon":15.8162695,"type":"town"},{"id":"44923882","name":"Guntersdorf","lat":48.6488543,"lon":16.0482854,"type":"village"},{"id":"44926987","name":"Laa an der Thaya","lat":48.7210387,"lon":16.3853207,"type":"town"},{"id":"44928005","name":"Wulzeshofen","lat":48.7175501,"lon":16.3029631,"type":"village"},{"id":"45018840","name":"Horn","lat":48.6636596,"lon":15.6563147,"type":"town"},{"id":"45036236","name":"Dobermannsdorf","lat":48.6028584,"lon":16.8204335,"type":"village"},{"id":"45037425","name":"Neusiedl an der Zaya","lat":48.6004802,"lon":16.7888478,"type":"village"},{"id":"45040122","name":"Palterndorf","lat":48.5903645,"lon":16.8182277,"type":"village"},{"id":"45042208","name":"Friedberg","lat":47.4415247,"lon":16.057816,"type":"village"},{"id":"45199094","name":"Ulrichskirchen","lat":48.4008321,"lon":16.492071,"type":"village"},{"id":"45199112","name":"Schleinbach","lat":48.420017,"lon":16.4765378,"type":"village"},{"id":"45200977","name":"Unterolberndorf","lat":48.4343819,"lon":16.4766294,"type":"village"},{"id":"45210811","name":"Hohenruppersdorf","lat":48.4642356,"lon":16.6508678,"type":"village"},{"id":"45218728","name":"Raasdorf","lat":48.2471795,"lon":16.5640326,"type":"village"},{"id":"45220416","name":"Großhofen","lat":48.2587443,"lon":16.6200089,"type":"village"},{"id":"45240492","name":"Pama/Bijelo Selo","lat":48.0475424,"lon":17.0345629,"type":"village"},{"id":"45252242","name":"Gösting","lat":48.5537495,"lon":16.7795517,"type":"village"},{"id":"45255218","name":"Großinzersdorf","lat":48.5243715,"lon":16.7585628,"type":"village"},{"id":"45257922","name":"Gaiselberg","lat":48.5330127,"lon":16.717156,"type":"village"},{"id":"45264738","name":"Maustrenk","lat":48.5729103,"lon":16.7006887,"type":"village"},{"id":"45310131","name":"Vandans","lat":47.0957061,"lon":9.8644414,"type":"village"},{"id":"46344183","name":"Hausleiten","lat":48.3943998,"lon":16.1027331,"type":"village"},{"id":"46388761","name":"Göllersdorf","lat":48.492749,"lon":16.1208031,"type":"village"},{"id":"46422983","name":"Achau","lat":48.0803418,"lon":16.3865508,"type":"village"},{"id":"46424534","name":"Hennersdorf","lat":48.1116298,"lon":16.3622404,"type":"village"},{"id":"46909892","name":"Königswiesen","lat":48.4071814,"lon":14.8403296,"type":"village"},{"id":"47166230","name":"Mittertreffling","lat":48.3380193,"lon":14.3650952,"type":"village"},{"id":"47166248","name":"Gallneukirchen","lat":48.3531392,"lon":14.4164196,"type":"town"},{"id":"47740705","name":"Bad Leonfelden","lat":48.5226514,"lon":14.2930689,"type":"town"},{"id":"47910177","name":"St. Georgen am Walde","lat":48.35948,"lon":14.8967303,"type":"village"},{"id":"47910183","name":"Dimbach","lat":48.3064161,"lon":14.9080282,"type":"village"},{"id":"47910185","name":"Grein","lat":48.2271779,"lon":14.8551948,"type":"town"},{"id":"47912919","name":"Saxen","lat":48.2080208,"lon":14.7895366,"type":"village"},{"id":"47912923","name":"Baumgartenberg","lat":48.2091891,"lon":14.7451588,"type":"village"},{"id":"47912937","name":"Arbing","lat":48.2285239,"lon":14.7036032,"type":"village"},{"id":"47912944","name":"Perg","lat":48.2500898,"lon":14.6338102,"type":"town"},{"id":"48230935","name":"Nadelbach","lat":48.4685118,"lon":14.7414554,"type":"village"},{"id":"48230977","name":"Weitersfelden","lat":48.4778598,"lon":14.7265174,"type":"village"},{"id":"48232700","name":"Bad Zell","lat":48.3499807,"lon":14.6693177,"type":"village"},{"id":"49903293","name":"Bezau","lat":47.3852407,"lon":9.9013727,"type":"village"},{"id":"51136285","name":"Rudmanns","lat":48.5989477,"lon":15.2063301,"type":"village"},{"id":"51138154","name":"Schwarzenau","lat":48.7435601,"lon":15.2609944,"type":"village"},{"id":"51139055","name":"Stillfried","lat":48.4101398,"lon":16.8431396,"type":"village"},{"id":"51140119","name":"Ladendorf","lat":48.5336216,"lon":16.4914576,"type":"village"},{"id":"51142852","name":"Sierndorf an der March","lat":48.5119421,"lon":16.8865013,"type":"village"},{"id":"51143545","name":"Waltersdorf an der March","lat":48.5295655,"lon":16.8870163,"type":"village"},{"id":"51146368","name":"Hauskirchen","lat":48.6139237,"lon":16.7597613,"type":"village"},{"id":"51149161","name":"Neudorf im Weinviertel","lat":48.7209394,"lon":16.4924882,"type":"village"},{"id":"51149627","name":"Staatz-Kautendorf","lat":48.6747839,"lon":16.486745,"type":"village"},{"id":"51150593","name":"Zwingendorf","lat":48.7061057,"lon":16.2383233,"type":"village"},{"id":"52302992","name":"Altenberg bei Linz","lat":48.3734097,"lon":14.3485638,"type":"village"},{"id":"52695360","name":"Randegg","lat":48.0117296,"lon":14.972678,"type":"village"},{"id":"52697141","name":"Wang","lat":48.0466867,"lon":15.0263057,"type":"village"},{"id":"52698890","name":"Prinzersdorf","lat":48.2018046,"lon":15.5168991,"type":"village"},{"id":"52950607","name":"Enns","lat":48.2141482,"lon":14.4793948,"type":"town"},{"id":"53213339","name":"Öpping","lat":48.2326483,"lon":16.0292856,"type":"village"},{"id":"53215708","name":"Elsbach","lat":48.2512311,"lon":16.0484424,"type":"village"},{"id":"53216023","name":"Sieghartskirchen","lat":48.2560122,"lon":16.0117674,"type":"village"},{"id":"53251782","name":"Bad Häring","lat":47.510719,"lon":12.1188475,"type":"village"},{"id":"53454954","name":"Steinabrückl","lat":47.8700837,"lon":16.2026069,"type":"village"},{"id":"54083236","name":"Parbasdorf","lat":48.2795355,"lon":16.5901388,"type":"village"},{"id":"54085673","name":"Sarasdorf","lat":48.0213476,"lon":16.6754925,"type":"village"},{"id":"54528373","name":"Lans","lat":47.2385132,"lon":11.4324242,"type":"village"},{"id":"54790820","name":"Hollabrunn","lat":48.5625384,"lon":16.0798033,"type":"town"},{"id":"55195793","name":"Gerersdorf","lat":48.245268,"lon":16.028494,"type":"village"},{"id":"55994681","name":"Neu Götzens","lat":47.2335149,"lon":11.3350249,"type":"village"},{"id":"57223278","name":"Enzersfeld","lat":48.3614175,"lon":16.4262364,"type":"village"},{"id":"57223367","name":"Königsbrunn","lat":48.3504739,"lon":16.4109025,"type":"village"},{"id":"57224362","name":"Seebarn","lat":48.3799103,"lon":16.3885113,"type":"village"},{"id":"57224635","name":"Putzing","lat":48.371293,"lon":16.4479281,"type":"village"},{"id":"57224834","name":"Putzing am See","lat":48.3633439,"lon":16.4495109,"type":"village"},{"id":"57225058","name":"Großebersdorf","lat":48.3613007,"lon":16.4659971,"type":"village"},{"id":"57225316","name":"Münichsthal","lat":48.387062,"lon":16.4721858,"type":"village"},{"id":"57226618","name":"Eibesbrunn","lat":48.3606806,"lon":16.4922481,"type":"village"},{"id":"57227170","name":"Flandorf","lat":48.3491517,"lon":16.379578,"type":"village"},{"id":"57227367","name":"Bisamberg","lat":48.3316817,"lon":16.3616015,"type":"village"},{"id":"57651883","name":"Pöchlarn","lat":48.2119885,"lon":15.2120099,"type":"town"},{"id":"57717739","name":"Ollersdorf","lat":48.3949929,"lon":16.7971471,"type":"village"},{"id":"57725873","name":"Seyring","lat":48.3320785,"lon":16.4850443,"type":"village"},{"id":"57742347","name":"Süßenbrunn","lat":48.277789,"lon":16.494958,"type":"village"},{"id":"57756076","name":"St. Veit an der Gölsen","lat":48.0438943,"lon":15.6703728,"type":"village"},{"id":"59053943","name":"Wernstein","lat":48.5069504,"lon":13.4572458,"type":"village"},{"id":"59258625","name":"Obersdorf","lat":48.3701002,"lon":16.5236336,"type":"village"},{"id":"59422908","name":"Gosau","lat":47.5851071,"lon":13.5362156,"type":"village"},{"id":"59599463","name":"Bockfließ","lat":48.360083,"lon":16.6029097,"type":"village"},{"id":"59599485","name":"Kapellerfeld","lat":48.3152539,"lon":16.4976517,"type":"village"},{"id":"59599487","name":"Gerasdorf bei Wien","lat":48.294579,"lon":16.4679227,"type":"village"},{"id":"59599529","name":"Strasshof an der Nordbahn","lat":48.3189487,"lon":16.6429437,"type":"town"},{"id":"59623014","name":"Wilfersdorf","lat":48.2780816,"lon":16.1013254,"type":"village"},{"id":"59628785","name":"Judenau","lat":48.2842975,"lon":16.0095822,"type":"village"},{"id":"59628804","name":"Langenrohr","lat":48.3064535,"lon":16.0090936,"type":"village"},{"id":"59628977","name":"Kronau","lat":48.326689,"lon":16.0046794,"type":"village"},{"id":"59630746","name":"Irenental","lat":48.2042997,"lon":16.1020106,"type":"village"},{"id":"59658512","name":"Elsenreith","lat":48.3865062,"lon":15.2822641,"type":"village"},{"id":"59658766","name":"Ottenschlag","lat":48.4234347,"lon":15.2212807,"type":"village"},{"id":"59743380","name":"Schnepfau","lat":47.3520492,"lon":9.9453735,"type":"village"},{"id":"59835199","name":"Hirschau","lat":47.350477,"lon":9.9182487,"type":"village"},{"id":"59835847","name":"Manhartsbrunn","lat":48.3868719,"lon":16.4289103,"type":"village"},{"id":"59841472","name":"Geras","lat":48.7974749,"lon":15.6724733,"type":"town"},{"id":"59841562","name":"Goggitsch","lat":48.7742938,"lon":15.6769895,"type":"village"},{"id":"59841568","name":"Fugnitz","lat":48.7850473,"lon":15.7099964,"type":"village"},{"id":"59843761","name":"Omes","lat":47.2427791,"lon":11.2784957,"type":"village"},{"id":"59843986","name":"Klein-Engersdorf","lat":48.3386871,"lon":16.3803683,"type":"village"},{"id":"59951680","name":"Rückersdorf","lat":48.3966489,"lon":16.3718372,"type":"village"},{"id":"59951687","name":"Würnitz","lat":48.4306352,"lon":16.4254687,"type":"village"},{"id":"59951920","name":"Wetzleinsdorf","lat":48.4781772,"lon":16.3831637,"type":"village"},{"id":"59952988","name":"Hetzmannsdorf","lat":48.4414334,"lon":16.3968913,"type":"village"},{"id":"59977351","name":"Prinzendorf an der Zaya","lat":48.6003283,"lon":16.717292,"type":"village"},{"id":"59978218","name":"Mannersdorf an der March","lat":48.3918657,"lon":16.8398559,"type":"village"},{"id":"59987119","name":"Plesching","lat":48.3216904,"lon":14.3409002,"type":"village"},{"id":"60041539","name":"Tulln an der Donau","lat":48.3311702,"lon":16.05179,"type":"town"},{"id":"60135760","name":"Gutenbrunn","lat":48.3655105,"lon":15.1192168,"type":"village"},{"id":"60217755","name":"Baad","lat":47.3103483,"lon":10.1212817,"type":"village"},{"id":"60217883","name":"Mittelberg","lat":47.3240997,"lon":10.1544534,"type":"village"},{"id":"60220275","name":"Murau","lat":47.1123353,"lon":14.1691331,"type":"town"},{"id":"60239195","name":"Kapelln","lat":48.2585513,"lon":15.7570191,"type":"village"},{"id":"60239627","name":"Untergrafendorf","lat":48.2251916,"lon":15.7517832,"type":"village"},{"id":"60239819","name":"Statzendorf","lat":48.307679,"lon":15.6414443,"type":"village"},{"id":"60240127","name":"Herzogenburg","lat":48.2843295,"lon":15.6946065,"type":"town"},{"id":"60240514","name":"Palt","lat":48.3847295,"lon":15.6091214,"type":"village"},{"id":"60240877","name":"Sitzenberg","lat":48.3213267,"lon":15.808616,"type":"village"},{"id":"60241309","name":"Heiligeneich","lat":48.2994934,"lon":15.8922653,"type":"village"},{"id":"60241642","name":"Moosbierbaum","lat":48.3052634,"lon":15.9005079,"type":"village"},{"id":"60241947","name":"Michelhausen","lat":48.2906073,"lon":15.9386148,"type":"village"},{"id":"60244295","name":"Wolfpassing","lat":48.3142705,"lon":16.1790213,"type":"village"},{"id":"60245534","name":"Innertreffling","lat":48.3362459,"lon":14.3878682,"type":"village"},{"id":"60255177","name":"Traunfeld","lat":48.4424731,"lon":16.5197065,"type":"village"},{"id":"60255197","name":"Riedenthal","lat":48.4098219,"lon":16.5138679,"type":"village"},{"id":"60255267","name":"Hautzendorf","lat":48.4480837,"lon":16.4944372,"type":"village"},{"id":"60255317","name":"Niederkreuzstetten","lat":48.4803015,"lon":16.4779261,"type":"village"},{"id":"60255452","name":"Oberkreuzstetten","lat":48.4820073,"lon":16.4515038,"type":"village"},{"id":"60255617","name":"Großrußbach","lat":48.4747327,"lon":16.4202786,"type":"village"},{"id":"60256971","name":"Weinsteig","lat":48.4576515,"lon":16.4020841,"type":"village"},{"id":"60258087","name":"Obergänserndorf","lat":48.4297444,"lon":16.3712366,"type":"village"},{"id":"60260324","name":"Karnabrunn","lat":48.4604307,"lon":16.3696865,"type":"village"},{"id":"60261374","name":"Niederhollabrunn","lat":48.449149,"lon":16.3003618,"type":"village"},{"id":"60261694","name":"Lachsfeld","lat":48.4830147,"lon":16.3371961,"type":"village"},{"id":"60262585","name":"Bruderndorf","lat":48.4714558,"lon":16.2930913,"type":"village"},{"id":"60263258","name":"Simonsfeld","lat":48.5058547,"lon":16.3349681,"type":"village"},{"id":"60263439","name":"Naglern","lat":48.497016,"lon":16.3665007,"type":"village"},{"id":"60264075","name":"Leitzersdorf","lat":48.4205577,"lon":16.2464411,"type":"village"},{"id":"60264120","name":"Wollmannsberg","lat":48.430003,"lon":16.2655709,"type":"village"},{"id":"60264122","name":"Haselbach","lat":48.4360025,"lon":16.2758032,"type":"village"},{"id":"60264196","name":"Niederfellabrunn","lat":48.4621103,"lon":16.3029764,"type":"village"},{"id":"60264893","name":"Tresdorf","lat":48.3823201,"lon":16.3563938,"type":"village"},{"id":"60291887","name":"Maissau","lat":48.5706932,"lon":15.8259176,"type":"town"},{"id":"60292009","name":"Parisdorf","lat":48.5679405,"lon":15.8522131,"type":"village"},{"id":"60293665","name":"Prutzendorf","lat":48.7696971,"lon":15.7960209,"type":"village"},{"id":"60293690","name":"Starrein","lat":48.7620969,"lon":15.7618017,"type":"village"},{"id":"60293708","name":"Sallapulka","lat":48.7480066,"lon":15.7387186,"type":"village"},{"id":"60294019","name":"Dallein","lat":48.7604243,"lon":15.7026035,"type":"village"},{"id":"60341512","name":"Pottenbrunn","lat":48.2384248,"lon":15.69792,"type":"village"},{"id":"60368329","name":"Niederrußbach","lat":48.4512992,"lon":16.0390511,"type":"village"},{"id":"60368746","name":"Großweikersdorf","lat":48.4729569,"lon":15.9822875,"type":"village"},{"id":"60368887","name":"Ziersdorf","lat":48.5279373,"lon":15.9275559,"type":"village"},{"id":"60369162","name":"Ravelsbach","lat":48.5514581,"lon":15.8500427,"type":"village"},{"id":"60456923","name":"Tanneben","lat":47.2114439,"lon":11.2214219,"type":"village"},{"id":"60477400","name":"St. Georgen im Attergau","lat":47.9336035,"lon":13.4908056,"type":"village"},{"id":"60602936","name":"Kössen","lat":47.6703019,"lon":12.4055164,"type":"village"},{"id":"60610613","name":"Lochau","lat":47.5294182,"lon":9.7533944,"type":"village"},{"id":"60708585","name":"Schweinbach","lat":48.3408475,"lon":14.4238901,"type":"village"},{"id":"60739907","name":"Riezlern","lat":47.3593581,"lon":10.188329,"type":"village"},{"id":"60762337","name":"Auersthal","lat":48.3732892,"lon":16.6357148,"type":"village"},{"id":"60762349","name":"Reyersdorf","lat":48.3722086,"lon":16.6871492,"type":"village"},{"id":"60803985","name":"Deutschkreutz","lat":47.6004471,"lon":16.6248006,"type":"village"},{"id":"60804216","name":"Lackendorf","lat":47.5887753,"lon":16.5027466,"type":"village"},{"id":"60804286","name":"Horitschon","lat":47.5874558,"lon":16.5475663,"type":"village"},{"id":"60804467","name":"Böckstein","lat":47.0907577,"lon":13.1184706,"type":"village"},{"id":"60804810","name":"Dorfgastein","lat":47.2418802,"lon":13.1059603,"type":"village"},{"id":"60805026","name":"Lend","lat":47.2985184,"lon":13.0440485,"type":"village"},{"id":"60805101","name":"Türnitz","lat":47.9298884,"lon":15.4897884,"type":"village"},{"id":"60805302","name":"Traisen","lat":48.0435449,"lon":15.6098667,"type":"village"},{"id":"60806241","name":"Amstetten","lat":48.1203262,"lon":14.8752424,"type":"town"},{"id":"60806408","name":"Scheibbs","lat":48.0053866,"lon":15.1674871,"type":"town"},{"id":"60807441","name":"Wiesen","lat":47.7382162,"lon":16.3381161,"type":"village"},{"id":"60807736","name":"Sigleß","lat":47.7750029,"lon":16.3948459,"type":"village"},{"id":"60808101","name":"Hirm","lat":47.7869661,"lon":16.454586,"type":"village"},{"id":"60808612","name":"Althöflein","lat":48.6383247,"lon":16.7386548,"type":"village"},{"id":"60912602","name":"Lindegg","lat":47.1177553,"lon":16.0059439,"type":"village"},{"id":"60912679","name":"Jobst","lat":47.0953994,"lon":16.0227355,"type":"village"},{"id":"60912969","name":"Burgau","lat":47.1430636,"lon":16.0985464,"type":"village"},{"id":"60913076","name":"Neudau","lat":47.1776977,"lon":16.0991378,"type":"village"},{"id":"60913150","name":"Wörth an der Lafnitz","lat":47.2122136,"lon":16.0803188,"type":"village"},{"id":"60913258","name":"Unterrohr","lat":47.2474365,"lon":16.0501481,"type":"village"},{"id":"60913324","name":"Markt Allhau","lat":47.291894,"lon":16.0805651,"type":"village"},{"id":"61076219","name":"Galtür","lat":46.9681674,"lon":10.1865341,"type":"village"},{"id":"61076356","name":"Brunnenfeld","lat":47.1409585,"lon":9.8382525,"type":"village"},{"id":"61076380","name":"Schruns","lat":47.0802089,"lon":9.9197063,"type":"village"},{"id":"61076381","name":"Tschagguns","lat":47.0766944,"lon":9.9028002,"type":"village"},{"id":"61076394","name":"Gortipohl","lat":47.0102323,"lon":10.0015818,"type":"village"},{"id":"61076404","name":"Galgenul","lat":47.0228965,"lon":9.9642519,"type":"village"},{"id":"61079295","name":"Neuhaus","lat":47.9966722,"lon":16.0470853,"type":"village"},{"id":"61079467","name":"Vorberg","lat":47.4127904,"lon":13.6356589,"type":"village"},{"id":"61102063","name":"Neusiedl am See","lat":47.9491855,"lon":16.8425149,"type":"town"},{"id":"61102080","name":"Weiden am See","lat":47.9261532,"lon":16.8679364,"type":"village"},{"id":"61102103","name":"Podersdorf am See","lat":47.8570865,"lon":16.8341426,"type":"village"},{"id":"61102127","name":"Illmitz","lat":47.7610752,"lon":16.8008294,"type":"village"},{"id":"61276046","name":"Waidhofen an der Ybbs","lat":47.9609716,"lon":14.7747171,"type":"town"},{"id":"61276140","name":"Gaflenz","lat":47.8949595,"lon":14.7240481,"type":"village"},{"id":"61276534","name":"Hollenstein an der Ybbs","lat":47.804154,"lon":14.7721536,"type":"village"},{"id":"61764877","name":"Imst","lat":47.2381536,"lon":10.7406982,"type":"town"},{"id":"61895298","name":"Lannach","lat":46.9427967,"lon":15.3336113,"type":"village"},{"id":"62604405","name":"Praxmar","lat":47.150435,"lon":11.1335845,"type":"village"},{"id":"62644020","name":"Kühtai","lat":47.2136222,"lon":11.0234047,"type":"village"},{"id":"62660690","name":"Ochsengarten","lat":47.2285378,"lon":10.9354865,"type":"village"},{"id":"63628816","name":"Schardenberg","lat":48.5195888,"lon":13.4972841,"type":"village"},{"id":"63631372","name":"Esternberg","lat":48.5439083,"lon":13.5703837,"type":"village"},{"id":"63632799","name":"Kasten","lat":48.5432451,"lon":13.6542778,"type":"village"},{"id":"63633468","name":"Vichtenstein","lat":48.5276934,"lon":13.6515244,"type":"village"},{"id":"63658359","name":"Suben","lat":48.4106552,"lon":13.4291104,"type":"village"},{"id":"63659488","name":"Obernberg am Inn","lat":48.3211392,"lon":13.3340526,"type":"village"},{"id":"66147281","name":"Mariazell","lat":47.7717395,"lon":15.3174781,"type":"town"},{"id":"66154202","name":"Dürnkrut","lat":48.4717951,"lon":16.8499148,"type":"village"},{"id":"66476629","name":"Gamischdorf","lat":47.1089258,"lon":16.2570996,"type":"village"},{"id":"68448327","name":"Schiefer","lat":46.9381568,"lon":16.0458747,"type":"village"},{"id":"68448773","name":"Gutendorf","lat":46.8936836,"lon":15.9995384,"type":"village"},{"id":"68448779","name":"Petersdorf","lat":46.9181186,"lon":16.026408,"type":"village"},{"id":"70193954","name":"Hilm","lat":48.021809,"lon":14.7551378,"type":"village"},{"id":"70325890","name":"Pottendorf","lat":47.9100871,"lon":16.3875417,"type":"village"},{"id":"70375067","name":"Oberneukirchen","lat":48.4645137,"lon":14.226266,"type":"village"},{"id":"70375086","name":"Neußerling","lat":48.4270618,"lon":14.1618062,"type":"village"},{"id":"71562321","name":"Hadersdorf am Kamp","lat":48.4586188,"lon":15.7205971,"type":"village"},{"id":"71571536","name":"Gedersdorf","lat":48.433264,"lon":15.6876068,"type":"village"},{"id":"71650771","name":"Perchtoldsdorf","lat":48.1191393,"lon":16.2651702,"type":"village"},{"id":"71796666","name":"Lanzenkirchen","lat":47.7429289,"lon":16.2392243,"type":"village"},{"id":"72465482","name":"Tragwein","lat":48.3312957,"lon":14.6220747,"type":"village"},{"id":"73089810","name":"Warth","lat":47.2581667,"lon":10.1833481,"type":"village"},{"id":"73089813","name":"Zürs","lat":47.17122,"lon":10.1631739,"type":"village"},{"id":"73089814","name":"Lech","lat":47.2091173,"lon":10.1401259,"type":"village"},{"id":"73322184","name":"Lofer","lat":47.5866984,"lon":12.6934197,"type":"village"},{"id":"73685883","name":"Absdorf","lat":48.4001618,"lon":15.9803689,"type":"village"},{"id":"73691491","name":"Bierbaum am Kleebühel","lat":48.3909642,"lon":15.9340084,"type":"village"},{"id":"73704115","name":"Unterstockstall","lat":48.4239294,"lon":15.9294222,"type":"village"},{"id":"73711446","name":"Kirchberg am Wagram","lat":48.4319557,"lon":15.8986861,"type":"village"},{"id":"73732834","name":"Fels am Wagram","lat":48.43804,"lon":15.8186134,"type":"village"},{"id":"73743201","name":"Wagram am Wagram","lat":48.4344292,"lon":15.7776634,"type":"village"},{"id":"73743227","name":"Feuersbrunn","lat":48.4394827,"lon":15.7850227,"type":"village"},{"id":"73761415","name":"Stetteldorf am Wagram","lat":48.4087806,"lon":16.0165889,"type":"village"},{"id":"73761452","name":"Eggendorf am Wagram","lat":48.402767,"lon":16.0414386,"type":"village"},{"id":"73764140","name":"Gaisruck","lat":48.3981813,"lon":16.0612689,"type":"village"},{"id":"73766410","name":"Perzendorf","lat":48.3709726,"lon":16.0699181,"type":"village"},{"id":"73936237","name":"Sittendorf","lat":48.0757208,"lon":16.1630822,"type":"village"},{"id":"73989307","name":"Sulz im Wienerwald","lat":48.1007189,"lon":16.1374028,"type":"village"},{"id":"75625331","name":"Mauerbach","lat":48.2462043,"lon":16.1660014,"type":"village"},{"id":"75661728","name":"Taiskirchen im Innkreis","lat":48.2635327,"lon":13.5746936,"type":"village"},{"id":"75680891","name":"Scharnitz","lat":47.3902687,"lon":11.2647993,"type":"village"},{"id":"76472938","name":"Telfs","lat":47.3046511,"lon":11.071515,"type":"town"},{"id":"76472939","name":"Pfaffenhofen","lat":47.2987869,"lon":11.0830431,"type":"village"},{"id":"76472940","name":"Hatting","lat":47.2784838,"lon":11.1676831,"type":"village"},{"id":"78522069","name":"Lutzmannsburg","lat":47.4637739,"lon":16.6402144,"type":"village"},{"id":"78526175","name":"Rafings","lat":48.775182,"lon":15.2985443,"type":"village"},{"id":"78526780","name":"Kroatisch Geresdorf/Gerištof","lat":47.4909895,"lon":16.6108701,"type":"village"},{"id":"78547288","name":"Nebersdorf/Šuševo","lat":47.5142934,"lon":16.5678493,"type":"village"},{"id":"78550427","name":"Meires","lat":48.7782398,"lon":15.2879975,"type":"village"},{"id":"78552442","name":"Kottschallings","lat":48.7819415,"lon":15.2814455,"type":"village"},{"id":"79809262","name":"Tallesbrunn","lat":48.3612064,"lon":16.7857895,"type":"village"},{"id":"79813315","name":"Ebenthal","lat":48.4372037,"lon":16.7862432,"type":"village"},{"id":"79828863","name":"Baumgarten an der March","lat":48.3072387,"lon":16.8712831,"type":"village"},{"id":"79977566","name":"Landeck","lat":47.1424135,"lon":10.5704571,"type":"town"},{"id":"79994020","name":"Dornbirn","lat":47.4136351,"lon":9.7423762,"type":"town"},{"id":"82476729","name":"Leopoldsdorf im Marchfeld","lat":48.2254999,"lon":16.69066,"type":"village"},{"id":"82478537","name":"Schönfeld im Marchfeld","lat":48.2655674,"lon":16.8034986,"type":"village"},{"id":"82478748","name":"Lassee","lat":48.2256655,"lon":16.8211797,"type":"village"},{"id":"82479359","name":"Engelhartstetten","lat":48.1811534,"lon":16.8837453,"type":"village"},{"id":"82491520","name":"Krenngraben","lat":47.8261786,"lon":14.7576839,"type":"village"},{"id":"82499752","name":"Haag","lat":48.1118898,"lon":14.5660884,"type":"town"},{"id":"82521380","name":"Mittersill","lat":47.2815157,"lon":12.4837012,"type":"town"},{"id":"82521986","name":"Krimml","lat":47.2219102,"lon":12.1754599,"type":"village"},{"id":"82747807","name":"Unterwart/Alsóőr","lat":47.2596082,"lon":16.2331055,"type":"village"},{"id":"82747879","name":"Pinkafeld","lat":47.37254,"lon":16.1234157,"type":"town"},{"id":"82747944","name":"Pinkafeld Nord","lat":47.3920846,"lon":16.1102001,"type":"village"},{"id":"82763769","name":"Sinnersdorf","lat":47.4007097,"lon":16.1017615,"type":"village"},{"id":"83615837","name":"Seitzersdorf-Wolfpassing","lat":48.412,"lon":16.094,"type":"village"},{"id":"83618264","name":"Pettendorf","lat":48.40493,"lon":16.0594096,"type":"village"},{"id":"83642430","name":"Breitstetten","lat":48.1948711,"lon":16.7102678,"type":"village"},{"id":"83644057","name":"Franzensdorf","lat":48.1904957,"lon":16.6435001,"type":"village"},{"id":"83646091","name":"Wittau","lat":48.1817633,"lon":16.5982699,"type":"village"},{"id":"85768192","name":"Vasoldsberg","lat":47.0136807,"lon":15.55514,"type":"village"},{"id":"85922192","name":"Gratkorn","lat":47.1326223,"lon":15.3390907,"type":"village"},{"id":"86040177","name":"Dörfla","lat":47.0042427,"lon":15.4823104,"type":"village"},{"id":"86752391","name":"Heinreichs","lat":48.5719379,"lon":14.9447437,"type":"village"},{"id":"86752616","name":"Eulenbach","lat":48.7827261,"lon":15.15217,"type":"village"},{"id":"86757952","name":"Thaua","lat":48.7176729,"lon":15.331634,"type":"village"},{"id":"86760308","name":"Blumau an der Wild","lat":48.7596333,"lon":15.4521101,"type":"village"},{"id":"86766283","name":"Grafenberg","lat":48.631625,"lon":15.850643,"type":"village"},{"id":"86767131","name":"Limberg","lat":48.5941431,"lon":15.8626998,"type":"village"},{"id":"86767341","name":"Niederschleinz","lat":48.5939755,"lon":15.88946,"type":"village"},{"id":"86767517","name":"Oberdürnbach","lat":48.5871202,"lon":15.8481711,"type":"village"},{"id":"87079818","name":"Poysdorf","lat":48.6678922,"lon":16.6291796,"type":"town"},{"id":"87085344","name":"Walchsee","lat":47.6512311,"lon":12.3186415,"type":"village"},{"id":"87680847","name":"Matzen","lat":48.400566,"lon":16.6941675,"type":"village"},{"id":"88113940","name":"Hartkirchen","lat":48.3623242,"lon":14.0030662,"type":"village"},{"id":"88151794","name":"Oberweiden","lat":48.3069619,"lon":16.8293716,"type":"village"},{"id":"88152732","name":"Eckartsau","lat":48.1459812,"lon":16.7966149,"type":"village"},{"id":"88152768","name":"Pframa","lat":48.1642726,"lon":16.7821856,"type":"village"},{"id":"88153013","name":"Kopfstetten","lat":48.1667289,"lon":16.8116557,"type":"village"},{"id":"88153204","name":"Wagram an der Donau","lat":48.1631594,"lon":16.753127,"type":"village"},{"id":"88153605","name":"Witzelsdorf","lat":48.1505925,"lon":16.8354124,"type":"village"},{"id":"88153640","name":"Loimersdorf","lat":48.1742975,"lon":16.8459282,"type":"village"},{"id":"88153968","name":"Stopfenreuth","lat":48.1480367,"lon":16.8821128,"type":"village"},{"id":"88154682","name":"Groißenbrunn","lat":48.2223664,"lon":16.904647,"type":"village"},{"id":"88155031","name":"Markthof","lat":48.1931287,"lon":16.9588001,"type":"village"},{"id":"88155587","name":"Obersiebenbrunn","lat":48.2651844,"lon":16.7086736,"type":"village"},{"id":"88157267","name":"Niedersulz","lat":48.4859813,"lon":16.6789209,"type":"village"},{"id":"88157588","name":"Erdpreß","lat":48.4785448,"lon":16.7107045,"type":"village"},{"id":"88157797","name":"Klein-Harras","lat":48.4597432,"lon":16.6289536,"type":"village"},{"id":"88157815","name":"Martinsdorf","lat":48.4709169,"lon":16.6362937,"type":"village"},{"id":"88158604","name":"Schrick","lat":48.5109619,"lon":16.6206496,"type":"village"},{"id":"88159407","name":"Bullendorf","lat":48.5948152,"lon":16.6663331,"type":"village"},{"id":"88173301","name":"Ebersdorf an der Zaya","lat":48.6028165,"lon":16.6934672,"type":"village"},{"id":"88183157","name":"Stollhof","lat":47.8306037,"lon":16.0694548,"type":"village"},{"id":"88183213","name":"Gaaden","lat":47.8296609,"lon":16.0857361,"type":"village"},{"id":"88853538","name":"Dörfles","lat":48.3547084,"lon":16.7546526,"type":"village"},{"id":"88924584","name":"Riedau","lat":48.3007377,"lon":13.6353662,"type":"village"},{"id":"88942045","name":"Altheim","lat":48.250022,"lon":13.2320404,"type":"town"},{"id":"88961904","name":"Grieskirchen","lat":48.235011,"lon":13.826192,"type":"town"},{"id":"88975440","name":"Tumeltsham","lat":48.2315195,"lon":13.4974623,"type":"village"},{"id":"88977479","name":"Andrichsfurt","lat":48.2645344,"lon":13.5256817,"type":"village"},{"id":"89199740","name":"Ebensee am Traunsee","lat":47.8122366,"lon":13.7741666,"type":"village"},{"id":"89199745","name":"Traunkirchen","lat":47.8448255,"lon":13.7902844,"type":"village"},{"id":"89435113","name":"Loretto","lat":47.9155019,"lon":16.517984,"type":"village"},{"id":"89460173","name":"Stotzing","lat":47.9069163,"lon":16.5464748,"type":"village"},{"id":"89460836","name":"Leithaprodersdorf","lat":47.9352674,"lon":16.4794263,"type":"village"},{"id":"89462688","name":"Unterwaltersdorf","lat":47.9603983,"lon":16.4307798,"type":"village"},{"id":"90243231","name":"Freiland","lat":47.9766266,"lon":15.5691846,"type":"village"},{"id":"91175924","name":"Velm-Götzendorf","lat":48.4698035,"lon":16.7855794,"type":"village"},{"id":"91176074","name":"Spannberg","lat":48.4647761,"lon":16.7390131,"type":"village"},{"id":"91178114","name":"Loidesthal","lat":48.4995737,"lon":16.7411407,"type":"village"},{"id":"91262462","name":"Ranggen","lat":47.2576977,"lon":11.211065,"type":"village"},{"id":"92630625","name":"Muckendorf an der Donau","lat":48.3328827,"lon":16.1553877,"type":"village"},{"id":"92631038","name":"Wördern","lat":48.3350718,"lon":16.2039284,"type":"village"},{"id":"93515942","name":"Birgitz","lat":47.235717,"lon":11.2999641,"type":"village"},{"id":"94673388","name":"Strass im Zillertal","lat":47.3959023,"lon":11.8228282,"type":"village"},{"id":"94673549","name":"Wiesing","lat":47.4046346,"lon":11.7985577,"type":"village"},{"id":"94674576","name":"Münster","lat":47.4207732,"lon":11.8330474,"type":"village"},{"id":"94676414","name":"Kramsach","lat":47.4450519,"lon":11.8808259,"type":"village"},{"id":"94676798","name":"Rattenberg","lat":47.4398841,"lon":11.8941106,"type":"town"},{"id":"94677201","name":"Radfeld","lat":47.4464064,"lon":11.907867,"type":"village"},{"id":"94678772","name":"Schönau","lat":47.5081239,"lon":11.9942451,"type":"village"},{"id":"95467937","name":"Ybbs an der Donau","lat":48.1772445,"lon":15.0852856,"type":"town"},{"id":"95481945","name":"Weins","lat":48.1997916,"lon":15.0299215,"type":"village"},{"id":"98021423","name":"Großmugl","lat":48.4976829,"lon":16.2303134,"type":"village"},{"id":"99752949","name":"Übersaxen","lat":47.2539343,"lon":9.6711154,"type":"village"},{"id":"100325036","name":"Kasten","lat":46.9361345,"lon":15.4467114,"type":"village"},{"id":"100786488","name":"Aspersdorf","lat":48.5876738,"lon":16.0967529,"type":"village"},{"id":"100787179","name":"Schöngrabern","lat":48.6018577,"lon":16.0646855,"type":"village"},{"id":"100788104","name":"Sonnberg","lat":48.5415265,"lon":16.0560272,"type":"village"},{"id":"100788383","name":"Breitenwaida","lat":48.5142689,"lon":16.0704206,"type":"village"},{"id":"100789099","name":"Wischathal","lat":48.4837164,"lon":16.0792295,"type":"village"},{"id":"100794574","name":"Obermallebarn","lat":48.4628013,"lon":16.1554878,"type":"village"},{"id":"100794740","name":"Untermallebarn","lat":48.460148,"lon":16.1716799,"type":"village"},{"id":"100794978","name":"Höbersdorf","lat":48.449021,"lon":16.1759292,"type":"village"},{"id":"100795516","name":"Oberhautzental","lat":48.4418996,"lon":16.1291547,"type":"village"},{"id":"100795781","name":"Oberolberndorf","lat":48.4101323,"lon":16.1625964,"type":"village"},{"id":"100795999","name":"Zissersdorf","lat":48.401311,"lon":16.1401152,"type":"village"},{"id":"100798472","name":"Untergrub","lat":48.4899074,"lon":16.1752803,"type":"village"},{"id":"100798685","name":"Ringendorf","lat":48.5000069,"lon":16.1956882,"type":"village"},{"id":"100798851","name":"Obergrub","lat":48.5005606,"lon":16.1777395,"type":"village"},{"id":"100798936","name":"Viendorf","lat":48.4839905,"lon":16.1392338,"type":"village"},{"id":"100800569","name":"Bergau","lat":48.5136852,"lon":16.1634897,"type":"village"},{"id":"100800652","name":"Porrau","lat":48.5306068,"lon":16.1636344,"type":"village"},{"id":"100800838","name":"Füllersdorf","lat":48.5251906,"lon":16.1983615,"type":"village"},{"id":"100800975","name":"Steinabrunn","lat":48.51215,"lon":16.2109687,"type":"village"},{"id":"100800995","name":"Herzogbirbaum","lat":48.5186879,"lon":16.2509055,"type":"village"},{"id":"108115298","name":"Untereching","lat":47.9750526,"lon":12.8823927,"type":"village"},{"id":"108214873","name":"Leogang","lat":47.4386347,"lon":12.759888,"type":"village"},{"id":"111083617","name":"Dürnstein","lat":48.3953879,"lon":15.5203111,"type":"village"},{"id":"111088414","name":"Straudorf","lat":48.1825219,"lon":16.7401384,"type":"village"},{"id":"111088596","name":"Haringsee","lat":48.1933853,"lon":16.7841394,"type":"village"},{"id":"111090039","name":"Breitensee","lat":48.2432702,"lon":16.8790926,"type":"village"},{"id":"111090831","name":"Untersiebenbrunn","lat":48.2570006,"lon":16.7430567,"type":"village"},{"id":"111098182","name":"Stripfing","lat":48.3407655,"lon":16.798419,"type":"village"},{"id":"111101452","name":"Raggendorf","lat":48.3945739,"lon":16.6577348,"type":"village"},{"id":"111102118","name":"Obersulz","lat":48.5023894,"lon":16.6742341,"type":"village"},{"id":"111104101","name":"Eibesthal","lat":48.5974529,"lon":16.6055559,"type":"village"},{"id":"111104445","name":"Siebenhirten","lat":48.6076655,"lon":16.5392865,"type":"village"},{"id":"111104834","name":"Hörersdorf","lat":48.6258192,"lon":16.5167839,"type":"village"},{"id":"111105332","name":"Asparn an der Zaya","lat":48.5860906,"lon":16.4970589,"type":"village"},{"id":"111107265","name":"Schrattenberg","lat":48.7244384,"lon":16.7221202,"type":"village"},{"id":"111107579","name":"Katzelsdorf","lat":48.6995032,"lon":16.784031,"type":"village"},{"id":"111110587","name":"Poysbrunn","lat":48.7195345,"lon":16.6287778,"type":"village"},{"id":"111111934","name":"Großharras","lat":48.6636581,"lon":16.2470337,"type":"village"},{"id":"111112450","name":"Mailberg","lat":48.6730424,"lon":16.1841711,"type":"village"},{"id":"111128861","name":"Engelsdorf","lat":48.6596107,"lon":15.7913361,"type":"village"},{"id":"111129114","name":"Kühnring","lat":48.6339302,"lon":15.7825196,"type":"village"},{"id":"111129432","name":"Zogelsdorf","lat":48.6188299,"lon":15.8141819,"type":"village"},{"id":"111240118","name":"Großnondorf","lat":48.4741706,"lon":15.2671072,"type":"village"},{"id":"111241061","name":"Moniholz","lat":48.502405,"lon":15.3058793,"type":"village"},{"id":"111242138","name":"Allentsgschwendt","lat":48.5002516,"lon":15.3417988,"type":"village"},{"id":"114275366","name":"Adnet","lat":47.6963575,"lon":13.1307565,"type":"village"},{"id":"115868300","name":"Gaißau","lat":47.711522,"lon":13.1952775,"type":"village"},{"id":"117030589","name":"Glaubendorf","lat":48.5090018,"lon":15.9407654,"type":"village"},{"id":"117031685","name":"Radlbrunn","lat":48.5109748,"lon":15.9102861,"type":"village"},{"id":"117033857","name":"Großriedenthal","lat":48.4843669,"lon":15.8673467,"type":"village"},{"id":"117034406","name":"Neudegg","lat":48.4875182,"lon":15.8844666,"type":"village"},{"id":"117035093","name":"Ottenthal","lat":48.4669364,"lon":15.8968945,"type":"village"},{"id":"117039632","name":"Baumgarten am Wagram","lat":48.4835973,"lon":15.9562481,"type":"village"},{"id":"117039753","name":"Rohrbach","lat":48.5177552,"lon":15.9603511,"type":"village"},{"id":"117040455","name":"Großwetzdorf","lat":48.5015651,"lon":15.9598765,"type":"village"},{"id":"117040676","name":"Unterthern","lat":48.507938,"lon":15.9987373,"type":"village"},{"id":"117040986","name":"Oberthern","lat":48.5148749,"lon":16.0088986,"type":"village"},{"id":"117043496","name":"Oberrußbach","lat":48.4754744,"lon":16.0490674,"type":"village"},{"id":"117043794","name":"Puch","lat":48.4983288,"lon":16.0426279,"type":"village"},{"id":"117044339","name":"Wolfsbrunn","lat":48.5424223,"lon":16.0309296,"type":"village"},{"id":"117056036","name":"Streitdorf","lat":48.4636633,"lon":16.2701087,"type":"village"},{"id":"117078995","name":"Senning","lat":48.4544268,"lon":16.2146372,"type":"village"},{"id":"117079397","name":"Hatzenbach","lat":48.4291275,"lon":16.2158598,"type":"village"},{"id":"117138426","name":"Oberfellabrunn","lat":48.558209,"lon":16.0158168,"type":"village"},{"id":"117144189","name":"Fahndorf","lat":48.5501081,"lon":15.9658853,"type":"village"},{"id":"117146623","name":"Gaindorf","lat":48.5531378,"lon":15.8696921,"type":"village"},{"id":"117148505","name":"Minichhofen","lat":48.5587607,"lon":15.9030438,"type":"village"},{"id":"117148810","name":"Kiblitz","lat":48.5385353,"lon":15.9815499,"type":"village"},{"id":"117153026","name":"Grund","lat":48.6292459,"lon":16.0636515,"type":"village"},{"id":"117605493","name":"Ebersbrunn","lat":48.515035,"lon":15.8588801,"type":"village"},{"id":"117606784","name":"Pfaffstetten","lat":48.529419,"lon":15.848833,"type":"village"},{"id":"117606826","name":"Hohenwarth","lat":48.5063862,"lon":15.8275736,"type":"village"},{"id":"117610407","name":"Mühlbach am Manhartsberg","lat":48.5176159,"lon":15.7890126,"type":"village"},{"id":"117611140","name":"Zemling","lat":48.5297942,"lon":15.7911322,"type":"village"},{"id":"117612250","name":"Grübern","lat":48.5521848,"lon":15.8001375,"type":"village"},{"id":"117613079","name":"Eggendorf am Walde","lat":48.5432112,"lon":15.7846489,"type":"village"},{"id":"117616107","name":"Burgschleinitz","lat":48.6070016,"lon":15.8143524,"type":"village"},{"id":"117617536","name":"Straning","lat":48.6102966,"lon":15.8647193,"type":"village"},{"id":"117622149","name":"Watzelsdorf","lat":48.6972669,"lon":15.984823,"type":"village"},{"id":"117636828","name":"Zellerndorf","lat":48.6961487,"lon":15.9583751,"type":"village"},{"id":"117640933","name":"Haugsdorf","lat":48.7076263,"lon":16.0770862,"type":"village"},{"id":"117642044","name":"Hadres","lat":48.7099716,"lon":16.1310288,"type":"village"},{"id":"117642461","name":"Seefeld","lat":48.7167956,"lon":16.1754518,"type":"village"},{"id":"117645212","name":"Unterretzbach","lat":48.7660054,"lon":16.0024953,"type":"village"},{"id":"117659949","name":"Kollersdorf","lat":48.4082493,"lon":15.8507503,"type":"village"},{"id":"117681143","name":"Ruppersthal","lat":48.466594,"lon":15.9453282,"type":"village"},{"id":"119462818","name":"Hippersdorf","lat":48.4212571,"lon":15.9644454,"type":"village"},{"id":"119463899","name":"Oberstockstall","lat":48.4425186,"lon":15.9084499,"type":"village"},{"id":"119670088","name":"Tiefenthal","lat":48.4379973,"lon":16.0001827,"type":"village"},{"id":"119675101","name":"Dippersdorf","lat":48.525065,"lon":15.9436126,"type":"village"},{"id":"119676716","name":"Groß","lat":48.5722628,"lon":15.9884298,"type":"village"},{"id":"119677593","name":"Mittergrabern","lat":48.6175093,"lon":16.0163309,"type":"village"},{"id":"119687269","name":"Reinprechtspölla","lat":48.6121589,"lon":15.7595858,"type":"village"},{"id":"119689622","name":"Stockern","lat":48.6538284,"lon":15.7364296,"type":"village"},{"id":"119693825","name":"Rodingersdorf","lat":48.6870034,"lon":15.7204769,"type":"village"},{"id":"119694737","name":"Posselsdorf","lat":48.7338649,"lon":15.6610026,"type":"village"},{"id":"119698928","name":"Raisdorf","lat":48.7471705,"lon":15.633024,"type":"village"},{"id":"119701231","name":"Brunn an der Wild","lat":48.6940456,"lon":15.5200816,"type":"village"},{"id":"119707827","name":"Dobersberg","lat":48.9162587,"lon":15.3209854,"type":"village"},{"id":"119708333","name":"Eggern","lat":48.9081829,"lon":15.1489073,"type":"village"},{"id":"119716082","name":"Reingers","lat":48.9660148,"lon":15.1484689,"type":"village"},{"id":"119728643","name":"Göpfritzschlag","lat":48.8916222,"lon":15.3600632,"type":"village"},{"id":"119753165","name":"Goggendorf","lat":48.619234,"lon":15.9367216,"type":"village"},{"id":"119753979","name":"Braunsdorf","lat":48.6363572,"lon":15.936458,"type":"village"},{"id":"119754881","name":"Roseldorf","lat":48.6454797,"lon":15.9294101,"type":"village"},{"id":"119755999","name":"Stoitzendorf","lat":48.6472083,"lon":15.8657898,"type":"village"},{"id":"119756517","name":"Röschitz","lat":48.6661866,"lon":15.8859882,"type":"village"},{"id":"119757009","name":"Gauderndorf","lat":48.6597507,"lon":15.8227003,"type":"village"},{"id":"119759840","name":"Pulkau","lat":48.7048968,"lon":15.8609985,"type":"town"},{"id":"119767395","name":"Platt","lat":48.6728988,"lon":15.9630187,"type":"village"},{"id":"119776640","name":"Wullersdorf","lat":48.6274252,"lon":16.1013122,"type":"village"},{"id":"119777005","name":"Immendorf","lat":48.6464482,"lon":16.1277129,"type":"village"},{"id":"119777594","name":"Schalladorf","lat":48.6376009,"lon":16.1481004,"type":"village"},{"id":"119777895","name":"Oberstinkenbrunn","lat":48.6297813,"lon":16.1658318,"type":"village"},{"id":"119777905","name":"Nappersdorf","lat":48.6279251,"lon":16.1879651,"type":"village"},{"id":"119781724","name":"Maria Roggendorf","lat":48.6185579,"lon":16.1371209,"type":"village"},{"id":"119791196","name":"Röhrabrunn","lat":48.6132798,"lon":16.3395375,"type":"village"},{"id":"119791661","name":"Eichenbrunn","lat":48.620534,"lon":16.3563635,"type":"village"},{"id":"119796453","name":"Gnadendorf","lat":48.6151094,"lon":16.3975971,"type":"village"},{"id":"119802189","name":"Hanfthal","lat":48.7009434,"lon":16.3637377,"type":"village"},{"id":"119809036","name":"Kleinbaumgarten","lat":48.6654522,"lon":16.3754378,"type":"village"},{"id":"120099061","name":"Oberalm","lat":47.7002276,"lon":13.0988894,"type":"village"},{"id":"120099065","name":"Puch bei Hallein","lat":47.716852,"lon":13.0904526,"type":"village"},{"id":"120127342","name":"Kuchl","lat":47.6258369,"lon":13.1451024,"type":"village"},{"id":"122208449","name":"Klein-Mariazell","lat":48.0371476,"lon":15.9738225,"type":"village"},{"id":"122454042","name":"Unterparschenbrunn","lat":48.4568134,"lon":16.1068689,"type":"village"},{"id":"122459431","name":"Pranhartsberg","lat":48.5976942,"lon":15.9818598,"type":"village"},{"id":"122467069","name":"Eggendorf im Thale","lat":48.5809538,"lon":16.1724735,"type":"village"},{"id":"122467446","name":"Kleinstetteldorf","lat":48.5854033,"lon":16.1458503,"type":"village"},{"id":"122470205","name":"Klement","lat":48.5710967,"lon":16.3674454,"type":"village"},{"id":"123427889","name":"Burgerwiesen","lat":48.65057,"lon":15.6175943,"type":"village"},{"id":"123428694","name":"Altenburg","lat":48.6479626,"lon":15.5933893,"type":"village"},{"id":"123429161","name":"Fuglau","lat":48.646598,"lon":15.5487609,"type":"village"},{"id":"123432053","name":"Waschbach","lat":48.8084554,"lon":15.84693,"type":"village"},{"id":"123432704","name":"Niederfladnitz","lat":48.796262,"lon":15.8957086,"type":"village"},{"id":"123432942","name":"Hofern","lat":48.7778971,"lon":15.9025122,"type":"village"},{"id":"123445159","name":"Kleedorf","lat":48.5055563,"lon":16.0565944,"type":"village"},{"id":"123446938","name":"Stranzendorf","lat":48.4523442,"lon":16.0808598,"type":"village"},{"id":"123447321","name":"Oberparschenbrunn","lat":48.4739144,"lon":16.0936567,"type":"village"},{"id":"123477629","name":"Kleinwiesendorf","lat":48.4504324,"lon":15.9922673,"type":"village"},{"id":"123478747","name":"Großwiesendorf","lat":48.4477457,"lon":15.9863948,"type":"village"},{"id":"123481224","name":"Stettenhof","lat":48.4848124,"lon":15.8055508,"type":"village"},{"id":"123481769","name":"Ronthal","lat":48.5019879,"lon":15.7965916,"type":"village"},{"id":"123485406","name":"Wilhelmsdorf","lat":48.5568591,"lon":15.8087908,"type":"village"},{"id":"123486929","name":"Frauenhofen","lat":48.673215,"lon":15.6288214,"type":"village"},{"id":"123487821","name":"Sankt Bernhard","lat":48.6834031,"lon":15.5952593,"type":"village"},{"id":"123488963","name":"Neupölla","lat":48.6427421,"lon":15.4472668,"type":"village"},{"id":"123489680","name":"Altpölla","lat":48.6229116,"lon":15.472318,"type":"village"},{"id":"123491848","name":"Sankt Marein","lat":48.6837407,"lon":15.4982643,"type":"village"},{"id":"123492214","name":"Dappach","lat":48.6913606,"lon":15.506798,"type":"village"},{"id":"123492902","name":"Atzelsdorf","lat":48.6994951,"lon":15.4814042,"type":"village"},{"id":"123493959","name":"Rothweinsdorf","lat":48.7260702,"lon":15.4939878,"type":"village"},{"id":"123502651","name":"Riegersburg","lat":48.8542518,"lon":15.7702026,"type":"village"},{"id":"123503267","name":"Felling","lat":48.8654645,"lon":15.7984249,"type":"village"},{"id":"123508764","name":"Hardegg","lat":48.8536837,"lon":15.8585681,"type":"village"},{"id":"123513857","name":"Merkersdorf","lat":48.8299913,"lon":15.8726068,"type":"village"},{"id":"123515966","name":"Oberretzbach","lat":48.7843842,"lon":15.9686113,"type":"village"},{"id":"123531953","name":"Raabs an der Thaya","lat":48.8474094,"lon":15.4934343,"type":"town"},{"id":"123709636","name":"Einersdorf/Nonča vas","lat":46.6008219,"lon":14.796244,"type":"village"},{"id":"123709791","name":"Moos/Blato","lat":46.5977552,"lon":14.7691215,"type":"village"},{"id":"123711787","name":"Ruden","lat":46.6588855,"lon":14.7722897,"type":"village"},{"id":"123717658","name":"Suttenbrunn","lat":48.5845886,"lon":16.0670664,"type":"village"},{"id":"123720714","name":"Afritz am See","lat":46.7262172,"lon":13.7966273,"type":"village"},{"id":"123720901","name":"Haslach","lat":48.6065359,"lon":16.1937381,"type":"village"},{"id":"123720921","name":"Hart","lat":48.6062499,"lon":16.1550659,"type":"village"},{"id":"123720940","name":"Arriach","lat":46.7301731,"lon":13.8507319,"type":"village"},{"id":"123722493","name":"Hetzmannsdorf","lat":48.6109312,"lon":16.0947981,"type":"village"},{"id":"123723319","name":"Dürnleis","lat":48.6298089,"lon":16.2217801,"type":"village"},{"id":"123723864","name":"Kammersdorf","lat":48.629237,"lon":16.239091,"type":"village"},{"id":"123724387","name":"Patzmannsdorf","lat":48.6375912,"lon":16.2806089,"type":"village"},{"id":"123724420","name":"Stronsdorf","lat":48.6513414,"lon":16.2972212,"type":"village"},{"id":"123725209","name":"Unterstinkenbrunn","lat":48.6667409,"lon":16.3456622,"type":"village"},{"id":"123725955","name":"Patzenthal","lat":48.6199651,"lon":16.2680852,"type":"village"},{"id":"123726296","name":"Unterschoderlee","lat":48.6543465,"lon":16.3230563,"type":"village"},{"id":"123726484","name":"Oberschoderlee","lat":48.6472486,"lon":16.3326348,"type":"village"},{"id":"123813174","name":"Biberschlag","lat":48.441837,"lon":15.157021,"type":"village"},{"id":"123821563","name":"Voitschlag","lat":48.4823093,"lon":15.2279103,"type":"village"},{"id":"123846666","name":"Großgöttfritz","lat":48.5385247,"lon":15.1899397,"type":"village"},{"id":"123854709","name":"Rohrenreith","lat":48.5569646,"lon":15.2017911,"type":"village"},{"id":"123956950","name":"Koblhof","lat":48.5913608,"lon":15.18366,"type":"village"},{"id":"123984377","name":"Wiesen","lat":48.4030624,"lon":16.258337,"type":"village"},{"id":"123985545","name":"Unterrohrbach","lat":48.3858286,"lon":16.2790864,"type":"village"},{"id":"123986123","name":"Spillern","lat":48.3776046,"lon":16.2606615,"type":"village"},{"id":"123987089","name":"Oberrohrbach","lat":48.3968856,"lon":16.2956934,"type":"village"},{"id":"123987230","name":"Kleinwilfersdorf","lat":48.4042584,"lon":16.2814379,"type":"village"},{"id":"123987819","name":"Geitzendorf","lat":48.477308,"lon":16.2069324,"type":"village"},{"id":"123988277","name":"Roseldorf","lat":48.4787669,"lon":16.2405689,"type":"village"},{"id":"123988983","name":"Merkersdorf","lat":48.5345243,"lon":16.3029913,"type":"village"},{"id":"123989895","name":"Nursch","lat":48.5288771,"lon":16.2750925,"type":"village"},{"id":"123992904","name":"Hipples","lat":48.5028,"lon":16.4125146,"type":"village"},{"id":"124055097","name":"Scharndorf","lat":48.0939365,"lon":16.7962338,"type":"village"},{"id":"124057561","name":"Schönabrunn","lat":48.0759062,"lon":16.9131719,"type":"village"},{"id":"124057593","name":"Prellenkirchen","lat":48.0750792,"lon":16.953124,"type":"village"},{"id":"125572645","name":"Werschenschlag","lat":48.5610491,"lon":15.3109487,"type":"village"},{"id":"125580887","name":"Wiesenreith","lat":48.540449,"lon":15.2860335,"type":"village"},{"id":"125582475","name":"Niedernondorf","lat":48.5486194,"lon":15.2736874,"type":"village"},{"id":"125584003","name":"Loschberg","lat":48.5280567,"lon":15.2831282,"type":"village"},{"id":"125585165","name":"Sprögnitz","lat":48.5421616,"lon":15.2324191,"type":"village"},{"id":"125615796","name":"Marbach im Felde","lat":48.5450538,"lon":15.3489738,"type":"village"},{"id":"125619326","name":"Obergrünbach","lat":48.5189475,"lon":15.3666575,"type":"village"},{"id":"126437271","name":"Neustift im Felde","lat":48.4077747,"lon":15.8879539,"type":"village"},{"id":"126451754","name":"Sittendorf","lat":48.4386107,"lon":15.7343581,"type":"village"},{"id":"126454735","name":"Engabrunn","lat":48.4489691,"lon":15.7576389,"type":"village"},{"id":"126459119","name":"Kammern","lat":48.4684641,"lon":15.7120507,"type":"village"},{"id":"126460251","name":"Schönberg am Kamp","lat":48.5199338,"lon":15.6964473,"type":"village"},{"id":"126460646","name":"Gars am Kamp","lat":48.5951053,"lon":15.6594592,"type":"town"},{"id":"128209317","name":"Würnsdorf","lat":48.3159083,"lon":15.1728494,"type":"village"},{"id":"129522618","name":"Frauendorf an der Au","lat":48.3923087,"lon":15.9211371,"type":"village"},{"id":"129611410","name":"Mitterstockstall","lat":48.4355071,"lon":15.9152833,"type":"village"},{"id":"129683466","name":"Kamp","lat":48.4226408,"lon":15.7478977,"type":"village"},{"id":"129683499","name":"Haitzendorf","lat":48.4243676,"lon":15.7393334,"type":"village"},{"id":"129693105","name":"Wiedendorf","lat":48.4968329,"lon":15.760908,"type":"village"},{"id":"129693586","name":"Bösendürnbach","lat":48.5074574,"lon":15.7669859,"type":"village"},{"id":"129711233","name":"Baierdorf","lat":48.5446558,"lon":15.8141834,"type":"village"},{"id":"129711558","name":"Oberravelsbach","lat":48.5466767,"lon":15.8307051,"type":"village"},{"id":"129714617","name":"Amelsdorf","lat":48.5903609,"lon":15.780428,"type":"village"},{"id":"129714966","name":"Sachsendorf","lat":48.5878828,"lon":15.7625852,"type":"village"},{"id":"129715339","name":"Buttendorf","lat":48.5879811,"lon":15.7428728,"type":"village"},{"id":"129717766","name":"Kotzendorf","lat":48.591535,"lon":15.7127119,"type":"village"},{"id":"130048458","name":"Großstelzendorf","lat":48.505365,"lon":16.1062683,"type":"village"},{"id":"130119313","name":"Gerotten","lat":48.6367881,"lon":15.1802447,"type":"village"},{"id":"130120688","name":"Kaltenbach","lat":48.7453419,"lon":15.1821176,"type":"village"},{"id":"130121509","name":"Hörmanns","lat":48.678181,"lon":15.219376,"type":"village"},{"id":"130196276","name":"Neustift","lat":48.5085435,"lon":15.0466963,"type":"village"},{"id":"130244817","name":"Moorbad Harbach","lat":48.7084116,"lon":14.7924684,"type":"village"},{"id":"130295442","name":"Arbesthal","lat":48.0663353,"lon":16.7069205,"type":"village"},{"id":"137516393","name":"Petzenkirchen","lat":48.1462647,"lon":15.1558918,"type":"village"},{"id":"139111023","name":"Dietersdorf","lat":48.530385,"lon":16.058455,"type":"village"},{"id":"139738932","name":"Großnondorf","lat":48.6341623,"lon":15.9848377,"type":"village"},{"id":"139770023","name":"Kleinstelzendorf","lat":48.5700271,"lon":15.9793802,"type":"village"},{"id":"145820227","name":"Kleinwetzdorf","lat":48.5002804,"lon":15.9491531,"type":"village"},{"id":"146477944","name":"Grafenwörth","lat":48.408553,"lon":15.7777049,"type":"village"},{"id":"146479174","name":"Jettsdorf","lat":48.4060993,"lon":15.7566733,"type":"village"},{"id":"146491555","name":"Engelmannsbrunn","lat":48.4405287,"lon":15.8735718,"type":"village"},{"id":"148357541","name":"Traismauer","lat":48.3499106,"lon":15.7441868,"type":"town"},{"id":"148359984","name":"Ahrenberg","lat":48.3301507,"lon":15.797655,"type":"village"},{"id":"148360269","name":"Gemeinlebarn","lat":48.3382554,"lon":15.8048443,"type":"village"},{"id":"148360788","name":"Oberbierbaum","lat":48.342293,"lon":15.8370774,"type":"village"},{"id":"148361114","name":"Kaindorf","lat":48.3426151,"lon":15.8553685,"type":"village"},{"id":"148362219","name":"Trasdorf","lat":48.3130443,"lon":15.8793421,"type":"village"},{"id":"148363962","name":"Atzenbrugg","lat":48.2914285,"lon":15.9059084,"type":"village"},{"id":"148366360","name":"Streithofen","lat":48.2761271,"lon":15.9399585,"type":"village"},{"id":"148366733","name":"Plankenberg","lat":48.2654616,"lon":15.94598,"type":"village"},{"id":"148367091","name":"Dietersdorf","lat":48.2647169,"lon":15.9683756,"type":"village"},{"id":"148380140","name":"Hollenburg","lat":48.3798191,"lon":15.6912005,"type":"village"},{"id":"148380932","name":"Thallern","lat":48.385613,"lon":15.6456825,"type":"village"},{"id":"148389050","name":"Jauring","lat":47.5467881,"lon":15.2519291,"type":"village"},{"id":"148389059","name":"Aflenz Kurort","lat":47.5438784,"lon":15.2386756,"type":"village"},{"id":"148561410","name":"Oberpetersdorf","lat":47.6129382,"lon":16.3770561,"type":"village"},{"id":"148562195","name":"Kobersdorf","lat":47.5967488,"lon":16.3926882,"type":"village"},{"id":"148564561","name":"Landsee","lat":47.5587567,"lon":16.3322612,"type":"village"},{"id":"150541848","name":"Liezen","lat":47.567685,"lon":14.2420508,"type":"town"},{"id":"150544687","name":"Wildungsmauer","lat":48.1097368,"lon":16.8043158,"type":"village"},{"id":"150549079","name":"Göttlesbrunn","lat":48.0601937,"lon":16.7380475,"type":"village"},{"id":"150846959","name":"Lafnitz","lat":47.3700035,"lon":16.0129339,"type":"village"},{"id":"151002848","name":"Inkersdorf","lat":48.4308329,"lon":15.9862923,"type":"village"},{"id":"151005498","name":"Neuaigen","lat":48.363667,"lon":16.0223785,"type":"village"},{"id":"151005808","name":"Starnwörth","lat":48.4052766,"lon":16.0274789,"type":"village"},{"id":"152280805","name":"Neubau","lat":48.498477,"lon":16.5181339,"type":"village"},{"id":"152281760","name":"Atzelsdorf","lat":48.4983521,"lon":16.5528656,"type":"village"},{"id":"152282038","name":"Höbersbrunn","lat":48.5053726,"lon":16.57773,"type":"village"},{"id":"152282517","name":"Paasdorf","lat":48.5428701,"lon":16.5439271,"type":"village"},{"id":"152284770","name":"Lanzendorf","lat":48.5575582,"lon":16.5706778,"type":"village"},{"id":"152285040","name":"Ebendorf","lat":48.5616926,"lon":16.5945339,"type":"village"},{"id":"152285403","name":"Hüttendorf","lat":48.5647457,"lon":16.5434671,"type":"village"},{"id":"152293490","name":"Grafensulz","lat":48.5523663,"lon":16.444369,"type":"village"},{"id":"153631912","name":"Oberzirking","lat":48.2587368,"lon":14.5397281,"type":"village"},{"id":"153632331","name":"Mauthausen","lat":48.2404063,"lon":14.5162667,"type":"village"},{"id":"153632736","name":"Pyburg","lat":48.2275146,"lon":14.52798,"type":"village"},{"id":"153632924","name":"Windpassing","lat":48.2239007,"lon":14.5178659,"type":"village"},{"id":"154608218","name":"Potzneusiedl","lat":48.0448482,"lon":16.9477439,"type":"village"},{"id":"154608241","name":"Deutsch Haslau","lat":48.0483945,"lon":16.94252,"type":"village"},{"id":"154924730","name":"Kaisersteinbruch","lat":47.9881911,"lon":16.7019207,"type":"village"},{"id":"155039506","name":"Haslau an der Donau","lat":48.1169089,"lon":16.7150408,"type":"village"},{"id":"155048875","name":"Wilfleinsdorf","lat":48.0126081,"lon":16.7219763,"type":"village"},{"id":"155061924","name":"Pachfurth","lat":48.0474474,"lon":16.8330515,"type":"village"},{"id":"156979315","name":"Hoheneich","lat":48.7716533,"lon":15.0259648,"type":"village"},{"id":"156985814","name":"Pürbach","lat":48.762888,"lon":15.0903503,"type":"village"},{"id":"157003801","name":"Bernschlag","lat":48.6962766,"lon":15.2647925,"type":"village"},{"id":"157005085","name":"Zwinzen","lat":48.6978834,"lon":15.3012691,"type":"village"},{"id":"158715159","name":"Oberwögern","lat":48.3570669,"lon":14.4430041,"type":"village"},{"id":"158715339","name":"Engerwitzdorf","lat":48.3444529,"lon":14.4420162,"type":"village"},{"id":"158867376","name":"Katsdorf","lat":48.3180508,"lon":14.4728701,"type":"village"},{"id":"158870371","name":"St. Georgen an der Gusen","lat":48.2718132,"lon":14.4485413,"type":"village"},{"id":"159550057","name":"Weinberg","lat":47.9786617,"lon":13.7953146,"type":"village"},{"id":"159684291","name":"Gerhaus","lat":48.0581597,"lon":16.8460643,"type":"village"},{"id":"159699063","name":"Hollern","lat":48.0752562,"lon":16.8941012,"type":"village"},{"id":"161506525","name":"Siegenfeld","lat":48.0378279,"lon":16.1757785,"type":"village"},{"id":"161595880","name":"Sachsendorf","lat":48.4074039,"lon":15.8428008,"type":"village"},{"id":"164315876","name":"Luftenberg","lat":48.2729591,"lon":14.414374,"type":"village"},{"id":"166039374","name":"Mollersdorf","lat":48.3602791,"lon":16.0063566,"type":"village"},{"id":"166044928","name":"Unterzögersdorf","lat":48.3814619,"lon":16.1752576,"type":"village"},{"id":"166045224","name":"Oberzögersdorf","lat":48.3804957,"lon":16.1489473,"type":"village"},{"id":"166045516","name":"Schmida","lat":48.378323,"lon":16.1147728,"type":"village"},{"id":"166126253","name":"Ritterkamp","lat":48.52712,"lon":15.0944751,"type":"village"},{"id":"170442422","name":"Pöls","lat":47.2208788,"lon":14.5861141,"type":"village"},{"id":"170812358","name":"Griffen","lat":46.7038006,"lon":14.7308073,"type":"village"},{"id":"170944665","name":"Sankt Lambrecht","lat":47.072029,"lon":14.2990842,"type":"village"},{"id":"170945866","name":"Adendorf","lat":47.1060122,"lon":14.3839263,"type":"village"},{"id":"170946612","name":"Teufenbach","lat":47.1309885,"lon":14.3598712,"type":"village"},{"id":"170947074","name":"Niederwölz","lat":47.1497565,"lon":14.3739465,"type":"village"},{"id":"170947904","name":"Katsch an der Mur","lat":47.1430432,"lon":14.2822577,"type":"village"},{"id":"170948839","name":"Althofen","lat":47.166067,"lon":14.241882,"type":"village"},{"id":"172900592","name":"Raiming","lat":47.1830668,"lon":14.3171656,"type":"village"},{"id":"172901091","name":"Salchau","lat":47.2196723,"lon":14.293741,"type":"village"},{"id":"172989003","name":"Rafing","lat":48.6958113,"lon":15.8294909,"type":"village"},{"id":"172989691","name":"Missingdorf","lat":48.697142,"lon":15.7995825,"type":"village"},{"id":"173000838","name":"Roggendorf","lat":48.6682218,"lon":15.8465144,"type":"village"},{"id":"173004252","name":"Deinzendorf","lat":48.6956132,"lon":15.9224555,"type":"village"},{"id":"173006894","name":"Obermarkersdorf","lat":48.7399833,"lon":15.8981071,"type":"village"},{"id":"173008847","name":"Waitzendorf","lat":48.7381063,"lon":15.8767499,"type":"village"},{"id":"173010015","name":"Leodagger","lat":48.7209879,"lon":15.8563044,"type":"village"},{"id":"173010278","name":"Obermixnitz","lat":48.7514135,"lon":15.8114687,"type":"village"},{"id":"173010663","name":"Untermixnitz","lat":48.754925,"lon":15.8394456,"type":"village"},{"id":"173011523","name":"Oberfladnitz","lat":48.7787038,"lon":15.8648065,"type":"village"},{"id":"173117302","name":"Windpassing","lat":48.6189354,"lon":16.0417453,"type":"village"},{"id":"173130656","name":"Mödring","lat":48.6921902,"lon":15.6479852,"type":"village"},{"id":"173132686","name":"Oberhöflein","lat":48.8010697,"lon":15.7401552,"type":"village"},{"id":"173133623","name":"Rassingdorf","lat":48.7759415,"lon":15.76283,"type":"village"},{"id":"173134915","name":"Hessendorf","lat":48.8212456,"lon":15.7401746,"type":"village"},{"id":"173135146","name":"Kottaun","lat":48.8234399,"lon":15.6754423,"type":"village"},{"id":"173135822","name":"Wolfsbach","lat":48.8502423,"lon":15.6631976,"type":"village"},{"id":"173136312","name":"Heinrichsreith","lat":48.8647411,"lon":15.6606946,"type":"village"},{"id":"173136818","name":"Elsern","lat":48.8499415,"lon":15.6162323,"type":"village"},{"id":"173137168","name":"Zissersdorf","lat":48.8299143,"lon":15.6259497,"type":"village"},{"id":"173139837","name":"Nödersdorf","lat":48.7390018,"lon":15.6137602,"type":"village"},{"id":"173140380","name":"Staningersdorf","lat":48.7236089,"lon":15.6085091,"type":"village"},{"id":"173141692","name":"Irnfritz-Ort","lat":48.7399579,"lon":15.5579981,"type":"village"},{"id":"173142099","name":"Wappoltenreith","lat":48.7506019,"lon":15.5626389,"type":"village"},{"id":"173142571","name":"Trabenreith","lat":48.7628572,"lon":15.5682356,"type":"village"},{"id":"173143000","name":"Ludweishofen","lat":48.7607204,"lon":15.6147836,"type":"village"},{"id":"173143439","name":"Sieghartsreith","lat":48.7739495,"lon":15.6154636,"type":"village"},{"id":"173143650","name":"Japons","lat":48.7926425,"lon":15.5678266,"type":"village"},{"id":"173144139","name":"Wenjapons","lat":48.782014,"lon":15.5580364,"type":"village"},{"id":"173145392","name":"Unterpfaffendorf","lat":48.8453735,"lon":15.5924675,"type":"village"},{"id":"173146775","name":"Modsiedl","lat":48.8611852,"lon":15.5059731,"type":"village"},{"id":"173147165","name":"Zemmendorf","lat":48.8625536,"lon":15.5192029,"type":"village"},{"id":"173147777","name":"Zabernreith","lat":48.861313,"lon":15.5489382,"type":"village"},{"id":"173148086","name":"Nonndorf","lat":48.8789349,"lon":15.5654966,"type":"village"},{"id":"173149108","name":"Großau","lat":48.8831672,"lon":15.5222983,"type":"village"},{"id":"173149224","name":"Rabesreith","lat":48.8886382,"lon":15.5442449,"type":"village"},{"id":"173150222","name":"Süßenbach","lat":48.8909107,"lon":15.4939454,"type":"village"},{"id":"173151034","name":"Weikertschlag an der Thaya","lat":48.9135664,"lon":15.4753067,"type":"village"},{"id":"173151218","name":"Rossa","lat":48.9025567,"lon":15.4485839,"type":"village"},{"id":"173151485","name":"Thuma","lat":48.8923904,"lon":15.4359099,"type":"village"},{"id":"173172363","name":"Merkengersch","lat":48.8908797,"lon":15.3134593,"type":"village"},{"id":"173181011","name":"Waldhers","lat":48.9355694,"lon":15.3814537,"type":"village"},{"id":"173182295","name":"Waldkirchen an der Thaya","lat":48.938941,"lon":15.3522095,"type":"village"},{"id":"173184060","name":"Hohenwarth","lat":48.9047033,"lon":15.3779748,"type":"village"},{"id":"173185267","name":"Münchreith an der Thaya","lat":48.8933057,"lon":15.3858013,"type":"village"},{"id":"173185868","name":"Griesbach","lat":48.8747787,"lon":15.3717683,"type":"village"},{"id":"173186415","name":"Goschenreith","lat":48.8712219,"lon":15.3945734,"type":"village"},{"id":"173188514","name":"Thures","lat":48.9106755,"lon":15.4099776,"type":"village"},{"id":"173230050","name":"Engelstein","lat":48.6408381,"lon":14.9472249,"type":"village"},{"id":"173242925","name":"Etzen","lat":48.5584082,"lon":15.036097,"type":"village"},{"id":"173250227","name":"Jagenbach","lat":48.6398767,"lon":15.0292176,"type":"village"},{"id":"173253222","name":"Haid","lat":48.5881701,"lon":14.96617,"type":"village"},{"id":"173908651","name":"Wartberg","lat":48.6356945,"lon":15.8831653,"type":"village"},{"id":"174829074","name":"Hollenstein","lat":48.5537976,"lon":15.9328887,"type":"village"},{"id":"174934497","name":"Maigen","lat":48.6772868,"lon":15.7708125,"type":"village"},{"id":"174936062","name":"Theras","lat":48.7314949,"lon":15.7905394,"type":"village"},{"id":"174936557","name":"Heinrichsdorf","lat":48.7444411,"lon":15.7625184,"type":"village"},{"id":"174936864","name":"Röhrawiesen","lat":48.7251014,"lon":15.7502858,"type":"village"},{"id":"174940486","name":"Kainreith","lat":48.712693,"lon":15.7230008,"type":"village"},{"id":"174940688","name":"Walkenstein","lat":48.7165156,"lon":15.7290921,"type":"village"},{"id":"174943584","name":"Harth","lat":48.7630229,"lon":15.6529656,"type":"village"},{"id":"174944002","name":"Schirmannsreith","lat":48.7788784,"lon":15.638039,"type":"village"},{"id":"174945000","name":"Goslarn","lat":48.8034575,"lon":15.5729677,"type":"village"},{"id":"174945270","name":"Zettenreith","lat":48.8159315,"lon":15.5667214,"type":"village"},{"id":"174946337","name":"Unterthumeritz","lat":48.8032006,"lon":15.6091362,"type":"village"},{"id":"174947209","name":"Eibenstein","lat":48.8444221,"lon":15.5785949,"type":"village"},{"id":"174947780","name":"Oberndorf bei Raabs","lat":48.8439512,"lon":15.483068,"type":"village"},{"id":"174948461","name":"Lindau","lat":48.8277395,"lon":15.4895783,"type":"village"},{"id":"174948679","name":"Liebnitz","lat":48.8520303,"lon":15.4513235,"type":"village"},{"id":"174948974","name":"Pommersdorf","lat":48.8431281,"lon":15.4307488,"type":"village"},{"id":"174949536","name":"Mostbach","lat":48.8264212,"lon":15.4210638,"type":"village"},{"id":"174950397","name":"Obergrünbach","lat":48.8787701,"lon":15.4436814,"type":"village"},{"id":"174950992","name":"Speisendorf","lat":48.8635016,"lon":15.4299921,"type":"village"},{"id":"174951765","name":"Eggersdorf","lat":48.8648701,"lon":15.4120747,"type":"village"},{"id":"174952168","name":"Schlader","lat":48.8656298,"lon":15.3896381,"type":"village"},{"id":"174953021","name":"Loibes","lat":48.8390495,"lon":15.3886221,"type":"village"},{"id":"174953650","name":"Puch","lat":48.8460909,"lon":15.3570914,"type":"village"},{"id":"174955049","name":"Waldreichs","lat":48.7992245,"lon":15.396484,"type":"village"},{"id":"174956226","name":"Wienings","lat":48.8118414,"lon":15.404754,"type":"village"},{"id":"174962728","name":"Hollenbach","lat":48.8276928,"lon":15.3350816,"type":"village"},{"id":"174962988","name":"Thaya","lat":48.8554173,"lon":15.2873133,"type":"village"},{"id":"174963303","name":"Niederedlitz","lat":48.8717918,"lon":15.3050684,"type":"village"},{"id":"174963639","name":"Oberedlitz","lat":48.8744609,"lon":15.2800823,"type":"village"},{"id":"174963882","name":"Schirnes","lat":48.8545608,"lon":15.2575319,"type":"village"},{"id":"174965998","name":"Engelbrechts","lat":48.929337,"lon":15.2088939,"type":"village"},{"id":"174967219","name":"Kleingerharts","lat":48.9176779,"lon":15.2400093,"type":"village"},{"id":"174968375","name":"Gastern","lat":48.8939655,"lon":15.2199923,"type":"village"},{"id":"174970208","name":"Eggmanns","lat":48.8728114,"lon":15.2524514,"type":"village"},{"id":"174970724","name":"Frühwärts","lat":48.8790219,"lon":15.2394187,"type":"village"},{"id":"174971337","name":"Garolden","lat":48.8935581,"lon":15.2457145,"type":"village"},{"id":"174972450","name":"Triglas","lat":48.9064173,"lon":15.2383262,"type":"village"},{"id":"174974445","name":"Dietweis","lat":48.8855181,"lon":15.1348938,"type":"village"},{"id":"174974924","name":"Eberweis","lat":48.8867352,"lon":15.0958948,"type":"village"},{"id":"174975349","name":"Wielings","lat":48.9017861,"lon":15.0701975,"type":"village"},{"id":"174976065","name":"Klein-Radischen","lat":48.906618,"lon":15.0871899,"type":"village"},{"id":"174978710","name":"Schandachen","lat":48.9586081,"lon":15.0909019,"type":"village"},{"id":"174979067","name":"Illmanns","lat":48.9781497,"lon":15.1081186,"type":"village"},{"id":"174979430","name":"Hirschenschlag","lat":48.9904262,"lon":15.1433241,"type":"village"},{"id":"174981203","name":"Hörmanns bei Litschau","lat":48.9649625,"lon":15.0498201,"type":"village"},{"id":"174983071","name":"Haugschlag","lat":48.9982192,"lon":15.0581116,"type":"village"},{"id":"174988242","name":"Kleinmotten","lat":48.9148983,"lon":15.1971606,"type":"village"},{"id":"174988796","name":"Ruders","lat":48.9050768,"lon":15.1999804,"type":"village"},{"id":"174993193","name":"Lexnitz","lat":48.9257543,"lon":15.3315781,"type":"village"},{"id":"174993518","name":"Hohenau","lat":48.9349835,"lon":15.2962947,"type":"village"},{"id":"174994162","name":"Reibers","lat":48.9497922,"lon":15.3083211,"type":"village"},{"id":"174995103","name":"Brunn","lat":48.9551625,"lon":15.2825576,"type":"village"},{"id":"174995919","name":"Reinolz","lat":48.9713444,"lon":15.3108588,"type":"village"},{"id":"174997488","name":"Tiefenbach","lat":48.92976,"lon":15.2668658,"type":"village"},{"id":"174998080","name":"Schönfeld","lat":48.9598941,"lon":15.3430772,"type":"village"},{"id":"175001152","name":"Rappolz","lat":48.9546298,"lon":15.3866929,"type":"village"},{"id":"175002183","name":"Neuriegers","lat":48.9422429,"lon":15.4381089,"type":"village"},{"id":"175366330","name":"Schwadorf","lat":48.0713564,"lon":16.5828592,"type":"village"},{"id":"176487943","name":"Rutzendorf","lat":48.2064058,"lon":16.6273632,"type":"village"},{"id":"176606406","name":"Neudorf/Novo Selo","lat":48.0156502,"lon":16.9296129,"type":"village"},{"id":"176607516","name":"Zurndorf","lat":47.9841599,"lon":17.0030199,"type":"village"},{"id":"176676124","name":"Kleinrust","lat":48.2835836,"lon":15.6197223,"type":"village"},{"id":"176676246","name":"Rottersdorf","lat":48.2868927,"lon":15.6470365,"type":"village"},{"id":"176676437","name":"Fugging","lat":48.2897482,"lon":15.6351919,"type":"village"},{"id":"176676838","name":"Großrust","lat":48.2738795,"lon":15.6138081,"type":"village"},{"id":"176677948","name":"Obermamau","lat":48.243759,"lon":15.5965627,"type":"village"},{"id":"176678633","name":"Zagging","lat":48.2675853,"lon":15.6472082,"type":"village"},{"id":"176679432","name":"Afing","lat":48.2247399,"lon":15.5690777,"type":"village"},{"id":"176679875","name":"Flinsbach","lat":48.2392392,"lon":15.5622358,"type":"village"},{"id":"176680841","name":"Watzelsdorf","lat":48.2303207,"lon":15.5476446,"type":"village"},{"id":"176681415","name":"Wernersdorf","lat":48.233065,"lon":15.587985,"type":"village"},{"id":"176681772","name":"Weitern","lat":48.2327738,"lon":15.6238246,"type":"village"},{"id":"176682925","name":"Kuffern","lat":48.3255385,"lon":15.6488799,"type":"village"},{"id":"176684155","name":"Oberwölbling","lat":48.3196402,"lon":15.5908101,"type":"village"},{"id":"176684777","name":"Inzersdorf ob der Traisen","lat":48.3182132,"lon":15.6774051,"type":"village"},{"id":"176684889","name":"Getzersdorf","lat":48.3284582,"lon":15.6948737,"type":"village"},{"id":"176685169","name":"Reichersdorf","lat":48.3382675,"lon":15.6988783,"type":"village"},{"id":"176686314","name":"Tiefenfucha","lat":48.368203,"lon":15.6466682,"type":"village"},{"id":"176686415","name":"Oberfucha","lat":48.3776198,"lon":15.6322737,"type":"village"},{"id":"176686704","name":"Furth bei Göttweig","lat":48.374646,"lon":15.6131886,"type":"village"},{"id":"176758063","name":"Götzis","lat":47.3351291,"lon":9.6440092,"type":"town"},{"id":"176835645","name":"Faak am See","lat":46.568307,"lon":13.9067117,"type":"village"},{"id":"176835891","name":"Egg am Faaker See","lat":46.5860172,"lon":13.9323977,"type":"village"},{"id":"176983595","name":"Annenheim","lat":46.6599356,"lon":13.9007214,"type":"village"},{"id":"176984021","name":"Sattendorf","lat":46.6647092,"lon":13.9200294,"type":"village"},{"id":"177100029","name":"Gaming","lat":47.9286915,"lon":15.0876554,"type":"village"},