[{"id":"171513871","name":"Naxçıvan","lat":39.217497,"lon":45.4069671,"type":"city"},{"id":"172794981","name":"Culfa","lat":38.9540587,"lon":45.6270343,"type":"town"},{"id":"183122494","name":"Şəmkir","lat":40.8357964,"lon":46.0246224,"type":"city"},{"id":"183345861","name":"Gəncə","lat":40.6798083,"lon":46.3597178,"type":"city"},{"id":"184600213","name":"Tovuz","lat":40.992505,"lon":45.6159428,"type":"city"},{"id":"184640403","name":"Qazax","lat":41.0911532,"lon":45.361029,"type":"town"},{"id":"210333762","name":"Şuşa","lat":39.7632567,"lon":46.7511501,"type":"town"},{"id":"226791840","name":"Şamaxı","lat":40.6341208,"lon":48.6383419,"type":"town"},{"id":"226938372","name":"Şirvan","lat":39.9546055,"lon":48.9464339,"type":"town"},{"id":"227052744","name":"Mingəçevir","lat":40.7646918,"lon":47.052389,"type":"city"},{"id":"227109482","name":"Şəki","lat":41.2032217,"lon":47.1803267,"type":"city"},{"id":"227127401","name":"Yevlax","lat":40.6115625,"lon":47.1466579,"type":"city"},{"id":"228290010","name":"Ağsu","lat":40.5680452,"lon":48.3944412,"type":"town"},{"id":"228300327","name":"Qobustan","lat":40.0826777,"lon":49.4120821,"type":"town"},{"id":"228307541","name":"Qobustan Mərəzə","lat":40.5324087,"lon":48.9275958,"type":"town"},{"id":"229481406","name":"Ucar","lat":40.5185386,"lon":47.6487809,"type":"town"},{"id":"229485648","name":"Kürdəmir","lat":40.3455247,"lon":48.1488951,"type":"town"},{"id":"229488461","name":"Göyçay","lat":40.6494415,"lon":47.7412208,"type":"town"},{"id":"229492717","name":"Hacıqabul","lat":40.0286557,"lon":48.9350797,"type":"town"},{"id":"229499571","name":"Gədəbəy","lat":40.5747098,"lon":45.8103471,"type":"town"},{"id":"229503490","name":"Göygöl","lat":40.588004,"lon":46.321095,"type":"town"},{"id":"229639771","name":"Bərdə","lat":40.3812457,"lon":47.1246287,"type":"city"},{"id":"229673181","name":"Ağcabədi","lat":40.050544,"lon":47.4607462,"type":"town"},{"id":"229679563","name":"Zərdab","lat":40.2196441,"lon":47.7086766,"type":"town"},{"id":"229697540","name":"Sabirabad","lat":40.008006,"lon":48.475032,"type":"city"},{"id":"229699967","name":"Saatlı","lat":39.9376009,"lon":48.3689097,"type":"town"},{"id":"230964856","name":"Salyan","lat":39.5981012,"lon":48.9844598,"type":"town"},{"id":"231332430","name":"Neftçala","lat":39.3790532,"lon":49.248607,"type":"city"},{"id":"231379524","name":"Biləsuvar","lat":39.4561281,"lon":48.5465607,"type":"city"},{"id":"231405163","name":"Cəlilabad","lat":39.2103933,"lon":48.5050593,"type":"city"},{"id":"231412616","name":"Allar","lat":39.3175162,"lon":48.5301322,"type":"village"},{"id":"231418623","name":"Masallı","lat":39.0322111,"lon":48.6721093,"type":"town"},{"id":"231493032","name":"Boradigah","lat":38.9299877,"lon":48.708599,"type":"village"},{"id":"231498735","name":"Yardımlı","lat":38.9071104,"lon":48.2422554,"type":"city"},{"id":"231529396","name":"Lerik","lat":38.7752945,"lon":48.418155,"type":"town"},{"id":"231540379","name":"Lənkəran","lat":38.7537311,"lon":48.8539286,"type":"city"},{"id":"231795671","name":"İmişli","lat":39.8716243,"lon":48.0594743,"type":"city"},{"id":"232172609","name":"Zəngilan","lat":39.0863717,"lon":46.6564485,"type":"town"},{"id":"232195052","name":"Cəbrayıl","lat":39.3958878,"lon":47.0286002,"type":"town"},{"id":"232207244","name":"Füzuli","lat":39.6007384,"lon":47.1485708,"type":"town"},{"id":"232215256","name":"Xocavənd","lat":39.795152,"lon":47.1109875,"type":"town"},{"id":"232331884","name":"Beyləqan","lat":39.7671115,"lon":47.6153495,"type":"town"},{"id":"232351722","name":"Ağdaş","lat":40.6440169,"lon":47.4727422,"type":"town"},{"id":"234030668","name":"Yuxarı Daşkəsən","lat":40.4933882,"lon":46.0749209,"type":"village"},{"id":"234040855","name":"Tərtər","lat":40.3429739,"lon":46.9321023,"type":"town"},{"id":"234061921","name":"Ağdərə","lat":40.2096703,"lon":46.8225075,"type":"town"},{"id":"234280798","name":"Əsgəran","lat":39.9379213,"lon":46.8353633,"type":"town"},{"id":"234298960","name":"Laçın","lat":39.6401825,"lon":46.5488378,"type":"town"},{"id":"234330550","name":"Mincivan","lat":39.0285998,"lon":46.7157787,"type":"town"},{"id":"235335652","name":"Daşburun","lat":39.6247493,"lon":47.7121319,"type":"village"},{"id":"235453287","name":"Yaycı","lat":38.9455814,"lon":45.7323486,"type":"town"},{"id":"235488400","name":"Dəstə","lat":38.8834728,"lon":45.9074432,"type":"village"},{"id":"244311324","name":"Zaqatala","lat":41.6307469,"lon":46.6435449,"type":"town"},{"id":"244311432","name":"Quba","lat":41.3615456,"lon":48.5142385,"type":"town"},{"id":"244315387","name":"Qusar","lat":41.4303387,"lon":48.4327339,"type":"town"},{"id":"244340354","name":"Lökbatan","lat":40.3252712,"lon":49.7308283,"type":"town"},{"id":"244370824","name":"Ələt","lat":39.9477043,"lon":49.4066384,"type":"town"},{"id":"244371926","name":"Səngəçal","lat":40.1708426,"lon":49.4632768,"type":"village"},{"id":"244372671","name":"Qobu","lat":40.401317,"lon":49.7143913,"type":"village"},{"id":"275589728","name":"Bucaq","lat":41.0765541,"lon":47.3710118,"type":"village"},{"id":"275612382","name":"İsmayıllı","lat":40.788056,"lon":48.1485653,"type":"town"},{"id":"339102495","name":"Binəqədi","lat":40.4679226,"lon":49.828023,"type":"town"},{"id":"339117816","name":"Hacıqəhrəmanlı","lat":39.8788363,"lon":48.9244007,"type":"village"},{"id":"883055278","name":"Muğanlı","lat":41.4735425,"lon":46.4881614,"type":"village"},{"id":"883069464","name":"Dağlı","lat":41.5240895,"lon":46.5303218,"type":"village"},{"id":"883072929","name":"Faldarlı","lat":41.4716968,"lon":46.5191352,"type":"village"},{"id":"883075929","name":"Qandax","lat":41.4748006,"lon":46.5432969,"type":"village"},{"id":"883090550","name":"Kəpənəkçi","lat":41.4593816,"lon":46.542434,"type":"village"},{"id":"883105005","name":"Yengiyan","lat":41.4658849,"lon":46.5741046,"type":"village"},{"id":"883110236","name":"Mosul","lat":41.4443354,"lon":46.5756443,"type":"village"},{"id":"884304323","name":"Sədərək","lat":39.7159815,"lon":44.8817973,"type":"village"},{"id":"885867143","name":"Dağ Kəsəmən","lat":41.0951362,"lon":45.3954454,"type":"village"},{"id":"885868332","name":"Vurğun","lat":41.0936711,"lon":45.4753703,"type":"village"},{"id":"885932792","name":"Cəfərli","lat":41.0316102,"lon":45.2414177,"type":"village"},{"id":"885970926","name":"Eynallı","lat":41.0674563,"lon":45.4987994,"type":"village"},{"id":"885974021","name":"Köçəsgər","lat":41.0553055,"lon":45.5178324,"type":"village"},{"id":"885977701","name":"Həsənsu","lat":41.0829689,"lon":45.4920188,"type":"village"},{"id":"885979206","name":"Qırlı","lat":41.0924662,"lon":45.5098931,"type":"village"},{"id":"886016376","name":"Düz Qırıqlı","lat":40.9419592,"lon":45.7985203,"type":"village"},{"id":"886033088","name":"Alakol","lat":40.9051434,"lon":45.7702766,"type":"village"},{"id":"886035342","name":"Zəyəm Cırdaxan","lat":40.8851401,"lon":45.8215873,"type":"village"},{"id":"886037665","name":"Duyərli","lat":40.9148874,"lon":45.8504856,"type":"village"},{"id":"886038351","name":"Qovlar","lat":40.9465714,"lon":45.7353477,"type":"town"},{"id":"886624952","name":"Böyük Kəsik","lat":41.389741,"lon":45.1878267,"type":"village"},{"id":"886864603","name":"İkinci Şıxlı","lat":41.3101257,"lon":45.1043789,"type":"village"},{"id":"893880080","name":"Yalama","lat":41.7579127,"lon":48.5817652,"type":"village"},{"id":"922840319","name":"Bozalqanlı","lat":40.9908418,"lon":45.6352348,"type":"village"},{"id":"922840321","name":"Düz Cırdaxan","lat":41.0178197,"lon":45.610698,"type":"village"},{"id":"922842272","name":"Cəlilli","lat":41.0359459,"lon":45.5981184,"type":"village"},{"id":"922847321","name":"Xatınlı","lat":41.0447039,"lon":45.6427191,"type":"village"},{"id":"922849038","name":"Əlimərdanlı","lat":41.0375685,"lon":45.6750174,"type":"village"},{"id":"922889935","name":"Poylu","lat":41.155355,"lon":45.4501517,"type":"village"},{"id":"922906545","name":"Aşağı Göycəli","lat":41.1165839,"lon":45.4830141,"type":"village"},{"id":"922906550","name":"Aşağı Kəsəmən","lat":41.15298,"lon":45.4881747,"type":"village"},{"id":"922920067","name":"Zəlimxan","lat":41.1701482,"lon":45.4789371,"type":"village"},{"id":"922927610","name":"Qıraq Kəsəmən","lat":41.2140215,"lon":45.4610756,"type":"village"},{"id":"922938472","name":"Poylu qəsəbəsi","lat":41.2280251,"lon":45.4416759,"type":"village"},{"id":"922990641","name":"Kəmərli","lat":41.2120431,"lon":45.1013323,"type":"village"},{"id":"923000533","name":"Birinci Şıxlı","lat":41.2862874,"lon":45.1571331,"type":"village"},{"id":"925959119","name":"Hadrut","lat":39.5190107,"lon":47.0313751,"type":"town"},{"id":"925959157","name":"Qırmızı Bazar","lat":39.6770641,"lon":46.9473348,"type":"town"},{"id":"1104258889","name":"Sumqayıt","lat":40.5961585,"lon":49.6696668,"type":"city"},{"id":"1117022698","name":"Balaxanı","lat":40.4615983,"lon":49.9214189,"type":"village"},{"id":"1334755394","name":"Zar","lat":40.0033547,"lon":45.9540199,"type":"village"},{"id":"1334805676","name":"Heyvalı","lat":40.1469508,"lon":46.6047548,"type":"village"},{"id":"1334896084","name":"Mehmana","lat":40.1508822,"lon":46.6717956,"type":"village"},{"id":"1334934164","name":"Qozlu","lat":40.1084464,"lon":46.4781224,"type":"village"},{"id":"1334982343","name":"Həsənriz","lat":40.1615261,"lon":46.5150936,"type":"village"},{"id":"1335007357","name":"Zardaxaç","lat":40.1515089,"lon":46.4730085,"type":"village"},{"id":"1335876155","name":"Qozlukörpü","lat":40.1298358,"lon":46.4583283,"type":"village"},{"id":"1335876162","name":"Çapar","lat":40.1605961,"lon":46.4298436,"type":"village"},{"id":"1337149343","name":"Qızılqaya","lat":40.1242271,"lon":46.5164792,"type":"village"},{"id":"1337149344","name":"Çərəkdar","lat":40.142179,"lon":46.34174,"type":"village"},{"id":"1337684710","name":"Zəylik","lat":40.1694772,"lon":46.5782353,"type":"village"},{"id":"1337684713","name":"Dəvədaşı","lat":40.1217922,"lon":46.6161982,"type":"village"},{"id":"1337684720","name":"Kolatağ","lat":40.0028643,"lon":46.6005178,"type":"village"},{"id":"1337684722","name":"Umudlu","lat":40.1906866,"lon":46.5911041,"type":"village"},{"id":"1337684723","name":"Kiçik Qarabəy","lat":40.2100184,"lon":46.756361,"type":"village"},{"id":"1337684724","name":"Yayıcı","lat":40.1263969,"lon":46.5773164,"type":"village"},{"id":"1337684727","name":"Çıldıran","lat":40.1013662,"lon":46.6442246,"type":"village"},{"id":"1337684729","name":"Dovşanlı","lat":40.0537014,"lon":46.6136982,"type":"village"},{"id":"1337684730","name":"Çıraqlı","lat":40.1759907,"lon":46.7388611,"type":"village"},{"id":"1337684737","name":"Ulu Qarabəy","lat":40.2132116,"lon":46.7084865,"type":"village"},{"id":"1337684742","name":"Yuxarı Oratağ","lat":40.129158,"lon":46.5360289,"type":"village"},{"id":"1337684744","name":"Çardaqlı","lat":40.2458518,"lon":46.7148627,"type":"village"},{"id":"1337684750","name":"Ballıqaya","lat":40.0632759,"lon":46.6741752,"type":"village"},{"id":"1337684752","name":"Narınclar","lat":40.0387176,"lon":46.4075982,"type":"village"},{"id":"1340040211","name":"Talış","lat":40.3775953,"lon":46.7408333,"type":"village"},{"id":"1340040212","name":"Dəmirli","lat":40.1790628,"lon":46.7652432,"type":"village"},{"id":"1340040214","name":"Şahmansurlu","lat":40.0631853,"lon":46.5658946,"type":"village"},{"id":"1340040215","name":"Çormanlı","lat":40.0300826,"lon":46.5677329,"type":"village"},{"id":"1340040216","name":"Suqovuşan","lat":40.3248042,"lon":46.747001,"type":"village"},{"id":"1340040218","name":"Təpəkənd","lat":40.3038868,"lon":46.6977271,"type":"village"},{"id":"1340040219","name":"Ağabəyyalı","lat":40.207393,"lon":46.7931574,"type":"village"},{"id":"1340040220","name":"Çiləbürt","lat":40.2607533,"lon":46.8538609,"type":"village"},{"id":"1340040221","name":"Gülyataq","lat":40.1504586,"lon":46.7518087,"type":"village"},{"id":"1340040222","name":"Bazarkənd","lat":40.0575706,"lon":46.5858938,"type":"village"},{"id":"1340040225","name":"Vəngli","lat":40.0506579,"lon":46.5457259,"type":"village"},{"id":"1340040226","name":"Canyataq","lat":40.1345648,"lon":46.7732651,"type":"village"},{"id":"1342620543","name":"Sırxavənd","lat":40.0612301,"lon":46.6918938,"type":"village"},{"id":"1342620544","name":"Meqrelalay","lat":40.2462799,"lon":46.7361767,"type":"village"},{"id":"1342620546","name":"Hayad","lat":40.049906,"lon":46.6418135,"type":"village"},{"id":"1342620549","name":"Damğalı","lat":40.0163492,"lon":46.6194154,"type":"village"},{"id":"1342620550","name":"Qızıl Kəngərli","lat":40.1000056,"lon":46.8821561,"type":"village"},{"id":"1342620551","name":"Lüləsaz","lat":40.2736892,"lon":46.7318198,"type":"village"},{"id":"1342620553","name":"Mollalar","lat":40.0686314,"lon":46.8257991,"type":"village"},{"id":"1342620554","name":"Əliağalı","lat":40.0388028,"lon":46.7765852,"type":"village"},{"id":"1342620555","name":"Qazançı","lat":40.0668821,"lon":46.7486007,"type":"village"},{"id":"1343893908","name":"Şuşakənd","lat":39.7708476,"lon":46.7863342,"type":"village"},{"id":"1343893911","name":"Dəmirçilər","lat":39.7143169,"lon":46.8419374,"type":"village"},{"id":"1343893912","name":"Təzəbinə","lat":39.9304434,"lon":46.7756972,"type":"village"},{"id":"1343893913","name":"Çanaqçı","lat":39.7036193,"lon":46.8304362,"type":"village"},{"id":"1343893914","name":"Sığnaq","lat":39.7220845,"lon":46.8014858,"type":"village"},{"id":"1343893916","name":"Dağyurd","lat":39.7229971,"lon":46.9056906,"type":"village"},{"id":"1343893917","name":"Mədətkənd","lat":39.6990599,"lon":46.8439575,"type":"village"},{"id":"1343893918","name":"Qızıloba","lat":39.7701241,"lon":46.8517568,"type":"village"},{"id":"1343893919","name":"Aranzəmin","lat":39.8969101,"lon":46.8946615,"type":"village"},{"id":"1343893920","name":"Qarabulaq","lat":39.7066349,"lon":46.8675532,"type":"village"},{"id":"1343893921","name":"Ağgədik","lat":39.9041448,"lon":46.8484274,"type":"village"},{"id":"1343893926","name":"Dağdağan","lat":39.8008522,"lon":46.8219518,"type":"village"},{"id":"1343893930","name":"Daşkənd","lat":39.8004054,"lon":46.7826832,"type":"village"},{"id":"1343893938","name":"Naxçıvanlı","lat":39.9081592,"lon":46.8733445,"type":"village"},{"id":"1343893939","name":"Dəhrəz","lat":39.871223,"lon":46.8731017,"type":"village"},{"id":"1343893940","name":"Şelli","lat":39.9540133,"lon":46.8923707,"type":"village"},{"id":"1343893951","name":"Harov","lat":39.8238903,"lon":46.8503025,"type":"village"},{"id":"1343893954","name":"Aşağı Yemişcan","lat":39.7437227,"lon":46.8434495,"type":"village"},{"id":"1346817388","name":"Daşbaşı","lat":40.0061184,"lon":46.8150693,"type":"village"},{"id":"1346817389","name":"Ağbulaq","lat":39.8786495,"lon":46.9040491,"type":"village"},{"id":"1346817390","name":"Mehdibəyli","lat":39.8937997,"lon":46.7334606,"type":"village"},{"id":"1346817391","name":"Xaçmaç","lat":39.7538539,"lon":46.8760438,"type":"village"},{"id":"1346817392","name":"Qarakötük","lat":39.9553648,"lon":46.7020142,"type":"village"},{"id":"1346817393","name":"Seyidbəyli","lat":39.9860312,"lon":46.6960202,"type":"village"},{"id":"1346817394","name":"Muxtar","lat":39.7612156,"lon":46.7766398,"type":"village"},{"id":"1346817395","name":"Həsənabad","lat":39.874773,"lon":46.7796659,"type":"village"},{"id":"1346817397","name":"Qışlaq","lat":39.9756256,"lon":46.7174794,"type":"village"},{"id":"1346817398","name":"Badara","lat":39.9229299,"lon":46.6667421,"type":"village"},{"id":"1346817399","name":"Daşbulaq","lat":39.9244847,"lon":46.7069455,"type":"village"},{"id":"1346817400","name":"Qayabaşı","lat":39.89714,"lon":46.7016471,"type":"village"},{"id":"1346817401","name":"Sərdarkənd","lat":39.9890647,"lon":46.7625699,"type":"village"},{"id":"1346817402","name":"Xaçındərbətli","lat":40.03621,"lon":46.831938,"type":"village"},{"id":"1346817403","name":"Xanyurdu","lat":39.8491462,"lon":46.7470846,"type":"village"},{"id":"1346817404","name":"Ballıca","lat":39.8700119,"lon":46.7271472,"type":"village"},{"id":"1346817405","name":"Şəlvə","lat":39.9886053,"lon":46.7144154,"type":"village"},{"id":"1346817406","name":"Fərrux","lat":40.0186228,"lon":46.8014171,"type":"village"},{"id":"1346817407","name":"Xanabad","lat":39.9697112,"lon":46.818337,"type":"village"},{"id":"1346817408","name":"Almalı","lat":39.97009,"lon":46.6890951,"type":"village"},{"id":"1346817411","name":"Pirlər","lat":39.9916544,"lon":46.8362515,"type":"village"},{"id":"1346817412","name":"Dərələyəz","lat":39.9156472,"lon":46.7581007,"type":"village"},{"id":"1346817413","name":"Xanyeri","lat":39.9364742,"lon":46.6810542,"type":"village"},{"id":"1346973617","name":"Onverst","lat":39.6740057,"lon":46.6053301,"type":"village"},{"id":"1346973623","name":"Sarıbaba","lat":39.6795552,"lon":46.5852759,"type":"village"},{"id":"1346973633","name":"Turşsu","lat":39.6855752,"lon":46.6534122,"type":"town"},{"id":"1346973637","name":"Kiçik Qaladərəsi","lat":39.6371455,"lon":46.609249,"type":"village"},{"id":"1346973643","name":"Daşaltı","lat":39.742917,"lon":46.7438238,"type":"village"},{"id":"1346973656","name":"Böyük Qaladərəsi","lat":39.6558879,"lon":46.6035429,"type":"village"},{"id":"1346973668","name":"Göytala","lat":39.678536,"lon":46.6163363,"type":"village"},{"id":"1347062768","name":"Şıx Dursun","lat":39.7054783,"lon":46.939946,"type":"village"},{"id":"1347062771","name":"Xərxan","lat":39.7226984,"lon":46.9420004,"type":"village"},{"id":"1347062772","name":"Qarazəmi","lat":39.7338399,"lon":46.9971305,"type":"village"},{"id":"1347062775","name":"Avdur","lat":39.84497,"lon":46.9396617,"type":"village"},{"id":"1347062776","name":"Qacar","lat":39.6468868,"lon":47.0583332,"type":"village"},{"id":"1347062778","name":"Yenikənd","lat":39.8534312,"lon":46.9803583,"type":"village"},{"id":"1347062779","name":"Gavahın","lat":39.7650845,"lon":46.9130849,"type":"village"},{"id":"1347062781","name":"Zərdankənd","lat":39.6694122,"lon":46.8828082,"type":"village"},{"id":"1347062784","name":"Quzumkənd","lat":39.7409621,"lon":46.9945196,"type":"village"},{"id":"1347062785","name":"Ağbulaq","lat":39.7465029,"lon":46.9136871,"type":"village"},{"id":"1347062789","name":"Qağartsi","lat":39.8193536,"lon":46.9382106,"type":"village"},{"id":"1347062790","name":"Qarqar","lat":39.7052236,"lon":46.9614511,"type":"village"},{"id":"1347062791","name":"Abdal","lat":39.8751612,"lon":46.9322422,"type":"village"},{"id":"1347062793","name":"Kəndxurd","lat":39.780015,"lon":46.9646045,"type":"village"},{"id":"1347062794","name":"Mirikənd","lat":39.8431196,"lon":46.9204881,"type":"village"},{"id":"1347062796","name":"Zavadıx","lat":39.7194124,"lon":46.9584368,"type":"village"},{"id":"1347062797","name":"Cəmiyyət","lat":39.7942661,"lon":46.8902075,"type":"village"},{"id":"1347062798","name":"Çörəkli","lat":39.8449506,"lon":46.9592045,"type":"village"},{"id":"1347062800","name":"Arpadüzü","lat":39.752449,"lon":46.9520503,"type":"village"},{"id":"1347062802","name":"Qarıtəpə","lat":39.8118251,"lon":46.9399082,"type":"village"},{"id":"1347062804","name":"Həşan","lat":39.8469124,"lon":46.9960048,"type":"village"},{"id":"1347126895","name":"Qarakənd","lat":39.8482937,"lon":47.0291489,"type":"village"},{"id":"1347126896","name":"Quzeyçartar","lat":39.7492472,"lon":47.0095627,"type":"village"},{"id":"1347126897","name":"Cütcü","lat":39.6970418,"lon":47.0250007,"type":"village"},{"id":"1347126898","name":"Sos","lat":39.7129924,"lon":47.0088234,"type":"village"},{"id":"1347126899","name":"Kuropatkino","lat":39.8357577,"lon":47.16024,"type":"village"},{"id":"1347126900","name":"Yemişcan","lat":39.831506,"lon":47.009268,"type":"village"},{"id":"1347126901","name":"Ağkənd","lat":39.8207604,"lon":47.018412,"type":"village"},{"id":"1347126903","name":"Əmiranlar","lat":39.8015007,"lon":47.1365556,"type":"village"},{"id":"1347126904","name":"Çağadüz","lat":39.6924793,"lon":46.8952316,"type":"village"},{"id":"1347126905","name":"Kiş","lat":39.7809198,"lon":47.0262262,"type":"village"},{"id":"1347126906","name":"Xanoba","lat":39.7643052,"lon":47.0401355,"type":"village"},{"id":"1348017614","name":"Çaylaqqala","lat":39.5456101,"lon":46.7700185,"type":"village"},{"id":"1348088566","name":"Köhnə Tağlar","lat":39.5100217,"lon":46.8226283,"type":"village"},{"id":"1348088572","name":"Dolanlar","lat":39.4458464,"lon":46.8286092,"type":"village"},{"id":"1348105036","name":"Arpagədik","lat":39.5587532,"lon":46.7052508,"type":"village"},{"id":"1348150441","name":"Aşağı Sirik","lat":39.4736992,"lon":46.8737326,"type":"village"},{"id":"1348150454","name":"Ağcakənd","lat":39.5005173,"lon":46.8839495,"type":"village"},{"id":"1349663395","name":"Günəşli","lat":39.4942914,"lon":47.0793044,"type":"village"},{"id":"1349663415","name":"Mülküdərə","lat":39.4736742,"lon":46.9315061,"type":"village"},{"id":"1349663417","name":"Çinarlı","lat":39.5113017,"lon":47.015529,"type":"village"},{"id":"1349663425","name":"Tağaser","lat":39.5189486,"lon":47.0123078,"type":"village"},{"id":"1349663431","name":"Edişə","lat":39.5249057,"lon":47.0002231,"type":"village"},{"id":"1349663439","name":"Yuxarı Məzrə","lat":39.4579136,"lon":46.9516033,"type":"village"},{"id":"1349663447","name":"Qoçbəyli","lat":39.5066667,"lon":47.0666667,"type":"village"},{"id":"1349663450","name":"Dağdöşü","lat":39.5098878,"lon":47.0311918,"type":"village"},{"id":"1349663452","name":"Cilən","lat":39.440519,"lon":46.9800205,"type":"village"},{"id":"1349663513","name":"Dərəkənd","lat":39.496926,"lon":46.9665801,"type":"village"},{"id":"1349663519","name":"Binədərəsi","lat":39.453805,"lon":47.0133359,"type":"village"},{"id":"1349663529","name":"Məlikcanlı","lat":39.52902,"lon":47.0819477,"type":"village"},{"id":"1349663546","name":"Sor","lat":39.4872012,"lon":47.0252118,"type":"village"},{"id":"1349663586","name":"Qırmızıqaya","lat":39.5391667,"lon":47.0222222,"type":"village"},{"id":"1349663616","name":"Edilli","lat":39.5619029,"lon":47.0692994,"type":"village"},{"id":"1351779850","name":"Düdükçü","lat":39.5757765,"lon":47.0524158,"type":"village"},{"id":"1351779853","name":"Bulutan","lat":39.5373341,"lon":47.0827943,"type":"village"},{"id":"1351779855","name":"Məmməddərə","lat":39.5753863,"lon":47.002277,"type":"village"},{"id":"1351779856","name":"Ağbulaq","lat":39.5560373,"lon":47.0827256,"type":"village"},{"id":"1351779857","name":"Azıx","lat":39.619152,"lon":46.9794713,"type":"village"},{"id":"1351779858","name":"Çiraquz","lat":39.5815592,"lon":47.0123438,"type":"village"},{"id":"1351779859","name":"Ağdam","lat":39.555155,"lon":46.9511409,"type":"village"},{"id":"1351779861","name":"Xırmancıq","lat":39.5446896,"lon":47.0911886,"type":"village"},{"id":"1351779862","name":"Zoğalbulaq","lat":39.6303153,"lon":47.0004635,"type":"village"},{"id":"1351779863","name":"Binə","lat":39.5857179,"lon":46.8996647,"type":"village"},{"id":"1351779864","name":"Axullu","lat":39.5658064,"lon":47.0881231,"type":"village"},{"id":"1351779866","name":"Ataqut","lat":39.5714029,"lon":46.9626807,"type":"village"},{"id":"1351779867","name":"Susanlıq","lat":39.569407,"lon":46.9304908,"type":"village"},{"id":"1351779869","name":"Böyük Tağlar","lat":39.6219864,"lon":46.9551429,"type":"village"},{"id":"1355052206","name":"Ərdəşəvi","lat":39.765779,"lon":46.4832075,"type":"village"},{"id":"1355052270","name":"Pircahan","lat":39.7286635,"lon":46.4331539,"type":"village"},{"id":"1355052308","name":"Ağbulaq","lat":39.7778923,"lon":46.2587285,"type":"village"},{"id":"1355052356","name":"Qoşasu","lat":39.7740861,"lon":46.3536059,"type":"village"},{"id":"1355052360","name":"Qarıkaha","lat":39.6554379,"lon":46.5361668,"type":"village"},{"id":"1355052471","name":"Aşağı Sus","lat":39.6367662,"lon":46.530536,"type":"village"},{"id":"1355395812","name":"Muradxanlı","lat":39.4544445,"lon":46.6263889,"type":"village"},{"id":"1355395817","name":"Sarıyataq","lat":39.3783046,"lon":46.6601764,"type":"village"},{"id":"1355395825","name":"Xocahan","lat":39.1911111,"lon":46.7186111,"type":"village"},{"id":"1355395902","name":"İşıqlı","lat":39.4003521,"lon":46.6598069,"type":"village"},{"id":"1355395911","name":"Qılıcan","lat":39.2037877,"lon":46.7128333,"type":"village"},{"id":"1355395928","name":"Xanlıq","lat":39.2727236,"lon":46.7196552,"type":"village"},{"id":"1355395931","name":"Xəndək","lat":39.4150272,"lon":46.6502669,"type":"village"},{"id":"1355396053","name":"Qarakişilər","lat":39.4377778,"lon":46.6280556,"type":"village"},{"id":"1355396085","name":"Qarağac","lat":39.394743,"lon":46.6509941,"type":"village"},{"id":"1355396113","name":"Zabux","lat":39.591057,"lon":46.5430068,"type":"village"},{"id":"1355396137","name":"Güləbird","lat":39.4818284,"lon":46.6090574,"type":"village"},{"id":"1356159560","name":"Yuxarı Ağalı","lat":39.4252891,"lon":48.4538167,"type":"village"},{"id":"1359848376","name":"Zülfüqarlı","lat":40.0712898,"lon":46.2359514,"type":"village"},{"id":"1359848390","name":"İstisu","lat":39.9484051,"lon":45.9655361,"type":"village"},{"id":"1359848391","name":"Qılınclı","lat":40.1633587,"lon":46.1389909,"type":"village"},{"id":"1359848394","name":"Çaykənd","lat":40.1490127,"lon":46.0870475,"type":"village"},{"id":"1434761991","name":"Ağdam","lat":39.9932355,"lon":46.9304843,"type":"town"},{"id":"1464793157","name":"Aşağı Buzqov","lat":39.5167363,"lon":45.4034071,"type":"village"},{"id":"1470794207","name":"Cəyirli","lat":40.5782247,"lon":48.8647612,"type":"village"},{"id":"1470794240","name":"Çelov","lat":40.570359,"lon":48.8792795,"type":"village"},{"id":"1471832499","name":"Nic","lat":40.9403859,"lon":47.6639457,"type":"village"},{"id":"1493278656","name":"Privolnoye","lat":39.1299584,"lon":48.533372,"type":"village"},{"id":"1498859125","name":"Xıdırlı","lat":40.0131611,"lon":46.8901001,"type":"village"},{"id":"1498859127","name":"Kəngərli","lat":40.0313827,"lon":46.9693412,"type":"village"},{"id":"1498859128","name":"Sarıcalı","lat":40.0033309,"lon":46.9855417,"type":"village"},{"id":"1505246228","name":"Çullu","lat":40.0469406,"lon":46.8771559,"type":"village"},{"id":"1641136757","name":"Bilgəh","lat":40.5741603,"lon":50.0409276,"type":"village"},{"id":"1641136759","name":"Mərdəkan","lat":40.4935881,"lon":50.1495477,"type":"town"},{"id":"1643880404","name":"Qaravəlli","lat":39.911861,"lon":48.2141526,"type":"village"},{"id":"1643881410","name":"Mirili","lat":39.9122534,"lon":48.2334161,"type":"village"},{"id":"1643882817","name":"Mazreli","lat":39.9124343,"lon":48.2482554,"type":"village"},{"id":"1643885207","name":"Naharli","lat":39.9099607,"lon":48.2522696,"type":"village"},{"id":"1797982447","name":"Xızı","lat":40.9106624,"lon":49.0719585,"type":"town"},{"id":"1836677621","name":"Evoğlu","lat":40.0166119,"lon":47.0685674,"type":"village"},{"id":"1836677622","name":"Sarıcalı","lat":40.0896945,"lon":47.0457097,"type":"village"},{"id":"1838421422","name":"Qubadlı","lat":39.3436425,"lon":46.5809277,"type":"town"},{"id":"1838552564","name":"Alpout Göyçay","lat":40.4794036,"lon":47.9301612,"type":"village"},{"id":"1838552569","name":"Birincii Ərəbcəbirli","lat":40.6539907,"lon":47.7284577,"type":"village"},{"id":"1838552570","name":"Bığır","lat":40.606247,"lon":47.8512857,"type":"village"},{"id":"1838552571","name":"Bəydövül","lat":40.5097304,"lon":47.8915546,"type":"village"},{"id":"1838552573","name":"Şıxlar Çərəkə","lat":40.5685883,"lon":47.7106626,"type":"village"},{"id":"1838552574","name":"Cəyirli","lat":40.6174165,"lon":47.7567836,"type":"village"},{"id":"1838552577","name":"Kürd","lat":40.6384139,"lon":47.7323119,"type":"village"},{"id":"1838552578","name":"Kürdşaban","lat":40.5330715,"lon":47.7514884,"type":"village"},{"id":"1838552579","name":"Kürdəmiş","lat":40.5870149,"lon":47.7720574,"type":"village"},{"id":"1838552580","name":"Ləkçılpaq","lat":40.5778752,"lon":47.812457,"type":"village"},{"id":"1838552581","name":"Mallı Şıxlı","lat":40.5955094,"lon":47.6774291,"type":"village"},{"id":"1838552582","name":"Mirzəhüseynli","lat":40.65366,"lon":47.6530526,"type":"village"},{"id":"1838552585","name":"Mırtı","lat":40.559764,"lon":47.8614677,"type":"village"},{"id":"1838552586","name":"Məlikkənd","lat":40.5327228,"lon":47.7896177,"type":"village"},{"id":"1838552587","name":"Potu","lat":40.623945,"lon":47.7360828,"type":"village"},{"id":"1838552588","name":"Qarabaqqal","lat":40.632773,"lon":47.7940601,"type":"village"},{"id":"1838552589","name":"Qarabağlar","lat":40.6329378,"lon":47.6921604,"type":"village"},{"id":"1838552591","name":"Qaraxıdır","lat":40.5728585,"lon":47.8458641,"type":"village"},{"id":"1838552593","name":"Qızılağac","lat":40.5691216,"lon":47.7466748,"type":"village"},{"id":"1838552595","name":"Rəstəcə","lat":40.5314793,"lon":47.6948761,"type":"village"},{"id":"1838552596","name":"Türkmən","lat":40.6080066,"lon":47.7690822,"type":"village"},{"id":"1838552597","name":"Ulaşlı Şıxlı","lat":40.6004875,"lon":47.7409273,"type":"village"},{"id":"1838552599","name":"Xəlitli","lat":40.579686,"lon":47.6915228,"type":"village"},{"id":"1838552600","name":"Yalman","lat":40.5652019,"lon":47.8028779,"type":"village"},{"id":"1838552603","name":"Çaxırlı","lat":40.5015451,"lon":47.8486159,"type":"village"},{"id":"1838552604","name":"Çayarxı","lat":40.624012,"lon":47.772428,"type":"village"},{"id":"1838552606","name":"Çərəkə","lat":40.5613781,"lon":47.6888855,"type":"village"},{"id":"1838552607","name":"Üngütlü","lat":40.5977712,"lon":47.7158537,"type":"village"},{"id":"1838552609","name":"İncə","lat":40.5555649,"lon":47.9755966,"type":"village"},{"id":"1838552611","name":"Şıxəmir","lat":40.5156522,"lon":47.7922394,"type":"village"},{"id":"1838552612","name":"Şəhadət","lat":40.6315669,"lon":47.7090354,"type":"village"},{"id":"1838552614","name":"Şəkər","lat":40.5679474,"lon":47.8816635,"type":"village"},{"id":"1849664334","name":"Oğuz","lat":41.0677148,"lon":47.4646904,"type":"town"},{"id":"1849683437","name":"Şabran","lat":41.208437,"lon":48.9947028,"type":"city"},{"id":"1849683441","name":"Siyəzən","lat":41.075412,"lon":49.1129023,"type":"town"},{"id":"1863887425","name":"İvanovka","lat":40.7461911,"lon":48.0323761,"type":"village"},{"id":"1878169917","name":"Qala","lat":40.4441331,"lon":50.1631749,"type":"village"},{"id":"1880415465","name":"Pirallahı","lat":40.4591806,"lon":50.3339854,"type":"town"},{"id":"1880415466","name":"Atyalı","lat":40.4424261,"lon":49.687648,"type":"village"},{"id":"1880415467","name":"Güzdək","lat":40.372027,"lon":49.6798494,"type":"village"},{"id":"1880415468","name":"Müşfiqabad","lat":40.4687491,"lon":49.6217908,"type":"village"},{"id":"1880415469","name":"Puta","lat":40.2965707,"lon":49.6613216,"type":"village"},{"id":"1880415470","name":"Sulutəpə","lat":40.4293193,"lon":49.7670712,"type":"village"},{"id":"1880457092","name":"Orta Qərvənd","lat":40.1587718,"lon":47.0483908,"type":"village"},{"id":"1880820388","name":"Aşağı Qaraməryəm","lat":40.5735146,"lon":47.9845788,"type":"village"},{"id":"1880820393","name":"Qaraməryəm","lat":40.6142858,"lon":48.0149105,"type":"village"},{"id":"1880820399","name":"Yekəxana","lat":40.621772,"lon":48.040217,"type":"village"},{"id":"1882145218","name":"Ağarəhimoba","lat":41.4959694,"lon":48.7184088,"type":"village"},{"id":"1882147878","name":"Ağayazı Buduq","lat":41.4005041,"lon":48.727603,"type":"village"},{"id":"1882150738","name":"Ağtala","lat":41.5383694,"lon":48.7618708,"type":"village"},{"id":"1882155537","name":"Gödəkli","lat":41.5199813,"lon":48.7010399,"type":"village"},{"id":"1882157548","name":"Alekseyevka","lat":41.494523,"lon":48.6672757,"type":"village"},{"id":"1882485352","name":"Armudpadar","lat":41.4389007,"lon":48.7660711,"type":"village"},{"id":"1882497916","name":"Aşağıoba (Seyidli) kəndi","lat":41.7202066,"lon":48.7321057,"type":"village"},{"id":"1882503470","name":"Çarxı","lat":41.3935149,"lon":48.8696837,"type":"village"},{"id":"1882514394","name":"Çiləgir","lat":41.5248775,"lon":48.7811009,"type":"village"},{"id":"1882521418","name":"Dədəli","lat":41.5750316,"lon":48.7651487,"type":"village"},{"id":"1882525033","name":"Yergüc","lat":41.423653,"lon":48.7434878,"type":"village"},{"id":"1882918319","name":"Hacıəhmədoba","lat":41.5334146,"lon":48.8121032,"type":"village"},{"id":"1882918844","name":"Hacıəlibəy","lat":41.4078095,"lon":48.6988544,"type":"village"},{"id":"1885045493","name":"Naftalan","lat":40.5064362,"lon":46.821245,"type":"town"},{"id":"1885271085","name":"Suraxanı","lat":40.4200285,"lon":50.0018916,"type":"village"},{"id":"1885271086","name":"Əmircan","lat":40.421975,"lon":49.9900707,"type":"village"},{"id":"1886282978","name":"Fatmayı","lat":40.5301683,"lon":49.8457261,"type":"village"},{"id":"1886282980","name":"Sahil","lat":40.227045,"lon":49.5805255,"type":"town"},{"id":"1886282981","name":"Xırdalan","lat":40.4531707,"lon":49.7454579,"type":"city"},{"id":"1886282982","name":"Masazır","lat":40.471873,"lon":49.7552234,"type":"village"},{"id":"1886317018","name":"Qıvraq","lat":39.4003899,"lon":45.1217788,"type":"town"},{"id":"1886317088","name":"Şahbuz","lat":39.4040835,"lon":45.5675777,"type":"town"},{"id":"1886317089","name":"Şərur","lat":39.5559048,"lon":44.9850947,"type":"town"},{"id":"1887565774","name":"Xudat","lat":41.6328952,"lon":48.6803534,"type":"town"},{"id":"1926890229","name":"Qaravəlli","lat":40.1853815,"lon":47.2445727,"type":"village"},{"id":"1936274725","name":"Cəmilli","lat":39.8394869,"lon":46.7245844,"type":"village"},{"id":"1936274731","name":"Yuxarı Veysəlli","lat":39.7352609,"lon":47.085508,"type":"village"},{"id":"1952553592","name":"Corat","lat":40.5730069,"lon":49.7093423,"type":"village"},{"id":"1966237356","name":"Xocalı","lat":39.9097028,"lon":46.7943875,"type":"town"},{"id":"1966237366","name":"Qaradağlı","lat":39.7968219,"lon":46.9794997,"type":"village"},{"id":"1966630604","name":"Gülablı","lat":39.8818963,"lon":46.9483963,"type":"village"},{"id":"1988177672","name":"Papravənd","lat":40.152941,"lon":46.8456887,"type":"village"},{"id":"1993700524","name":"Pirəkəşkül","lat":40.4814161,"lon":49.5996485,"type":"village"},{"id":"1998586688","name":"Aşağı Ağcakənd","lat":40.4197845,"lon":46.5689434,"type":"village"},{"id":"2032851608","name":"Başkənd","lat":40.640295,"lon":45.5217693,"type":"village"},{"id":"2039930250","name":"Bunud","lat":40.916569,"lon":47.9887926,"type":"village"},{"id":"2039930272","name":"Seyidqışlaq","lat":40.9168322,"lon":47.9319357,"type":"village"},{"id":"2039930307","name":"Həzrə","lat":40.9103646,"lon":47.9671681,"type":"village"},{"id":"2064647688","name":"Mehdiabad","lat":40.4962645,"lon":49.8497478,"type":"village"},{"id":"2095640706","name":"Həsənqal","lat":41.5815075,"lon":48.6826631,"type":"village"},{"id":"2095649974","name":"Hülövlü","lat":41.4031355,"lon":48.8099775,"type":"village"},{"id":"2095662831","name":"Köhnə Xaçmaz","lat":41.4785587,"lon":48.7925618,"type":"village"},{"id":"2095665469","name":"Köhnə Xudat","lat":41.6210915,"lon":48.6549934,"type":"village"},{"id":"2117350415","name":"Bakı","lat":40.3755885,"lon":49.8328009,"type":"city"},{"id":"2134717011","name":"Padar","lat":40.5888438,"lon":48.2655975,"type":"village"},{"id":"2134717013","name":"Bico","lat":40.5071783,"lon":48.555144,"type":"village"},{"id":"2134717015","name":"Ovçulu","lat":40.4488628,"lon":48.6031467,"type":"village"},{"id":"2134717024","name":"Gəgəli","lat":40.5368459,"lon":48.4950949,"type":"village"},{"id":"2134717027","name":"Qəşəd","lat":40.4893441,"lon":48.5668346,"type":"village"},{"id":"2134717029","name":"Bağırlı","lat":40.4578829,"lon":48.5992817,"type":"village"},{"id":"2134717030","name":"Bozavand","lat":40.5052402,"lon":48.3754789,"type":"village"},{"id":"2134717032","name":"Pirhəsənli","lat":40.5800975,"lon":48.3598622,"type":"village"},{"id":"2187451636","name":"Ayaq Qərvənd (Ayaq Garvend)","lat":40.167897,"lon":47.0685428,"type":"village"},{"id":"2187458010","name":"Birinci Baharlı","lat":40.1826691,"lon":47.094616,"type":"village"},{"id":"2187471527","name":"İmamqulubəyli","lat":40.1833904,"lon":47.1428078,"type":"village"},{"id":"2429580161","name":"Ləcət","lat":41.6942631,"lon":48.6247111,"type":"village"},{"id":"2564078372","name":"Ceyranbatan","lat":40.5422338,"lon":49.6602979,"type":"village"},{"id":"2564078373","name":"Saray","lat":40.5347917,"lon":49.7140443,"type":"village"},{"id":"2567895291","name":"Yenikənd","lat":39.1886797,"lon":46.7245373,"type":"village"},{"id":"2567920965","name":"Buzovna","lat":40.5222385,"lon":50.1029082,"type":"village"},{"id":"2567920966","name":"Dübəndi","lat":40.4156299,"lon":50.2996629,"type":"village"},{"id":"2567920968","name":"Şüvəlan","lat":40.4867414,"lon":50.1839699,"type":"village"},{"id":"2593591503","name":"Binə","lat":40.4488891,"lon":50.0893889,"type":"village"},{"id":"2593591504","name":"Zirə","lat":40.3669228,"lon":50.290529,"type":"village"},{"id":"2593591506","name":"Türkan","lat":40.3662798,"lon":50.2131192,"type":"village"},{"id":"2598619033","name":"Arakül","lat":39.4376233,"lon":46.9966961,"type":"village"},{"id":"2692288034","name":"Cimi","lat":41.053875,"lon":48.5654949,"type":"village"},{"id":"2717274622","name":"Bağman","lat":40.3871557,"lon":47.7990747,"type":"village"},{"id":"2717274623","name":"Boyat","lat":40.3945611,"lon":47.7518001,"type":"village"},{"id":"2717274624","name":"Qazyan","lat":40.4220845,"lon":47.6793114,"type":"village"},{"id":"2717274625","name":"Qarabörk","lat":40.4807722,"lon":47.6616188,"type":"village"},{"id":"2768989920","name":"Goradil","lat":40.5466594,"lon":49.8299236,"type":"village"},{"id":"2769037514","name":"Yeni Suraxanı","lat":40.4302954,"lon":50.0374178,"type":"village"},{"id":"2769052087","name":"Pirşağı","lat":40.5587662,"lon":49.8873393,"type":"village"},{"id":"2769061352","name":"Maştağa","lat":40.5315618,"lon":50.0009549,"type":"village"},{"id":"2769061353","name":"Nardaran","lat":40.5588769,"lon":50.0065319,"type":"village"},{"id":"2773322813","name":"Zabrat","lat":40.4812238,"lon":49.9525772,"type":"village"},{"id":"2773420099","name":"Sabunçu","lat":40.4481434,"lon":49.93389,"type":"village"},{"id":"2775724264","name":"Kürdəxanı","lat":40.5507963,"lon":49.9172226,"type":"village"},{"id":"2785101849","name":"Utuq","lat":40.9923128,"lon":48.6124493,"type":"village"},{"id":"2785101852","name":"Zarat","lat":40.9488947,"lon":49.2801675,"type":"village"},{"id":"2785109676","name":"Sitalçay","lat":40.7875376,"lon":49.4005431,"type":"village"},{"id":"2785312089","name":"Sarvan Yenikənd","lat":41.1628334,"lon":49.0820553,"type":"village"},{"id":"2785339980","name":"Qəndov","lat":41.2586224,"lon":48.9010079,"type":"village"},{"id":"2785339981","name":"Sincanboyad","lat":41.2175089,"lon":48.9609871,"type":"village"},{"id":"2785361740","name":"Uzunboyat","lat":41.2887289,"lon":48.9170056,"type":"village"},{"id":"2785364810","name":"Rəhimli","lat":41.3142518,"lon":48.9109045,"type":"village"},{"id":"2785376573","name":"Piramsan","lat":41.2687251,"lon":48.8621412,"type":"village"},{"id":"2785384511","name":"Beynəlmiləl","lat":41.3255447,"lon":48.8772149,"type":"village"},{"id":"2785400489","name":"Vəlvələ","lat":41.3363318,"lon":48.7794335,"type":"village"},{"id":"2785402613","name":"İsnovqışlaq","lat":41.3432662,"lon":48.7537184,"type":"village"},{"id":"2786092320","name":"Qırmızı Qəsəbə","lat":41.3706547,"lon":48.5163558,"type":"village"},{"id":"2786163016","name":"Əvəcuğ","lat":41.4686004,"lon":48.3902746,"type":"village"},{"id":"2786170514","name":"Vladimirovka","lat":41.3995259,"lon":48.5472089,"type":"village"},{"id":"2786181855","name":"Bağbanlı","lat":41.3798446,"lon":48.6480919,"type":"village"},{"id":"2786181863","name":"Qacar Zeyid","lat":41.3749184,"lon":48.6413788,"type":"village"},{"id":"2787599280","name":"Havarlı","lat":40.74297,"lon":47.0973751,"type":"village"},{"id":"2787599282","name":"Əxşam","lat":40.7434711,"lon":47.1509466,"type":"village"},{"id":"2787599283","name":"Gülövşə","lat":40.7431187,"lon":47.1834342,"type":"village"},{"id":"2787599285","name":"Xaldan","lat":40.7128649,"lon":47.2262785,"type":"village"},{"id":"2787599288","name":"Ərəş Yevlax","lat":40.7328202,"lon":47.2282198,"type":"village"},{"id":"2787599289","name":"Yuxarı Bucaq","lat":40.7393287,"lon":47.2158259,"type":"village"},{"id":"2787599291","name":"Aşağı Bucaq","lat":40.7216903,"lon":47.2118433,"type":"village"},{"id":"2787599292","name":"Yuxarı Qarxun","lat":40.6148745,"lon":47.1932633,"type":"village"},{"id":"2787608536","name":"Aşağı Qarxun","lat":40.5857427,"lon":47.2163303,"type":"village"},{"id":"2788352325","name":"Alpout Ucar","lat":40.4563077,"lon":47.6035238,"type":"village"},{"id":"2788352327","name":"Qaradağlı","lat":40.4869863,"lon":47.5730349,"type":"village"},{"id":"2788369926","name":"Ləki Qəsəbəsi","lat":40.5582294,"lon":47.4290834,"type":"village"},{"id":"2788373453","name":"Güvənkənd","lat":40.5586573,"lon":47.3950462,"type":"village"},{"id":"2788471359","name":"Qaradeyin","lat":40.5206349,"lon":47.2896064,"type":"village"},{"id":"2788826578","name":"Urva","lat":41.3989557,"lon":48.3341654,"type":"village"},{"id":"2789797233","name":"Giləzi","lat":40.871964,"lon":49.3443868,"type":"village"},{"id":"2789860747","name":"Amsar","lat":41.3314193,"lon":48.538658,"type":"village"},{"id":"2789864621","name":"Nüqədiqazmalar","lat":41.3556376,"lon":48.6423314,"type":"village"},{"id":"2789868074","name":"Alekseyevka","lat":41.3715772,"lon":48.5779144,"type":"village"},{"id":"2789872920","name":"Qəçrəş","lat":41.3196434,"lon":48.386072,"type":"village"},{"id":"2789944203","name":"Tələbiqışlaq","lat":41.3170398,"lon":48.7234136,"type":"village"},{"id":"2790272396","name":"Təngəaltı","lat":41.2038751,"lon":48.6194363,"type":"village"},{"id":"2790357996","name":"Səbətlər","lat":41.2259001,"lon":48.6496781,"type":"village"},{"id":"2790357997","name":"Çiçi","lat":41.2136779,"lon":48.6779984,"type":"village"},{"id":"2790398758","name":"Küçeyi","lat":41.3285684,"lon":48.7045496,"type":"village"},{"id":"2790398761","name":"Pirvahid","lat":41.3277536,"lon":48.6720711,"type":"village"},{"id":"2791004209","name":"Ağalığ","lat":41.333673,"lon":48.8752715,"type":"village"},{"id":"2791004274","name":"Şahnəzərli","lat":41.2856127,"lon":48.8782824,"type":"village"},{"id":"2791938410","name":"Aşağı Güzdək","lat":40.4809975,"lon":49.6662012,"type":"village"},{"id":"2791951108","name":"Qobustan qəsəbəsi","lat":40.4971908,"lon":49.4946631,"type":"village"},{"id":"2792126578","name":"Nabur","lat":40.6317854,"lon":48.9220501,"type":"village"},{"id":"2792141192","name":"Sündü","lat":40.6268216,"lon":48.8310573,"type":"village"},{"id":"2792141195","name":"Xilmilli","lat":40.6920174,"lon":48.8640971,"type":"village"},{"id":"2792192461","name":"Yekəxana","lat":40.4732393,"lon":48.7899708,"type":"village"},{"id":"2792217177","name":"Mərzəndiyə","lat":40.590062,"lon":48.7348697,"type":"village"},{"id":"2792217179","name":"Sabir","lat":40.5864188,"lon":48.7054955,"type":"village"},{"id":"2792217181","name":"Təklə Mirzəbaba","lat":40.6257541,"lon":48.7860978,"type":"village"},{"id":"2792217182","name":"Təklə","lat":40.5911137,"lon":48.7786281,"type":"village"},{"id":"2792217186","name":"Ərəbşalbaş","lat":40.6175716,"lon":48.7619895,"type":"village"},{"id":"2792219950","name":"Lək","lat":40.379817,"lon":47.6622971,"type":"village"},{"id":"2792418333","name":"Yuxarı Şilyan","lat":40.3318741,"lon":47.811807,"type":"village"},{"id":"2792418334","name":"Bərgüşad","lat":40.390044,"lon":47.8425804,"type":"village"},{"id":"2792418335","name":"Qaracallı","lat":40.4439469,"lon":47.8551394,"type":"village"},{"id":"2792418336","name":"Çiyni","lat":40.42935,"lon":47.8047198,"type":"village"},{"id":"2792418337","name":"Təzə Şilyan","lat":40.4170423,"lon":47.9401907,"type":"village"},{"id":"2792446584","name":"İkinci Cabanı","lat":40.6627312,"lon":48.6970136,"type":"village"},{"id":"2792499691","name":"Məlhəm","lat":40.6882195,"lon":48.6318416,"type":"village"},{"id":"2792499692","name":"Çuxuryurd","lat":40.7109352,"lon":48.6321424,"type":"village"},{"id":"2792973750","name":"Ortaoba","lat":41.7682161,"lon":48.5738135,"type":"village"},{"id":"2792973752","name":"Xanoba","lat":41.7846276,"lon":48.5671174,"type":"village"},{"id":"2793034436","name":"Şirvanovka","lat":41.6961615,"lon":48.4900131,"type":"village"},{"id":"2793057378","name":"Samur","lat":41.6353186,"lon":48.4291745,"type":"village"},{"id":"2793057382","name":"Yeni Tahircal","lat":41.6626746,"lon":48.4397979,"type":"village"},{"id":"2793244214","name":"Qusarçay","lat":41.5721824,"lon":48.7249931,"type":"village"},{"id":"2793244219","name":"Susayqışlaq","lat":41.6588492,"lon":48.6700456,"type":"village"},{"id":"2794260892","name":"Müqtədir","lat":41.665081,"lon":48.7788129,"type":"village"},{"id":"2794324443","name":"Pirquluoba","lat":41.5542355,"lon":48.6599919,"type":"village"},{"id":"2794363254","name":"Niyazoba","lat":41.5184706,"lon":48.9169248,"type":"village"},{"id":"2794368051","name":"Mürşüdoba","lat":41.5100105,"lon":48.7593846,"type":"village"},{"id":"2794377134","name":"Nərəcan","lat":41.5329088,"lon":48.7482608,"type":"village"},{"id":"2794377135","name":"Palçıqoba","lat":41.5502886,"lon":48.729115,"type":"village"},{"id":"2794377136","name":"Çinartala","lat":41.5471704,"lon":48.7193632,"type":"village"},{"id":"2794380053","name":"Quxuroba","lat":41.5843482,"lon":48.5312533,"type":"village"},{"id":"2794407472","name":"Qadaşoba","lat":41.4965068,"lon":48.7382218,"type":"village"},{"id":"2794422850","name":"Müzəffəroba","lat":41.4978699,"lon":48.7592612,"type":"village"},{"id":"2794446027","name":"Müşkür","lat":41.4937145,"lon":48.7820042,"type":"village"},{"id":"2794464606","name":"Qımılqışlaq","lat":41.4702188,"lon":48.7176134,"type":"village"},{"id":"2794464608","name":"Üçgünqışlaq","lat":41.441742,"lon":48.7295305,"type":"village"},{"id":"2794474593","name":"Barlı","lat":41.4030119,"lon":48.6894059,"type":"village"},{"id":"2794474600","name":"Əliməmmədoba","lat":41.4512828,"lon":48.6758761,"type":"village"},{"id":"2795746755","name":"İmamqulukənd","lat":41.5550324,"lon":48.4366628,"type":"village"},{"id":"2795773854","name":"Gədəzeyxur","lat":41.4877115,"lon":48.4234565,"type":"village"},{"id":"2795773855","name":"Hil","lat":41.4706801,"lon":48.3399592,"type":"village"},{"id":"2795773857","name":"Köhnə Xudat Qusar","lat":41.4592571,"lon":48.4214134,"type":"village"},{"id":"2795773858","name":"Piral","lat":41.4921295,"lon":48.283272,"type":"village"},{"id":"2795773859","name":"Yasab","lat":41.4887696,"lon":48.3186455,"type":"village"},{"id":"2795812791","name":"Aşağı Ləgər","lat":41.4969709,"lon":48.4517858,"type":"village"},{"id":"2795812795","name":"Hacıhüseynli","lat":41.4522983,"lon":48.6432143,"type":"village"},{"id":"2795812796","name":"Kuzunqışlaq","lat":41.5004313,"lon":48.6203074,"type":"village"},{"id":"2795912906","name":"Aşağı Atuc","lat":41.4476248,"lon":48.5696304,"type":"village"},{"id":"2795912907","name":"Hacıqaib","lat":41.4273582,"lon":48.655546,"type":"village"},{"id":"2795912909","name":"Zərdabi","lat":41.3973726,"lon":48.6418711,"type":"village"},{"id":"2795937462","name":"İqrıq","lat":41.3646083,"lon":48.6017882,"type":"village"},{"id":"2796242886","name":"Qaçquç","lat":41.4222456,"lon":48.4410067,"type":"village"},{"id":"2796267623","name":"Bala Qusar","lat":41.4500972,"lon":48.4930161,"type":"village"},{"id":"2797382618","name":"Əmirxanlı","lat":41.127107,"lon":48.926387,"type":"village"},{"id":"2798033507","name":"Zeyvə","lat":41.1977525,"lon":48.7430069,"type":"village"},{"id":"2798033508","name":"Zərqava","lat":41.2416082,"lon":48.7009248,"type":"village"},{"id":"2799292930","name":"28 May Qəsəbəsi","lat":40.4615372,"lon":49.6390504,"type":"village"},{"id":"2799406081","name":"Nağaraxana","lat":40.7438727,"lon":48.6329561,"type":"village"},{"id":"2799406084","name":"Qızmeydan","lat":40.7719402,"lon":48.7445867,"type":"village"},{"id":"2800360031","name":"Şəhriyar","lat":40.6103834,"lon":48.6402888,"type":"village"},{"id":"2800401536","name":"Meysəri","lat":40.6633771,"lon":48.585999,"type":"village"},{"id":"2800401537","name":"Muğanlı","lat":40.6665721,"lon":48.526955,"type":"village"},{"id":"2800419573","name":"Mirikənd","lat":40.6452258,"lon":48.5427941,"type":"village"},{"id":"2800419574","name":"Qaravəlli","lat":40.6318788,"lon":48.5473788,"type":"village"},{"id":"2800419576","name":"Mədrəsə","lat":40.6139121,"lon":48.5605375,"type":"village"},{"id":"2800440852","name":"Adnalı","lat":40.5716021,"lon":48.618996,"type":"village"},{"id":"2800440854","name":"Məlikçobanlı","lat":40.5414749,"lon":48.6866891,"type":"village"},{"id":"2800440856","name":"Çarhan","lat":40.5526884,"lon":48.6464193,"type":"village"},{"id":"2800848217","name":"Kalva","lat":40.7265098,"lon":48.4810957,"type":"village"},{"id":"2801142732","name":"Aran","lat":40.6261638,"lon":46.9801621,"type":"village"},{"id":"2801437422","name":"Qızılhacılı","lat":40.5749338,"lon":46.8478126,"type":"village"},{"id":"2801437423","name":"Balakürd","lat":40.5888753,"lon":46.8377051,"type":"village"},{"id":"2801437424","name":"Nərimanlı","lat":40.6002266,"lon":46.8353841,"type":"village"},{"id":"2801461202","name":"Varvara","lat":40.6771628,"lon":47.0924553,"type":"village"},{"id":"2801461204","name":"Balçılı","lat":40.6768221,"lon":47.0448251,"type":"village"},{"id":"2801461205","name":"Salahlı","lat":40.6865188,"lon":47.0213499,"type":"village"},{"id":"2801461206","name":"Hürüuşağı","lat":40.7182049,"lon":47.017966,"type":"village"},{"id":"2801461208","name":"Tanriqulular","lat":40.71356,"lon":46.9755142,"type":"village"},{"id":"2801514969","name":"Tircan","lat":40.7366105,"lon":48.3317393,"type":"village"},{"id":"2801567004","name":"Diyallı","lat":40.7674031,"lon":48.2285803,"type":"village"},{"id":"2801577970","name":"Talıstan","lat":40.7991261,"lon":48.1976744,"type":"village"},{"id":"2801610797","name":"Qalıncaq","lat":40.8193667,"lon":48.0897385,"type":"village"},{"id":"2801686680","name":"Quşencə","lat":40.7330323,"lon":48.1131384,"type":"village"},{"id":"2801686681","name":"Ruşan","lat":40.8022124,"lon":48.0000217,"type":"village"},{"id":"2801723266","name":"Kürdmaşı","lat":40.6734052,"lon":48.0373256,"type":"village"},{"id":"2801759781","name":"Hacıhətəmli","lat":40.7007952,"lon":47.9046016,"type":"village"},{"id":"2801861400","name":"Xanəgah","lat":40.8484598,"lon":48.1460984,"type":"village"},{"id":"2801924533","name":"Məmmədağalı","lat":40.8637257,"lon":47.982683,"type":"village"},{"id":"2801924535","name":"Topçu","lat":40.8755848,"lon":48.0637417,"type":"village"},{"id":"2803624022","name":"Həsənqala","lat":41.451677,"lon":48.5108232,"type":"village"},{"id":"2803624023","name":"Köhnə Xudat Qazmalar","lat":41.4626445,"lon":48.4721865,"type":"village"},{"id":"2803820710","name":"Yuxarı Qələnxur","lat":41.4924486,"lon":48.1292928,"type":"village"},{"id":"2804024434","name":"Ger","lat":41.3579064,"lon":48.0643788,"type":"village"},{"id":"2804024441","name":"Archan","lat":41.3490505,"lon":48.0580691,"type":"village"},{"id":"2806589804","name":"Dağ Bağırlı","lat":40.5056909,"lon":48.6616136,"type":"village"},{"id":"2806589805","name":"Göylər Dağ","lat":40.4926077,"lon":48.6780663,"type":"village"},{"id":"2806589808","name":"Nüydi","lat":40.5292828,"lon":48.6358504,"type":"village"},{"id":"2806589809","name":"Poladlı","lat":40.4195175,"lon":48.8162302,"type":"village"},{"id":"2806589810","name":"Quşçu","lat":40.4356306,"lon":48.7346112,"type":"village"},{"id":"2807101508","name":"Cəlayir","lat":40.3600536,"lon":48.4205207,"type":"village"},{"id":"2807101513","name":"Kəndoba","lat":40.4028821,"lon":48.4420608,"type":"village"},{"id":"2807101514","name":"Muğanlı","lat":40.3208145,"lon":48.3249315,"type":"village"},{"id":"2807101515","name":"Qaradağ Ağsu","lat":40.4001967,"lon":48.4031373,"type":"village"},{"id":"2808123048","name":"Padarqışlaq","lat":40.5913674,"lon":48.2313313,"type":"village"},{"id":"2808140306","name":"Məlikçobanlı","lat":40.5142165,"lon":48.2719546,"type":"village"},{"id":"2808140308","name":"Qaraqoyunlu","lat":40.5401021,"lon":48.300732,"type":"village"},{"id":"2808140311","name":"Çiyni","lat":40.5245217,"lon":48.2466336,"type":"village"},{"id":"2808140312","name":"İlxıçı","lat":40.4914125,"lon":48.2946113,"type":"village"},{"id":"2808151377","name":"Ərəbmehdibəy","lat":40.5364662,"lon":48.1754832,"type":"village"},{"id":"2808151378","name":"Ərəbsarvan","lat":40.5369145,"lon":48.2214467,"type":"village"},{"id":"2808162141","name":"Gəraybəyli","lat":40.628501,"lon":48.211664,"type":"village"},{"id":"2808205002","name":"Qarayazı","lat":40.6283888,"lon":47.9757847,"type":"village"},{"id":"2809413038","name":"Böyük Kəngərli","lat":40.4418455,"lon":48.3359828,"type":"village"},{"id":"2809413039","name":"Cəyli","lat":40.4317449,"lon":48.2633955,"type":"village"},{"id":"2809413040","name":"Dəyirmanlı","lat":40.3870995,"lon":48.1495723,"type":"village"},{"id":"2809413041","name":"Karrar Qəsəbəsi","lat":40.3069589,"lon":48.2627104,"type":"village"},{"id":"2809413042","name":"Mürtülü","lat":40.3784792,"lon":48.1747067,"type":"village"},{"id":"2809413043","name":"Qaraqocalı","lat":40.3812654,"lon":48.1948335,"type":"village"},{"id":"2809413044","name":"Qarasaqqal","lat":40.3809156,"lon":48.2925591,"type":"village"},{"id":"2809413050","name":"Xırdapay","lat":40.3662412,"lon":48.1599425,"type":"village"},{"id":"2809413056","name":"Şahsevən","lat":40.3711867,"lon":48.1932137,"type":"village"},{"id":"2809413057","name":"Şıxımlı","lat":40.3637628,"lon":48.1810057,"type":"village"},{"id":"2811337995","name":"Qəribli","lat":40.620877,"lon":47.2891315,"type":"village"},{"id":"2811337998","name":"Eymur","lat":40.5480814,"lon":47.247319,"type":"village"},{"id":"2811350045","name":"Əmirarx","lat":40.5560893,"lon":47.3800236,"type":"village"},{"id":"2811383528","name":"Nehrəxəlil","lat":40.5725612,"lon":47.4455644,"type":"village"},{"id":"2811383529","name":"Kotanarx","lat":40.590079,"lon":47.4914324,"type":"village"},{"id":"2811389371","name":"Cardam","lat":40.5721709,"lon":47.5140982,"type":"village"},{"id":"2811389372","name":"Tofiqi","lat":40.5788846,"lon":47.542706,"type":"village"},{"id":"2813687139","name":"Babək","lat":39.1580814,"lon":45.4427763,"type":"town"},{"id":"2813785220","name":"Qalacıq","lat":40.9626721,"lon":48.0437509,"type":"village"},{"id":"2813796340","name":"İstisu","lat":40.9406456,"lon":48.0710043,"type":"village"},{"id":"2813808369","name":"Buynuz","lat":40.9184327,"lon":48.064124,"type":"village"},{"id":"2813808370","name":"Sumağallı","lat":40.9166209,"lon":48.0452493,"type":"village"},{"id":"2813832545","name":"Vəndam","lat":40.9471208,"lon":47.9442068,"type":"village"},{"id":"2813968619","name":"Nohurqışlaq","lat":40.9429747,"lon":47.8994877,"type":"village"},{"id":"2813968620","name":"Tüntül","lat":40.9166679,"lon":47.8736849,"type":"village"},{"id":"2813968621","name":"Yengicə","lat":40.8730859,"lon":47.8554368,"type":"village"},{"id":"2814013526","name":"Bum","lat":41.0087163,"lon":47.776249,"type":"village"},{"id":"2814013527","name":"Cığatelli","lat":40.9730144,"lon":47.7777468,"type":"village"},{"id":"2814013529","name":"Həmzəli","lat":40.9979963,"lon":47.8061587,"type":"village"},{"id":"2814013532","name":"Tikanlı","lat":41.0241292,"lon":47.7574017,"type":"village"},{"id":"2814013533","name":"Xırxatala","lat":40.9621481,"lon":47.7611566,"type":"village"},{"id":"2814021228","name":"Aydınqışlaq","lat":40.9223888,"lon":47.8160645,"type":"village"},{"id":"2814021229","name":"Zarağan","lat":40.9290265,"lon":47.8037938,"type":"village"},{"id":"2819048773","name":"Qarasu","lat":40.3169644,"lon":47.9902673,"type":"village"},{"id":"2819048774","name":"Şilyan","lat":40.3221979,"lon":48.029609,"type":"village"},{"id":"2821219298","name":"Çallı","lat":40.3171571,"lon":47.6860178,"type":"village"},{"id":"2821219299","name":"Xələc","lat":40.3455346,"lon":47.6813362,"type":"village"},{"id":"2821351507","name":"Qaralar","lat":40.0337042,"lon":48.5176291,"type":"village"},{"id":"2821351509","name":"Əsədli","lat":40.0113955,"lon":48.5220106,"type":"village"},{"id":"2821361857","name":"Kürkəndi","lat":40.0244252,"lon":48.4840814,"type":"village"},{"id":"2824758095","name":"Hacıselli","lat":40.7166999,"lon":47.1214457,"type":"village"},{"id":"2824759826","name":"Bəydili","lat":40.7176681,"lon":47.169875,"type":"village"},{"id":"2824784850","name":"Yenicə","lat":40.7156725,"lon":47.2034098,"type":"village"},{"id":"2824810481","name":"Kötüklü","lat":40.9776411,"lon":47.704381,"type":"village"},{"id":"2824810482","name":"Mıxlıqovaq","lat":40.9885669,"lon":47.7252933,"type":"village"},{"id":"2824810483","name":"Uludaş","lat":40.9815594,"lon":47.7388084,"type":"village"},{"id":"2824811858","name":"Yuxarı Salamabad","lat":40.7081879,"lon":47.2129363,"type":"village"},{"id":"2824811859","name":"Aşağı Salamabad","lat":40.701962,"lon":47.2002446,"type":"village"},{"id":"2824811860","name":"Əcəmi","lat":40.6992365,"lon":47.1886051,"type":"village"},{"id":"2824813987","name":"Quşçu","lat":40.694786,"lon":47.2365397,"type":"village"},{"id":"2824821666","name":"Qaraoğlan","lat":40.6577877,"lon":47.1905752,"type":"village"},{"id":"2824869041","name":"Böyük Pirəli","lat":40.9111167,"lon":47.7925315,"type":"village"},{"id":"2824869042","name":"Böyük Əmili","lat":40.8595462,"lon":47.748403,"type":"village"},{"id":"2824869043","name":"Corlu","lat":40.9320077,"lon":47.7294238,"type":"village"},{"id":"2824869044","name":"Kiçik Pirəli","lat":40.9170768,"lon":47.7676313,"type":"village"},{"id":"2824869045","name":"Kiçik Əmili","lat":40.8492458,"lon":47.7908085,"type":"village"},{"id":"2824869046","name":"Mirzəbəyli","lat":40.921571,"lon":47.7271996,"type":"village"},{"id":"2824869047","name":"Soltannuxa","lat":40.8940629,"lon":47.7763957,"type":"village"},{"id":"2824869048","name":"Tövlə","lat":40.8826997,"lon":47.7269261,"type":"village"},{"id":"2824869049","name":"İmamlı","lat":40.9417933,"lon":47.7443178,"type":"village"},{"id":"2824935282","name":"Dizaxlı","lat":40.858708,"lon":47.6752762,"type":"village"},{"id":"2824935283","name":"Hacıalılı","lat":40.8416371,"lon":47.7290828,"type":"village"},{"id":"2824935284","name":"Mamaylı","lat":40.819163,"lon":47.7403712,"type":"village"},{"id":"2824935286","name":"Zirik","lat":40.8579199,"lon":47.6631269,"type":"village"},{"id":"2824935287","name":"Çarxana","lat":40.8357263,"lon":47.7067136,"type":"village"},{"id":"2824935288","name":"Şamlı","lat":40.8462228,"lon":47.7213649,"type":"village"},{"id":"2824965583","name":"Kürd","lat":40.8057445,"lon":47.6913854,"type":"village"},{"id":"2824965584","name":"Mollaşıxalı","lat":40.8372807,"lon":47.8018991,"type":"village"},{"id":"2824965586","name":"Zalam","lat":40.8449181,"lon":47.8109433,"type":"village"},{"id":"2824968423","name":"Çuxur Qəbələ","lat":40.887474,"lon":47.6950424,"type":"village"},{"id":"2824976545","name":"Bılıx","lat":40.8205685,"lon":47.8451865,"type":"village"},{"id":"2824976546","name":"Topbağ","lat":40.8215554,"lon":47.8248104,"type":"village"},{"id":"2824976547","name":"Yenikənd","lat":40.8316653,"lon":47.8324539,"type":"village"},{"id":"2825016820","name":"Bayramkoxalı","lat":40.7906997,"lon":47.7731599,"type":"village"},{"id":"2825016821","name":"Məlikli","lat":40.798298,"lon":47.8484111,"type":"village"},{"id":"2825016823","name":"Əmirvan","lat":40.8307305,"lon":47.8961185,"type":"village"},{"id":"2828801313","name":"Tap Qaraqoyunlu","lat":40.4295785,"lon":46.7671208,"type":"village"},{"id":"2831219267","name":"Yenicə","lat":40.542171,"lon":47.4846641,"type":"village"},{"id":"2831230246","name":"Əlikənd","lat":40.4945848,"lon":47.5093387,"type":"village"},{"id":"2831230247","name":"Ramal","lat":40.4995942,"lon":47.4936532,"type":"village"},{"id":"2831230248","name":"Şahlıq","lat":40.4677203,"lon":47.4895762,"type":"village"},{"id":"2831243162","name":"Məlikballı","lat":40.5444319,"lon":47.5440828,"type":"village"},{"id":"2831243383","name":"Qazıqumlaq","lat":40.5343132,"lon":47.5208979,"type":"village"},{"id":"2831271899","name":"Çiyni","lat":40.5240151,"lon":47.5723376,"type":"village"},{"id":"2831280676","name":"Quləbənd","lat":40.4814405,"lon":47.7197136,"type":"village"},{"id":"2831284254","name":"Alpı","lat":40.4911397,"lon":47.7351657,"type":"village"},{"id":"2831334780","name":"Ənvər Məmmədxanlı","lat":40.4501045,"lon":47.7873432,"type":"village"},{"id":"2831334917","name":"Türkəci","lat":40.4692884,"lon":47.7830656,"type":"village"},{"id":"2836350909","name":"Təzəkənd","lat":40.2037509,"lon":47.7239074,"type":"village"},{"id":"2836350966","name":"Gəlmə","lat":40.2177913,"lon":47.6888823,"type":"village"},{"id":"2836351036","name":"Əlibəyli","lat":40.2036116,"lon":47.6826239,"type":"village"},{"id":"2836357477","name":"Allahqulubağı","lat":40.1890193,"lon":47.6650279,"type":"village"},{"id":"2836358134","name":"Salahlı","lat":40.2314675,"lon":47.6895134,"type":"village"},{"id":"2836359748","name":"Nəcəfqulubəyli","lat":40.1649867,"lon":47.5518045,"type":"village"},{"id":"2836360042","name":"Lələağacı","lat":40.1863838,"lon":47.6256673,"type":"village"},{"id":"2836360043","name":"Yarməmmədbağı","lat":40.1819603,"lon":47.6081978,"type":"village"},{"id":"2836360044","name":"Pərvanlı","lat":40.1881814,"lon":47.57627,"type":"village"},{"id":"2836360045","name":"Məmmədqasımlı","lat":40.2018358,"lon":47.5923197,"type":"village"},{"id":"2836389847","name":"Qoruqbağı","lat":40.186851,"lon":47.5480219,"type":"village"},{"id":"2836389848","name":"Sarıqaya","lat":40.1888263,"lon":47.5293695,"type":"village"},{"id":"2836389882","name":"Məlikli","lat":40.2080564,"lon":47.5294776,"type":"village"},{"id":"2837245763","name":"Orta Ləki","lat":40.5159891,"lon":47.4186239,"type":"village"},{"id":"2837245764","name":"Yuxarı Ləki","lat":40.5286222,"lon":47.4279045,"type":"village"},{"id":"2837247265","name":"Şəmsabad","lat":40.6191766,"lon":47.5609455,"type":"village"},{"id":"2837273620","name":"Qarağan Saatlı","lat":40.6030182,"lon":47.5494505,"type":"village"},{"id":"2837273658","name":"Birinci Aral","lat":40.6061299,"lon":47.5878433,"type":"village"},{"id":"2837282275","name":"Xosrov","lat":40.630995,"lon":47.5811848,"type":"village"},{"id":"2837303289","name":"Küçəkənd","lat":40.4816717,"lon":47.7990757,"type":"village"},{"id":"2837848309","name":"Şordəhnə","lat":40.6201028,"lon":47.5318934,"type":"village"},{"id":"2838204182","name":"Calut","lat":41.0725967,"lon":47.4236175,"type":"village"},{"id":"2838204184","name":"Qumlaq","lat":41.0252031,"lon":47.4871657,"type":"village"},{"id":"2838219106","name":"Padar Oğuz","lat":40.9628239,"lon":47.5171972,"type":"village"},{"id":"2838250058","name":"Bayan","lat":41.022756,"lon":47.4490067,"type":"village"},{"id":"2838250059","name":"Kərimli","lat":40.9747941,"lon":47.4843895,"type":"village"},{"id":"2838355356","name":"Böyük Söyüdlü","lat":40.8647804,"lon":47.5407617,"type":"village"},{"id":"2838397842","name":"Cəyirli","lat":40.8867325,"lon":47.2698834,"type":"village"},{"id":"2838397843","name":"Qayabaşı","lat":40.8908978,"lon":47.3491937,"type":"village"},{"id":"2838397844","name":"Qozlubulaq","lat":40.9184742,"lon":47.3044418,"type":"village"},{"id":"2838397845","name":"Sarıca","lat":40.8747143,"lon":47.3418216,"type":"village"},{"id":"2838397846","name":"Turan","lat":40.858673,"lon":47.2450679,"type":"village"},{"id":"2838397847","name":"Çayqaraqoyunlu","lat":40.8396918,"lon":47.2339201,"type":"village"},{"id":"2840016250","name":"Zağalı","lat":40.4592931,"lon":46.0640128,"type":"village"},{"id":"2840018425","name":"Xoşbulaq kənd","lat":40.4668464,"lon":46.0208942,"type":"village"},{"id":"2840032040","name":"Təzəkənd","lat":40.4613417,"lon":45.9366809,"type":"village"},{"id":"2840032315","name":"Qabaqtəpə","lat":40.4778185,"lon":45.9071058,"type":"village"},{"id":"2840032358","name":"Güneykənd","lat":40.4938021,"lon":45.898728,"type":"village"},{"id":"2840032521","name":"Dəvrallı","lat":40.5129673,"lon":45.9065521,"type":"village"},{"id":"2840040440","name":"Əmirvar","lat":40.5193777,"lon":45.9298505,"type":"village"},{"id":"2840054678","name":"Alunitdağ qəsəbəsi","lat":40.5289894,"lon":46.0533096,"type":"village"},{"id":"2841856079","name":"Kiş","lat":41.2520768,"lon":47.1933304,"type":"village"},{"id":"2841858694","name":"Oxud","lat":41.2362568,"lon":47.1578364,"type":"village"},{"id":"2841904458","name":"Baş Küngüt","lat":41.1599504,"lon":47.3218952,"type":"village"},{"id":"2841904459","name":"Baş Kəldək","lat":41.1642112,"lon":47.3343467,"type":"village"},{"id":"2841904460","name":"Bideyiz","lat":41.1296532,"lon":47.3114275,"type":"village"},{"id":"2841904461","name":"Muxas","lat":41.104498,"lon":47.3837681,"type":"village"},{"id":"2841904462","name":"Oraban","lat":41.1465223,"lon":47.3412011,"type":"village"},{"id":"2841948601","name":"Baş Zəyzid","lat":41.1909799,"lon":47.2463392,"type":"village"},{"id":"2841948602","name":"Orta Zəyzid","lat":41.1670673,"lon":47.2392349,"type":"village"},{"id":"2841948603","name":"Vərəzət","lat":41.1763152,"lon":47.2296856,"type":"village"},{"id":"2841951002","name":"Köbər Zəyzid","lat":41.1149233,"lon":47.2509999,"type":"village"},{"id":"2841979153","name":"Aşağı Küngüt","lat":41.0590929,"lon":47.255176,"type":"village"},{"id":"2841979154","name":"Fazil","lat":41.033591,"lon":47.2292392,"type":"village"},{"id":"2841979158","name":"İbrahimkənd","lat":41.021842,"lon":47.2270067,"type":"village"},{"id":"2842044849","name":"Baltalı","lat":41.182288,"lon":47.0919719,"type":"village"},{"id":"2842044851","name":"Qoxmuq","lat":41.2101569,"lon":47.1384703,"type":"village"},{"id":"2842150604","name":"Aşağı Nemətabad","lat":40.6831758,"lon":47.3028128,"type":"village"},{"id":"2842154767","name":"Zunud","lat":41.2653681,"lon":47.1075819,"type":"village"},{"id":"2842154768","name":"İnçə","lat":41.2530512,"lon":47.1023228,"type":"village"},{"id":"2842185392","name":"Aşağı Qobuüstü","lat":40.7006134,"lon":47.301597,"type":"village"},{"id":"2842186342","name":"Yuxarı Nemətabad","lat":40.713705,"lon":47.3177754,"type":"village"},{"id":"2842186402","name":"Qobuüstü","lat":40.7159088,"lon":47.3094123,"type":"village"},{"id":"2842220099","name":"Baş Göynük","lat":41.3252229,"lon":47.1138452,"type":"village"},{"id":"2842248001","name":"Pirkəkə","lat":40.7112722,"lon":47.3951075,"type":"village"},{"id":"2842248029","name":"Ərəbocağı","lat":40.7330499,"lon":47.4019721,"type":"village"},{"id":"2842248055","name":"Qoşaqovaq","lat":40.7151911,"lon":47.4467907,"type":"village"},{"id":"2842269938","name":"Şəkili","lat":40.6941253,"lon":47.4652313,"type":"village"},{"id":"2842269988","name":"Korarx","lat":40.6820606,"lon":47.4379456,"type":"village"},{"id":"2842420468","name":"Köndələn","lat":41.2711779,"lon":47.0152953,"type":"village"},{"id":"2844295190","name":"Bəyimli","lat":40.2524684,"lon":47.8238306,"type":"village"},{"id":"2844298302","name":"Məlikumudlu","lat":40.3287375,"lon":47.7427016,"type":"village"},{"id":"2844312520","name":"Vəlixanlı","lat":40.2036112,"lon":47.8529455,"type":"village"},{"id":"2844331888","name":"Baş Layısqı","lat":41.3497461,"lon":47.0882397,"type":"village"},{"id":"2844331889","name":"Cumakənd","lat":41.212943,"lon":46.9346525,"type":"village"},{"id":"2844331890","name":"Qumux","lat":41.3609468,"lon":47.0780986,"type":"village"},{"id":"2844331891","name":"Şin","lat":41.3540168,"lon":47.1127604,"type":"village"},{"id":"2844335414","name":"Dəkkəoba","lat":40.199075,"lon":47.7443966,"type":"village"},{"id":"2844365191","name":"Böyük Dəkkə","lat":40.1876968,"lon":47.7455578,"type":"village"},{"id":"2844365626","name":"İsaqbağı","lat":40.1819575,"lon":47.7598054,"type":"village"},{"id":"2844365685","name":"Qaravəlli","lat":40.1712862,"lon":47.7782943,"type":"village"},{"id":"2844372113","name":"Aşağı Göynük","lat":41.2816231,"lon":47.0042341,"type":"village"},{"id":"2844386537","name":"Nəzəralılı","lat":40.1495086,"lon":47.7804123,"type":"village"},{"id":"2844386572","name":"Şıxbağı","lat":40.1329821,"lon":47.8003175,"type":"village"},{"id":"2844398581","name":"Gəndəbil","lat":40.1162124,"lon":47.7993992,"type":"village"},{"id":"2844398582","name":"Ağabağı","lat":40.1081582,"lon":47.8117261,"type":"village"},{"id":"2844418065","name":"Baydarlı","lat":41.2803222,"lon":46.8706571,"type":"village"},{"id":"2844418066","name":"İkinci Biləcik","lat":41.3185596,"lon":46.9568509,"type":"village"},{"id":"2844418068","name":"Oncallı","lat":41.2801037,"lon":46.8617221,"type":"village"},{"id":"2844418073","name":"Əmbərçay","lat":41.3793052,"lon":46.9360952,"type":"village"},{"id":"2844419666","name":"Ağamalılar","lat":40.0951475,"lon":47.8172285,"type":"village"},{"id":"2844430165","name":"Qıpçaq","lat":41.3029122,"lon":46.8345557,"type":"village"},{"id":"2844433433","name":"Şəftəhal","lat":40.1178585,"lon":47.8430922,"type":"village"},{"id":"2844433469","name":"Aşağı Seyidlər","lat":40.1194201,"lon":47.8611351,"type":"village"},{"id":"2844433499","name":"Əlvənd","lat":40.1068276,"lon":47.8737076,"type":"village"},{"id":"2844434235","name":"Otmanoba","lat":40.0922343,"lon":47.9018546,"type":"village"},{"id":"2844459218","name":"Söyüdlər","lat":40.1018133,"lon":47.9331386,"type":"village"},{"id":"2844467802","name":"Sovla","lat":40.0997864,"lon":47.9580351,"type":"village"},{"id":"2844467837","name":"Məmmədli","lat":40.0907543,"lon":47.9948358,"type":"village"},{"id":"2844476050","name":"Cəlayir","lat":41.3191859,"lon":46.8012047,"type":"village"},{"id":"2844476051","name":"Dəymədağlı","lat":41.3313435,"lon":46.7793731,"type":"village"},{"id":"2844476052","name":"Lələli","lat":41.3480646,"lon":46.6748495,"type":"village"},{"id":"2844476054","name":"Qaratala","lat":41.326132,"lon":46.8707387,"type":"village"},{"id":"2844476058","name":"İbaxlı","lat":41.3587795,"lon":46.8623458,"type":"village"},{"id":"2844476059","name":"İngiloy Kötüklü","lat":41.3332595,"lon":46.8600298,"type":"village"},{"id":"2844476061","name":"Əlibəyli","lat":41.3775836,"lon":46.8232199,"type":"village"},{"id":"2844476333","name":"Köhünlü","lat":40.1288281,"lon":47.9808711,"type":"village"},{"id":"2844476334","name":"Şüşün","lat":40.1350986,"lon":48.0032205,"type":"village"},{"id":"2844476335","name":"Qaramahmudlu","lat":40.1481967,"lon":48.0367341,"type":"village"},{"id":"2844485792","name":"Əliyetməzli","lat":40.1237228,"lon":48.029805,"type":"village"},{"id":"2844538572","name":"Dəli Quşçu","lat":40.2180177,"lon":47.7525343,"type":"village"},{"id":"2845435350","name":"Şahhüseynli","lat":40.139587,"lon":47.8731362,"type":"village"},{"id":"2845778607","name":"Qax İngiloy","lat":41.4289636,"lon":46.9513605,"type":"village"},{"id":"2845874408","name":"Boluslu","lat":40.6344303,"lon":46.8567806,"type":"village"},{"id":"2845932364","name":"Aşağı Ballıqaya","lat":40.5661572,"lon":46.8785772,"type":"village"},{"id":"2846065028","name":"Şahməmmədli","lat":40.5992193,"lon":46.7639255,"type":"village"},{"id":"2846065029","name":"Qarasüleymanlı","lat":40.6037727,"lon":46.774032,"type":"village"},{"id":"2846088645","name":"Rəhimli","lat":40.583691,"lon":46.747591,"type":"village"},{"id":"2846096815","name":"Veyisli","lat":40.588336,"lon":46.7221971,"type":"village"},{"id":"2846177208","name":"Nərimanlı","lat":40.6838569,"lon":46.0853953,"type":"village"},{"id":"2846234477","name":"Qırıqlı","lat":40.7074948,"lon":46.7559543,"type":"village"},{"id":"2846244165","name":"Qaramusalı","lat":40.7274692,"lon":46.7505719,"type":"village"},{"id":"2846244210","name":"Xınalı","lat":40.7256175,"lon":46.7274667,"type":"village"},{"id":"2846257708","name":"Kələk","lat":40.7294515,"lon":46.6842355,"type":"village"},{"id":"2846257766","name":"Qarasuçu","lat":40.7522341,"lon":46.6739355,"type":"village"},{"id":"2846257912","name":"Hazırəhmədli","lat":40.7330992,"lon":46.6414562,"type":"village"},{"id":"2846260279","name":"Qazançı","lat":40.6749829,"lon":46.719717,"type":"village"},{"id":"2846269405","name":"Goranlı","lat":40.6800113,"lon":46.6997614,"type":"village"},{"id":"2846277548","name":"Kəhrizli","lat":40.695055,"lon":46.6314672,"type":"village"},{"id":"2846277573","name":"Səmədabad","lat":40.6822829,"lon":46.6518306,"type":"village"},{"id":"2846287849","name":"Muzdurlar","lat":40.6993514,"lon":46.6073796,"type":"village"},{"id":"2846304327","name":"Sarov","lat":40.725207,"lon":46.590851,"type":"village"},{"id":"2846304356","name":"Fəxralı","lat":40.7476011,"lon":46.5597344,"type":"village"},{"id":"2846317730","name":"Alpout","lat":40.7522274,"lon":46.538325,"type":"village"},{"id":"2846319633","name":"Yuxarı Ağasıbəyli","lat":40.7551138,"lon":46.5036233,"type":"village"},{"id":"2846405607","name":"Böyük Alatəmir","lat":41.4151961,"lon":46.8228429,"type":"village"},{"id":"2846405611","name":"Qum","lat":41.4559065,"lon":46.9092811,"type":"village"},{"id":"2846491314","name":"Ləkit","lat":41.4847728,"lon":46.8431653,"type":"village"},{"id":"2846491315","name":"Lələpaşa","lat":41.4322496,"lon":46.7201456,"type":"village"},{"id":"2846491316","name":"Marsan","lat":41.4296575,"lon":46.7647348,"type":"village"},{"id":"2846491318","name":"Tasmalı","lat":41.426141,"lon":46.7039204,"type":"village"},{"id":"2846491319","name":"Turaclı","lat":41.414644,"lon":46.7735495,"type":"village"},{"id":"2846491320","name":"Zərnə","lat":41.5103795,"lon":46.8182077,"type":"village"},{"id":"2846507188","name":"Qorağan","lat":41.3819272,"lon":46.7411471,"type":"village"},{"id":"2846507189","name":"Şotavar","lat":41.3892362,"lon":46.7164047,"type":"village"},{"id":"2846569979","name":"Bəhmətli","lat":41.4569532,"lon":46.6381002,"type":"village"},{"id":"2846569980","name":"Gözbarax","lat":41.5205307,"lon":46.7389906,"type":"village"},{"id":"2846569981","name":"Güllük","lat":41.5028465,"lon":46.7603689,"type":"village"},{"id":"2846569983","name":"Lahıc Zaqatala","lat":41.4305249,"lon":46.6464624,"type":"village"},{"id":"2846569984","name":"Mamrux","lat":41.54285,"lon":46.7659804,"type":"village"},{"id":"2846569985","name":"Qarabaldır","lat":41.4092345,"lon":46.7182979,"type":"village"},{"id":"2846569986","name":"Yeni Suvagil","lat":41.4787266,"lon":46.7057395,"type":"village"},{"id":"2846569987","name":"Zəyəm","lat":41.4110993,"lon":46.6840464,"type":"village"},{"id":"2846569988","name":"Əliabad","lat":41.47917,"lon":46.6179399,"type":"village"},{"id":"2846670367","name":"Bazar kəndi","lat":41.5406997,"lon":46.6648425,"type":"village"},{"id":"2846670369","name":"Muxax","lat":41.5683708,"lon":46.7035458,"type":"village"},{"id":"2846670372","name":"Yuxarı Çardaxlar","lat":41.5762215,"lon":46.7524695,"type":"village"},{"id":"2846670374","name":"Çobankol","lat":41.5369825,"lon":46.7004666,"type":"village"},{"id":"2847494091","name":"Düzqışlaq","lat":40.7169843,"lon":46.5292161,"type":"village"},{"id":"2847501386","name":"Yəhərçi Qazaxlar","lat":40.7544802,"lon":46.6056482,"type":"village"},{"id":"2847502038","name":"Dəliməmmədli","lat":40.6937715,"lon":46.5704035,"type":"village"},{"id":"2847502060","name":"Quşçular","lat":40.7146411,"lon":46.5606833,"type":"village"},{"id":"2847509324","name":"Bağçakürd","lat":40.735452,"lon":46.5089158,"type":"village"},{"id":"2847509337","name":"Azad","lat":40.6940113,"lon":46.5111894,"type":"village"},{"id":"2847509364","name":"Alıuşağı","lat":40.6945545,"lon":46.4739542,"type":"village"},{"id":"2847509383","name":"Zazalı","lat":40.7140672,"lon":46.469154,"type":"village"},{"id":"2847509392","name":"Qiyaslı","lat":40.7290854,"lon":46.4745949,"type":"village"},{"id":"2847509424","name":"Tatlı","lat":40.7197439,"lon":46.4449797,"type":"village"},{"id":"2847513363","name":"Əhmədbəyli","lat":40.7421826,"lon":46.4712395,"type":"village"},{"id":"2847513383","name":"Qarabağlar","lat":40.7521002,"lon":46.4574924,"type":"village"},{"id":"2847513408","name":"Çobanabdallı","lat":40.7512668,"lon":46.433813,"type":"village"},{"id":"2847515224","name":"Samux","lat":40.7634543,"lon":46.4049063,"type":"town"},{"id":"2847523897","name":"Sərkar","lat":40.7613162,"lon":46.3765357,"type":"village"},{"id":"2847523898","name":"Ziyadlı","lat":40.76634,"lon":46.3616247,"type":"village"},{"id":"2847552073","name":"Nadil","lat":40.7388745,"lon":46.2878862,"type":"village"},{"id":"2847553004","name":"Quşqara","lat":40.7161175,"lon":46.2961176,"type":"village"},{"id":"2847553026","name":"Səmədli","lat":40.7176078,"lon":46.2825402,"type":"village"},{"id":"2847561195","name":"Balçılı","lat":40.6835537,"lon":46.2713566,"type":"village"},{"id":"2847561196","name":"Cümşüdlü","lat":40.6648807,"lon":46.2602066,"type":"village"},{"id":"2847561197","name":"Qırıqlı","lat":40.6566979,"lon":46.2589717,"type":"village"},{"id":"2847564339","name":"Sərkar","lat":40.6448236,"lon":46.2477625,"type":"village"},{"id":"2847564562","name":"Qızılca","lat":40.6286257,"lon":46.2240921,"type":"village"},{"id":"2847569163","name":"Hacıməlik","lat":40.6325511,"lon":46.4077768,"type":"village"},{"id":"2847612023","name":"Sarıqaya","lat":40.790082,"lon":46.5128168,"type":"village"},{"id":"2847612051","name":"Lək","lat":40.7916532,"lon":46.4755819,"type":"village"},{"id":"2847612073","name":"Hacallı","lat":40.8069929,"lon":46.4471231,"type":"village"},{"id":"2847620014","name":"Füzuli Samux","lat":40.7921455,"lon":46.4031618,"type":"village"},{"id":"2847738295","name":"Nizami","lat":40.6633188,"lon":46.5229837,"type":"village"},{"id":"2847738539","name":"Xoylu","lat":40.6470069,"lon":46.5306638,"type":"village"},{"id":"2847740923","name":"Qaradağlı","lat":40.6549443,"lon":46.5527098,"type":"village"},{"id":"2847740974","name":"Şadılı","lat":40.6475921,"lon":46.5799371,"type":"village"},{"id":"2847752715","name":"Yolqulular","lat":40.6249994,"lon":46.5168753,"type":"village"},{"id":"2847753004","name":"Dozular","lat":40.5347748,"lon":46.4765049,"type":"village"},{"id":"2847794960","name":"Buzluq","lat":40.4154954,"lon":46.4382458,"type":"village"},{"id":"2847886954","name":"Meşəli","lat":40.4308241,"lon":46.6129798,"type":"village"},{"id":"2847886979","name":"Yenikənd","lat":40.4412521,"lon":46.6401138,"type":"village"},{"id":"2847887210","name":"Qaraçinar","lat":40.4448805,"lon":46.6339681,"type":"village"},{"id":"2847887258","name":"Şəfəq","lat":40.4532544,"lon":46.6446386,"type":"village"},{"id":"2847899533","name":"Zeyvə","lat":40.4591135,"lon":46.6841259,"type":"village"},{"id":"2847909977","name":"Qarqucaq","lat":40.4918658,"lon":46.7251913,"type":"village"},{"id":"2847913499","name":"Səfikürd","lat":40.5398735,"lon":46.7724981,"type":"village"},{"id":"2848456558","name":"Xan Qərvənd","lat":40.4959465,"lon":46.9080964,"type":"village"},{"id":"2848456585","name":"Sarov","lat":40.4829005,"lon":46.9203207,"type":"village"},{"id":"2848456646","name":"Maralyansarov","lat":40.4815489,"lon":46.9345829,"type":"village"},{"id":"2848465039","name":"Nəmirli","lat":40.4682041,"lon":46.9766457,"type":"village"},{"id":"2848465061","name":"Göyük","lat":40.4587968,"lon":46.97473,"type":"village"},{"id":"2848465083","name":"Dəlləklər","lat":40.4589771,"lon":47.0005892,"type":"village"},{"id":"2848465103","name":"Bayandurlu","lat":40.4424163,"lon":46.9881964,"type":"village"},{"id":"2848465139","name":"Qaramanlı","lat":40.4822066,"lon":46.9948486,"type":"village"},{"id":"2848475361","name":"Rüstəmli","lat":40.5226217,"lon":46.9998386,"type":"village"},{"id":"2848475834","name":"Hacımahmudlu","lat":40.4834906,"lon":47.0244821,"type":"village"},{"id":"2848475852","name":"Nurallar","lat":40.4759344,"lon":47.0315506,"type":"village"},{"id":"2848475867","name":"Seyid Yusifli","lat":40.4688714,"lon":47.0341042,"type":"village"},{"id":"2848475891","name":"Cicimli","lat":40.4634,"lon":47.0437805,"type":"village"},{"id":"2848481715","name":"Qayalı","lat":40.4539184,"lon":47.0483921,"type":"village"},{"id":"2848481737","name":"Tağılar","lat":40.4859744,"lon":47.040004,"type":"village"},{"id":"2848481759","name":"Mehdixanlı","lat":40.4824766,"lon":47.0521555,"type":"village"},{"id":"2848481800","name":"İkinci Hacallı","lat":40.4783115,"lon":47.0614928,"type":"village"},{"id":"2848488302","name":"Qaraməmmədli","lat":40.5378705,"lon":47.0280322,"type":"village"},{"id":"2848498038","name":"Qoyunbinəsi","lat":40.5135595,"lon":47.0584351,"type":"village"},{"id":"2848498090","name":"Malbinəsi","lat":40.5049362,"lon":47.0848746,"type":"village"},{"id":"2848499022","name":"Kövər","lat":40.5032984,"lon":47.1104604,"type":"village"},{"id":"2848499041","name":"Kolanı","lat":40.4879377,"lon":47.1016246,"type":"village"},{"id":"2848558309","name":"Borsunlu","lat":40.6489699,"lon":46.6623091,"type":"village"},{"id":"2848558369","name":"Nadirkənd","lat":40.6543832,"lon":46.6356523,"type":"village"},{"id":"2852473272","name":"Boladı","lat":38.8915421,"lon":48.7621477,"type":"village"},{"id":"2852554774","name":"Zövlə","lat":38.8852539,"lon":48.7225794,"type":"village"},{"id":"2853797649","name":"Qazangül","lat":41.635455,"lon":46.6028974,"type":"village"},{"id":"2853797650","name":"Çökəkoba","lat":41.6264005,"lon":46.6230706,"type":"village"},{"id":"2853822514","name":"Axaxdərə","lat":41.6584214,"lon":46.654063,"type":"village"},{"id":"2853822515","name":"Car","lat":41.6591433,"lon":46.6731954,"type":"village"},{"id":"2853822516","name":"Kebeloba","lat":41.6404078,"lon":46.6416774,"type":"village"},{"id":"2853822517","name":"Zilban","lat":41.6446169,"lon":46.6649799,"type":"village"},{"id":"2853833921","name":"Aşağı Tala","lat":41.6067704,"lon":46.6462434,"type":"village"},{"id":"2853833923","name":"Yuxarı Tala","lat":41.6233854,"lon":46.6661073,"type":"village"},{"id":"2853871126","name":"Göyəm","lat":41.6193521,"lon":46.5997447,"type":"village"},{"id":"2855584225","name":"Mirasəfli","lat":40.4599405,"lon":47.070363,"type":"village"},{"id":"2855584363","name":"Həsənqaya","lat":40.4445615,"lon":47.0782084,"type":"village"},{"id":"2855590304","name":"Saatlı","lat":40.4425638,"lon":47.0925791,"type":"village"},{"id":"2855644372","name":"Gərənə","lat":40.4261182,"lon":47.1104033,"type":"village"},{"id":"2855670605","name":"Cəyirli","lat":40.4258553,"lon":47.1239987,"type":"village"},{"id":"2855670626","name":"Şorəlli","lat":40.412816,"lon":47.1314836,"type":"village"},{"id":"2855670677","name":"Divanlı","lat":40.4089662,"lon":47.118284,"type":"village"},{"id":"2855673596","name":"Güloğlular","lat":40.4068397,"lon":47.1365146,"type":"village"},{"id":"2855701121","name":"Qaradağlı","lat":40.3993843,"lon":47.1164492,"type":"village"},{"id":"2855711926","name":"Doutlı","lat":40.3823486,"lon":47.1693678,"type":"village"},{"id":"2855738697","name":"Mirzəxan Qaraqoyunlu","lat":40.3835623,"lon":47.1833742,"type":"village"},{"id":"2855740650","name":"Türkmən","lat":40.375875,"lon":47.1462173,"type":"village"},{"id":"2855764894","name":"Lək","lat":40.3622443,"lon":47.1517837,"type":"village"},{"id":"2855766259","name":"Birinci Qaradəmirçi","lat":40.3533145,"lon":47.1605136,"type":"village"},{"id":"2855766284","name":"İkinci Qaradəmirçi","lat":40.3356327,"lon":47.1647388,"type":"village"},{"id":"2855804137","name":"Aliyanli","lat":40.341412,"lon":47.1306131,"type":"village"},{"id":"2855804187","name":"Alaçadırlı","lat":40.3673608,"lon":47.1026057,"type":"village"},{"id":"2855818050","name":"Qasımbəyli","lat":40.3648102,"lon":47.0759316,"type":"village"},{"id":"2855819626","name":"Zümürxan","lat":40.3769206,"lon":47.0758498,"type":"village"},{"id":"2855820622","name":"İmamqulubəyli","lat":40.3896977,"lon":47.0700979,"type":"village"},{"id":"2855824348","name":"Muğanlı","lat":40.3537115,"lon":47.0818605,"type":"village"},{"id":"2855824381","name":"Körpüsındıran","lat":40.3544926,"lon":47.0624668,"type":"village"},{"id":"2855825426","name":"Çəmənli","lat":40.4013147,"lon":47.0732365,"type":"village"},{"id":"2855872012","name":"Kələntərli","lat":40.3393866,"lon":47.0892579,"type":"village"},{"id":"2855872036","name":"Darghalar","lat":40.3359486,"lon":47.1090947,"type":"village"},{"id":"2855872093","name":"Mamırlı","lat":40.3180794,"lon":47.0822318,"type":"village"},{"id":"2855872121","name":"Soyulan","lat":40.3219115,"lon":47.0516514,"type":"village"},{"id":"2855872159","name":"Gullar","lat":40.326026,"lon":47.1564299,"type":"village"},{"id":"2855872196","name":"Bala Kadzhar","lat":40.3256177,"lon":47.1427824,"type":"village"},{"id":"2855886282","name":"Uğurbəyli","lat":40.3169979,"lon":47.1125444,"type":"village"},{"id":"2855886283","name":"Şirvanlı","lat":40.3207444,"lon":47.1277364,"type":"village"},{"id":"2855886284","name":"Dəymədağıldı","lat":40.3115494,"lon":47.1357401,"type":"village"},{"id":"2855890588","name":"Böyük Qacar","lat":40.3077618,"lon":47.1593229,"type":"village"},{"id":"2855891602","name":"Huseynbəyli","lat":40.3056277,"lon":47.1784222,"type":"village"},{"id":"2855896598","name":"Qarayusifli","lat":40.3175517,"lon":47.192443,"type":"village"},{"id":"2855896599","name":"Alpout","lat":40.3258648,"lon":47.1956975,"type":"village"},{"id":"2856089551","name":"Dardoqqaz","lat":41.6097868,"lon":46.5565581,"type":"village"},{"id":"2856099297","name":"Mazıx","lat":41.6595547,"lon":46.5815343,"type":"village"},{"id":"2856126144","name":"Katex","lat":41.6479411,"lon":46.5400035,"type":"village"},{"id":"2856150062","name":"Maqov","lat":41.593212,"lon":46.5006678,"type":"village"},{"id":"2856150063","name":"Paşan","lat":41.6050329,"lon":46.4848444,"type":"village"},{"id":"2856159832","name":"Danaçı","lat":41.5495685,"lon":46.4235186,"type":"village"},{"id":"2856212866","name":"Höytala","lat":41.5813816,"lon":46.5000895,"type":"village"},{"id":"2856212867","name":"Mollaçıbinə","lat":41.6456365,"lon":46.4551146,"type":"village"},{"id":"2856212868","name":"Yolayrıc","lat":41.5704947,"lon":46.488105,"type":"village"},{"id":"2856246905","name":"Kortala","lat":41.6186361,"lon":46.3849818,"type":"village"},{"id":"2856246906","name":"Püştətala","lat":41.636326,"lon":46.4157547,"type":"village"},{"id":"2856246907","name":"Qadaşbinə","lat":41.6482324,"lon":46.4366676,"type":"village"},{"id":"2856246908","name":"Qamıştala","lat":41.6338166,"lon":46.4404468,"type":"village"},{"id":"2856297044","name":"Roçəhməd","lat":41.6507877,"lon":46.3916877,"type":"village"},{"id":"2858400265","name":"Arayatlı","lat":39.4797466,"lon":47.3743645,"type":"village"},{"id":"2858407701","name":"Aşağı Yağlıvənd","lat":39.5091618,"lon":47.4604453,"type":"village"},{"id":"2858407798","name":"Böyük Bəhmənli","lat":39.5123495,"lon":47.487963,"type":"village"},{"id":"2858410404","name":"Kərimbəyli","lat":39.5071224,"lon":47.4176597,"type":"village"},{"id":"2858419409","name":"İkinci Mahmudlu","lat":39.5423718,"lon":47.5582924,"type":"village"},{"id":"2858429420","name":"Birinci Mahmudlu","lat":39.5542205,"lon":47.5719518,"type":"village"},{"id":"2858429421","name":"Əhmədbəyli","lat":39.569352,"lon":47.5464524,"type":"village"},{"id":"2858434205","name":"Horadiz","lat":39.4510591,"lon":47.3314504,"type":"town"},{"id":"2858436965","name":"Bala Bəhmənli","lat":39.5536306,"lon":47.5932114,"type":"village"},{"id":"2858436966","name":"Araz Dilağarda","lat":39.5632578,"lon":47.6073171,"type":"village"},{"id":"2858438292","name":"Araz Zərgər","lat":39.5806329,"lon":47.6243532,"type":"village"},{"id":"2858438293","name":"Əmirzeyidli","lat":39.5872714,"lon":47.6594326,"type":"village"},{"id":"2858438294","name":"Milabad","lat":39.6611026,"lon":47.6594272,"type":"village"},{"id":"2858438295","name":"İkinci Şəhaevan","lat":39.6391104,"lon":47.7527729,"type":"village"},{"id":"2858438296","name":"Böyük Savxoz","lat":39.6657063,"lon":47.712153,"type":"village"},{"id":"2858438297","name":"Qəhrəmanlı","lat":39.6985809,"lon":47.6910337,"type":"village"},{"id":"2858454090","name":"Yeni Mil","lat":39.6872824,"lon":47.650068,"type":"village"},{"id":"2858455950","name":"Aşağı Çəmənli","lat":39.6842794,"lon":47.8150962,"type":"village"},{"id":"2858455951","name":"Aşıqalılar","lat":39.6987292,"lon":47.8326424,"type":"village"},{"id":"2858455952","name":"Əhmədli","lat":39.7141451,"lon":47.8345571,"type":"village"},{"id":"2858456674","name":"Qaradağlı","lat":39.6663794,"lon":47.7844354,"type":"village"},{"id":"2858456675","name":"Yuxarı Çəmənli","lat":39.6720373,"lon":47.7941247,"type":"village"},{"id":"2858457280","name":"Mahamalar","lat":41.7360199,"lon":46.418028,"type":"village"},{"id":"2858463497","name":"Gödəklər","lat":39.7603239,"lon":47.8470698,"type":"village"},{"id":"2858463498","name":"Bünyadlı","lat":39.7646994,"lon":47.8247748,"type":"village"},{"id":"2858474371","name":"Türklər","lat":39.8053724,"lon":47.7919006,"type":"village"},{"id":"2858474372","name":"Sarısu","lat":39.8183773,"lon":47.8197313,"type":"village"},{"id":"2858474373","name":"Şərq","lat":39.8153407,"lon":47.7693841,"type":"village"},{"id":"2858480943","name":"Tülü","lat":41.7231341,"lon":46.3802967,"type":"village"},{"id":"2858643273","name":"Ağkilsə","lat":41.6910551,"lon":46.3192358,"type":"village"},{"id":"2858643274","name":"Bedağar","lat":41.7058136,"lon":46.3496046,"type":"village"},{"id":"2858643275","name":"Qazma","lat":41.6983386,"lon":46.3665012,"type":"village"},{"id":"2858643276","name":"Cillik","lat":41.686548,"lon":46.3338334,"type":"village"},{"id":"2858643283","name":"Talalar","lat":41.7106446,"lon":46.385038,"type":"village"},{"id":"2858643286","name":"Şambulbinə","lat":41.6715742,"lon":46.324852,"type":"village"},{"id":"2862332916","name":"Aşağı Çardaxlar","lat":41.5415405,"lon":46.3547672,"type":"village"},{"id":"2862332917","name":"İtitala","lat":41.5816614,"lon":46.3645967,"type":"village"},{"id":"2862418746","name":"Abjit","lat":41.7358145,"lon":46.2355122,"type":"village"},{"id":"2862418750","name":"Qabaqçöl","lat":41.7024735,"lon":46.2605111,"type":"village"},{"id":"2862418751","name":"Qazbölük","lat":41.6837611,"lon":46.2346958,"type":"village"},{"id":"2862418753","name":"Şərif","lat":41.7276186,"lon":46.2566275,"type":"village"},{"id":"2862545388","name":"Göyrüclük","lat":41.7270586,"lon":46.2940212,"type":"village"},{"id":"2862606800","name":"Kilsəbuqov","lat":41.6981267,"lon":46.3042903,"type":"village"},{"id":"2862607201","name":"Meşəşambul","lat":41.7060183,"lon":46.2910917,"type":"village"},{"id":"2862607202","name":"Qaysa","lat":41.707279,"lon":46.233932,"type":"village"},{"id":"2862607203","name":"Xalatala","lat":41.7154798,"lon":46.2786339,"type":"village"},{"id":"2862607204","name":"Yeni Şərif","lat":41.7489055,"lon":46.2665892,"type":"village"},{"id":"2862607205","name":"Şambul","lat":41.6987625,"lon":46.2833435,"type":"village"},{"id":"2862676025","name":"Üçüncü Tala","lat":41.5582995,"lon":46.5180018,"type":"village"},{"id":"2862676026","name":"Poştbinə 1","lat":41.7609437,"lon":46.3231949,"type":"village"},{"id":"2862676033","name":"Uzunqazmalar","lat":41.5147725,"lon":46.425992,"type":"village"},{"id":"2865841815","name":"Bəydili","lat":39.4602235,"lon":48.5792479,"type":"village"},{"id":"2865853180","name":"Zəhmətabad","lat":39.4719249,"lon":48.5709663,"type":"village"},{"id":"2865853442","name":"Bağbanlar","lat":39.4886005,"lon":48.56147,"type":"village"},{"id":"2865861203","name":"Əliabad","lat":39.4714801,"lon":48.6045756,"type":"village"},{"id":"2865861252","name":"Çinarlı","lat":39.5026274,"lon":48.5870486,"type":"village"},{"id":"2865861278","name":"Aranlı","lat":39.5079907,"lon":48.5640455,"type":"village"},{"id":"2870508871","name":"Bəciravan","lat":39.1020473,"lon":48.537531,"type":"village"},{"id":"2870538382","name":"Komanlı","lat":39.0881867,"lon":48.5443584,"type":"village"},{"id":"2870761926","name":"İsaxlıgirmə","lat":41.6767532,"lon":46.2508902,"type":"village"},{"id":"2871832537","name":"Xanxanımlı","lat":40.2822332,"lon":47.160139,"type":"village"},{"id":"2871839221","name":"Xanağlı","lat":40.2750496,"lon":47.1775421,"type":"village"},{"id":"2871839251","name":"Qaradəmirçi","lat":40.2636469,"lon":47.1907119,"type":"village"},{"id":"2871840677","name":"Xəsili","lat":40.2491659,"lon":47.2510731,"type":"village"},{"id":"2871842413","name":"Hacallı","lat":40.2357687,"lon":47.222177,"type":"village"},{"id":"2871854305","name":"Qazaxlar","lat":40.2714679,"lon":47.2453896,"type":"village"},{"id":"2871854354","name":"Bəcirəvan","lat":40.2099292,"lon":47.2177359,"type":"village"},{"id":"2871862000","name":"Lənbəran","lat":40.2166001,"lon":47.3113642,"type":"village"},{"id":"2873261371","name":"Korgöz","lat":40.3049711,"lon":49.6281498,"type":"village"},{"id":"2873315997","name":"Qızıldaş","lat":40.3080174,"lon":49.5978496,"type":"village"},{"id":"2874012781","name":"Navahi","lat":40.0401868,"lon":49.1013643,"type":"village"},{"id":"2874027913","name":"Rəncbər","lat":40.0924523,"lon":49.0699778,"type":"village"},{"id":"2874029690","name":"Qubalıbalaoğlan","lat":40.1258283,"lon":49.0567129,"type":"village"},{"id":"2874033489","name":"Pirsaat","lat":40.0475476,"lon":49.0458966,"type":"village"},{"id":"2874037350","name":"Nəvahi Stansiya","lat":40.0171755,"lon":49.1463326,"type":"village"},{"id":"2874038505","name":"Qızılburun","lat":39.9961722,"lon":49.2214783,"type":"village"},{"id":"2874038809","name":"Kürdçü","lat":39.9635472,"lon":49.2616084,"type":"village"},{"id":"2879720416","name":"Mirzalıbəyli","lat":40.4005308,"lon":47.1614835,"type":"village"},{"id":"2879734173","name":"Həsənli","lat":40.3671059,"lon":47.1809921,"type":"village"},{"id":"2879735322","name":"Hacıbəyli","lat":40.3935205,"lon":47.1775551,"type":"village"},{"id":"2879735323","name":"Kafarlı","lat":40.4004457,"lon":47.186283,"type":"village"},{"id":"2879735371","name":"Köbərkənd","lat":40.374565,"lon":47.1837307,"type":"village"},{"id":"2879743130","name":"Mollaisalar","lat":40.3803804,"lon":47.2056582,"type":"village"},{"id":"2879746694","name":"Otuzikilər","lat":40.3853375,"lon":47.236965,"type":"village"},{"id":"2879749339","name":"Kolayır","lat":40.3728194,"lon":47.2245737,"type":"village"},{"id":"2879753785","name":"Mollaməmmədli","lat":40.3686273,"lon":47.2391577,"type":"village"},{"id":"2879759317","name":"Gülgəzli","lat":40.3648313,"lon":47.2500291,"type":"village"},{"id":"2879759345","name":"Sərkarlar","lat":40.3661437,"lon":47.2574925,"type":"village"},{"id":"2879761583","name":"Vəliuşağı","lat":40.3994049,"lon":47.2519721,"type":"village"},{"id":"2879761598","name":"Bayramlı","lat":40.4008609,"lon":47.2713275,"type":"village"},{"id":"2879765338","name":"Cumalar","lat":40.3985904,"lon":47.2115732,"type":"village"},{"id":"2879766534","name":"Hacıəhmədli","lat":40.4003715,"lon":47.2278825,"type":"village"},{"id":"2879775172","name":"Böyük Göyüşlü","lat":40.347476,"lon":47.2252673,"type":"village"},{"id":"2879775191","name":"Bala Goyüşlü","lat":40.3394262,"lon":47.2375759,"type":"village"},{"id":"2879781505","name":"Yerliağalı","lat":40.3394877,"lon":47.2778565,"type":"village"},{"id":"2879799169","name":"Mollalı","lat":40.356594,"lon":47.3068651,"type":"village"},{"id":"2879800040","name":"Hacılar","lat":40.320534,"lon":47.2432695,"type":"village"},{"id":"2879800083","name":"Qaradırnaq","lat":40.3029424,"lon":47.2467854,"type":"village"},{"id":"2879800347","name":"Mustafaağalı","lat":40.3191085,"lon":47.2796661,"type":"village"},{"id":"2879802897","name":"Çələbilər","lat":40.4088293,"lon":47.3089732,"type":"village"},{"id":"2879810803","name":"Nifçi","lat":40.4238026,"lon":47.2809464,"type":"village"},{"id":"2879815949","name":"Əyricə","lat":40.4231998,"lon":47.2457732,"type":"village"},{"id":"2879816426","name":"Yeni Əyricə","lat":40.4265511,"lon":47.2324847,"type":"village"},{"id":"2879826054","name":"Kərimbəyli","lat":40.4492314,"lon":47.249776,"type":"village"},{"id":"2879826081","name":"Nəcəfqulubəyli","lat":40.4465886,"lon":47.2591057,"type":"village"},{"id":"2879835067","name":"Qaraqoyunlu","lat":40.4231534,"lon":47.1638493,"type":"village"},{"id":"2879835079","name":"Bala Ərəblər","lat":40.4407899,"lon":47.1642245,"type":"village"},{"id":"2879847827","name":"Mollagüllər","lat":40.4705382,"lon":47.1970487,"type":"village"},{"id":"2879847892","name":"Mirzəcəfərli","lat":40.471658,"lon":47.1614971,"type":"village"},{"id":"2879851436","name":"Samuxlu","lat":40.5069031,"lon":47.1697122,"type":"village"},{"id":"2879863350","name":"Tumaslı","lat":40.2998522,"lon":47.214083,"type":"village"},{"id":"2879869907","name":"Məhdili","lat":40.2797783,"lon":47.2027304,"type":"village"},{"id":"2879871535","name":"Böyük Sovla","lat":40.3240415,"lon":47.3636979,"type":"village"},{"id":"2879872533","name":"Kiçik Sovla","lat":40.292789,"lon":47.369551,"type":"village"},{"id":"2879885098","name":"Nazırlı","lat":40.3186583,"lon":47.4103741,"type":"village"},{"id":"2879889573","name":"Təhlə","lat":40.1884275,"lon":47.2999662,"type":"village"},{"id":"2879894281","name":"Təhlə","lat":40.1505048,"lon":47.3304718,"type":"village"},{"id":"2879904521","name":"Qələbədin","lat":40.1389746,"lon":47.2516582,"type":"village"},{"id":"2879904551","name":"Qiyaməddinli","lat":40.1304049,"lon":47.2713035,"type":"village"},{"id":"2879915553","name":"Yeni Bərdə","lat":40.1626786,"lon":47.2237982,"type":"village"},{"id":"2879919865","name":"Sarjalı","lat":40.1410533,"lon":47.1830549,"type":"village"},{"id":"2880066481","name":"Mürsəl","lat":40.6345308,"lon":47.3993364,"type":"village"},{"id":"2880068334","name":"Qarasuqumlaq","lat":40.6504594,"lon":47.3827956,"type":"village"},{"id":"2880085710","name":"Şıxlı","lat":40.6650523,"lon":47.3744017,"type":"village"},{"id":"2880085761","name":"Qaradağlı","lat":40.6341067,"lon":47.4524153,"type":"village"},{"id":"2880085803","name":"Aşağı Zeynəddin","lat":40.6549304,"lon":47.435137,"type":"village"},{"id":"2880088565","name":"Yuxarı Qolqəti","lat":40.6757629,"lon":47.4743433,"type":"village"},{"id":"2880090293","name":"Gürcüva","lat":40.6202159,"lon":47.484722,"type":"village"},{"id":"2880137811","name":"Pirəyir","lat":40.6088875,"lon":47.4576075,"type":"village"},{"id":"2880308281","name":"Burunlu","lat":40.2387697,"lon":47.5233222,"type":"village"},{"id":"2880314275","name":"Körpükənd","lat":40.2704268,"lon":47.4981302,"type":"village"},{"id":"2880317622","name":"Bıçaqçı","lat":40.3026509,"lon":47.4712126,"type":"village"},{"id":"2880323047","name":"Yuxarı Seyidlər","lat":40.3490291,"lon":47.4811784,"type":"village"},{"id":"2880323078","name":"Xınaxlı","lat":40.3569915,"lon":47.462542,"type":"village"},{"id":"2880342124","name":"Kotavan","lat":40.3715254,"lon":47.4315827,"type":"village"},{"id":"2880344986","name":"Ağzıbir","lat":40.4110581,"lon":47.390335,"type":"village"},{"id":"2880349621","name":"Pirəzə","lat":40.4177135,"lon":47.3477088,"type":"village"},{"id":"2880363443","name":"Qaraoğlan","lat":40.4447609,"lon":47.3568647,"type":"village"},{"id":"2880366106","name":"Abad","lat":40.4658966,"lon":47.3355367,"type":"village"},{"id":"2881301522","name":"Savalan qəsəbəsi","lat":40.5175373,"lon":49.9657208,"type":"village"},{"id":"2883764819","name":"Yuxarı Ağcakənd","lat":40.3958983,"lon":46.4911318,"type":"village"},{"id":"2883822131","name":"Pirili","lat":40.1795689,"lon":48.2514936,"type":"village"},{"id":"2883830255","name":"Muradxan","lat":40.1967681,"lon":48.137438,"type":"village"},{"id":"2884102216","name":"Ləhiş bağları","lat":40.5683232,"lon":49.9517895,"type":"village"},{"id":"2884139601","name":"Şüvəlan Şimal Qres","lat":40.4953174,"lon":50.1992471,"type":"village"},{"id":"2887485585","name":"İkinci Alıcanlı","lat":40.329415,"lon":47.629886,"type":"village"},{"id":"2887485586","name":"Birinci Alıcanlı","lat":40.3373294,"lon":47.5961831,"type":"village"},{"id":"2887485587","name":"Cilovxanlı","lat":40.3167823,"lon":47.6036213,"type":"village"},{"id":"2887501327","name":"Siləyli","lat":40.3621658,"lon":47.5183922,"type":"village"},{"id":"2889003528","name":"Saridjalar","lat":39.9437686,"lon":48.5210748,"type":"village"},{"id":"2889035214","name":"Qara Nuru","lat":39.9202185,"lon":48.500711,"type":"village"},{"id":"2889035764","name":"Qazanbatan","lat":39.9303959,"lon":48.4516498,"type":"village"},{"id":"2889090528","name":"Əhmədbəyli","lat":39.8818732,"lon":48.3888914,"type":"village"},{"id":"2889119735","name":"Genişkənd","lat":39.8802385,"lon":48.4612032,"type":"village"},{"id":"2889133858","name":"Aliabad","lat":39.8618236,"lon":48.4663841,"type":"village"},{"id":"2889144161","name":"Mamedabad","lat":39.8685397,"lon":48.4738565,"type":"village"},{"id":"2889146945","name":"Ağbaş","lat":41.1122268,"lon":49.0993281,"type":"village"},{"id":"2889161517","name":"Şirinbəyli","lat":39.8729652,"lon":48.5218923,"type":"village"},{"id":"2889165314","name":"Günəşli","lat":39.8697575,"lon":48.5596718,"type":"village"},{"id":"2889179802","name":"Azadkend","lat":39.7926223,"lon":48.5532969,"type":"village"},