[{"id":"246518890","name":"Bridgetown","lat":13.0977832,"lon":-59.6184184,"type":"city"},{"id":"436400674","name":"Holetown","lat":13.1856145,"lon":-59.637289,"type":"town"},{"id":"438053406","name":"Welchman Hall","lat":13.1863465,"lon":-59.5771509,"type":"village"},{"id":"438098630","name":"Speightstown","lat":13.2500531,"lon":-59.6423782,"type":"town"},{"id":"438099718","name":"Mile and a Quarter","lat":13.2676304,"lon":-59.6210298,"type":"village"},{"id":"438099722","name":"Boscobelle","lat":13.2865947,"lon":-59.5786997,"type":"village"},{"id":"438099726","name":"Belleplaine","lat":13.2459239,"lon":-59.5627175,"type":"village"},{"id":"439088178","name":"Gemswick","lat":13.0862324,"lon":-59.4714902,"type":"village"},{"id":"439149523","name":"Bathsheba","lat":13.2129361,"lon":-59.5227245,"type":"village"},{"id":"439154867","name":"Orange Hill","lat":13.2062086,"lon":-59.606538,"type":"village"},{"id":"439176629","name":"Redmans","lat":13.1590187,"lon":-59.6136143,"type":"village"},{"id":"439176633","name":"The Valley","lat":13.131075,"lon":-59.5664138,"type":"village"},{"id":"439176636","name":"Ellerton","lat":13.1340832,"lon":-59.5394802,"type":"village"},{"id":"439176640","name":"Brereton","lat":13.1200098,"lon":-59.5042551,"type":"village"},{"id":"439984984","name":"St Martins","lat":13.095518,"lon":-59.4648278,"type":"village"},{"id":"440675781","name":"Cottage Vale","lat":13.1396386,"lon":-59.4942176,"type":"village"},{"id":"441198259","name":"Mount Stepney","lat":13.2791601,"lon":-59.5827766,"type":"village"},{"id":"441198266","name":"Pie Corner","lat":13.3069969,"lon":-59.5844074,"type":"village"},{"id":"441198297","name":"Hope","lat":13.3208618,"lon":-59.6041055,"type":"village"},{"id":"441198304","name":"Crab Hill","lat":13.3200667,"lon":-59.6373798,"type":"village"},{"id":"441222023","name":"Hothersal","lat":13.1932284,"lon":-59.5132538,"type":"village"},{"id":"441222025","name":"Venture","lat":13.1872274,"lon":-59.5242368,"type":"village"},{"id":"441222028","name":"Sherbourne","lat":13.1796487,"lon":-59.5200773,"type":"village"},{"id":"441224547","name":"Clifton Hill","lat":13.1837436,"lon":-59.5677133,"type":"village"},{"id":"441264885","name":"Chancery Lane","lat":13.0603079,"lon":-59.5061469,"type":"village"},{"id":"441264890","name":"Ealing Park","lat":13.0557511,"lon":-59.5139575,"type":"village"},{"id":"441990611","name":"Rose Hill","lat":13.2698648,"lon":-59.6202933,"type":"village"},{"id":"441990612","name":"Checker Hall","lat":13.2817114,"lon":-59.6462839,"type":"village"},{"id":"441990615","name":"Husbands","lat":13.3004986,"lon":-59.6429247,"type":"village"},{"id":"445292774","name":"Enterprise","lat":13.0571088,"lon":-59.5327219,"type":"village"},{"id":"445300495","name":"Clermont","lat":13.1454277,"lon":-59.6161067,"type":"village"},{"id":"445321559","name":"Mount Standfast","lat":13.2102754,"lon":-59.6348537,"type":"village"},{"id":"445321561","name":"Rock Dundo","lat":13.229268,"lon":-59.6249324,"type":"village"},{"id":"445330769","name":"Silver Sands","lat":13.0500254,"lon":-59.5182259,"type":"village"},{"id":"1247869002","name":"Thicket","lat":13.1557355,"lon":-59.4630447,"type":"village"},{"id":"1666060557","name":"Chalky Mount","lat":13.2275799,"lon":-59.5539779,"type":"village"},{"id":"2622423314","name":"Gall Hill","lat":13.1813135,"lon":-59.5009277,"type":"village"},{"id":"2622423315","name":"Pool","lat":13.1728373,"lon":-59.5177849,"type":"village"},{"id":"2622423356","name":"Eastmont","lat":13.1775863,"lon":-59.5058917,"type":"village"},{"id":"3873168970","name":"Thornbury Hill","lat":13.0643515,"lon":-59.5341098,"type":"village"},{"id":"3873708373","name":"Maxwell","lat":13.0709564,"lon":-59.5641168,"type":"village"},{"id":"3877277323","name":"Bagatelle","lat":13.1610429,"lon":-59.6150769,"type":"village"},{"id":"3883583369","name":"Greenwich","lat":13.1982775,"lon":-59.6217961,"type":"village"},{"id":"3887354532","name":"Shop Hill","lat":13.1637397,"lon":-59.6011448,"type":"village"},{"id":"4782867296","name":"Woodbourne","lat":13.102556,"lon":-59.492276,"type":"village"},{"id":"4784807797","name":"Ruby","lat":13.1262281,"lon":-59.4429319,"type":"village"},{"id":"4896757024","name":"Oistins","lat":13.0631947,"lon":-59.542242,"type":"town"},{"id":"4922562311","name":"Six Cross Roads","lat":13.1177607,"lon":-59.4770323,"type":"town"},{"id":"5005030958","name":"Union Hall","lat":13.1190569,"lon":-59.4469865,"type":"village"},{"id":"5005030960","name":"Crane","lat":13.1052506,"lon":-59.4471092,"type":"village"},{"id":"5005030961","name":"Belair","lat":13.1181729,"lon":-59.4412052,"type":"village"},{"id":"5007794610","name":"Diamond Valley","lat":13.1118176,"lon":-59.4481169,"type":"village"},{"id":"5102175261","name":"Welches","lat":13.1532688,"lon":-59.6124685,"type":"village"},{"id":"5102218981","name":"Ocean City","lat":13.0914543,"lon":-59.4573426,"type":"village"},{"id":"5142339092","name":"Market Hill","lat":13.1572466,"lon":-59.5593214,"type":"village"},{"id":"5142339099","name":"Golden Ridge","lat":13.1647686,"lon":-59.5420757,"type":"village"},{"id":"5198404417","name":"Long Bay","lat":13.1280839,"lon":-59.4375615,"type":"village"},{"id":"5198404419","name":"Wellhouse","lat":13.1367051,"lon":-59.4361813,"type":"village"},{"id":"5198404420","name":"Harrismith","lat":13.1346968,"lon":-59.4314006,"type":"village"},{"id":"5198405921","name":"River Land","lat":13.1409301,"lon":-59.4379812,"type":"village"},{"id":"5198405923","name":"Lynches","lat":13.1427839,"lon":-59.433754,"type":"village"},{"id":"5198405924","name":"Apple Hall","lat":13.1416588,"lon":-59.4293054,"type":"village"},{"id":"5198405925","name":"Merricks","lat":13.1457618,"lon":-59.4299615,"type":"village"},{"id":"5198405926","name":"Coles","lat":13.1523143,"lon":-59.4288931,"type":"village"},{"id":"5198405929","name":"Bayfield","lat":13.1661442,"lon":-59.4536699,"type":"village"},{"id":"5204369432","name":"Husbands","lat":13.1446031,"lon":-59.6230355,"type":"village"},{"id":"5204369564","name":"Arthur Seat","lat":13.148818,"lon":-59.604038,"type":"village"},{"id":"5373793495","name":"St. Judes","lat":13.1570103,"lon":-59.5365406,"type":"village"},{"id":"5373793496","name":"Superlative","lat":13.1571968,"lon":-59.5415211,"type":"village"},{"id":"7529073895","name":"Clinketts","lat":13.2757717,"lon":-59.6464011,"type":"village"},{"id":"7529108363","name":"Benthams","lat":13.2883002,"lon":-59.6263048,"type":"village"},{"id":"7540036584","name":"Trents","lat":13.2982959,"lon":-59.6277026,"type":"village"},{"id":"7540076013","name":"Greenidge","lat":13.3200717,"lon":-59.6248035,"type":"village"},{"id":"7573426833","name":"Indian Ground","lat":13.2519045,"lon":-59.5977807,"type":"village"},{"id":"7573426834","name":"Four Hills","lat":13.2510481,"lon":-59.6028876,"type":"village"},{"id":"7573426836","name":"French Village","lat":13.2623056,"lon":-59.6069431,"type":"village"},{"id":"7573445245","name":"Diamond Corner","lat":13.276797,"lon":-59.598191,"type":"village"},{"id":"7618448990","name":"Deanes","lat":13.2134966,"lon":-59.6134546,"type":"village"},{"id":"7618556587","name":"Hillaby","lat":13.2119592,"lon":-59.590805,"type":"village"},{"id":"7618570962","name":"Dunscombe","lat":13.1959023,"lon":-59.5935631,"type":"village"},{"id":"7619417970","name":"Black Bess","lat":13.2392422,"lon":-59.6172259,"type":"village"},{"id":"7619872408","name":"Mount Brevitor","lat":13.2642613,"lon":-59.6204045,"type":"village"},{"id":"7619882515","name":"Retreat","lat":13.2657643,"lon":-59.6344888,"type":"village"},{"id":"7620538255","name":"St. Lawrence","lat":13.0677022,"lon":-59.5746494,"type":"village"},{"id":"7764118412","name":"Four Roads","lat":13.1705145,"lon":-59.5222355,"type":"village"},{"id":"7764157087","name":"Cherry Grove","lat":13.1663114,"lon":-59.5168818,"type":"village"},{"id":"7764180539","name":"Massiah Street","lat":13.1621412,"lon":-59.4821163,"type":"village"},{"id":"7764296417","name":"Society","lat":13.1693862,"lon":-59.4780113,"type":"village"},{"id":"7779449328","name":"Airy Hill","lat":13.1901899,"lon":-59.5556969,"type":"village"},{"id":"7779470777","name":"Bowling Alley Hill","lat":13.1949114,"lon":-59.5425541,"type":"village"},{"id":"7779489052","name":"St. Elizabeths","lat":13.2096601,"lon":-59.5275658,"type":"village"},{"id":"7913791538","name":"Pothouse","lat":13.1839916,"lon":-59.5019033,"type":"village"},{"id":"8074861123","name":"Blades Hill","lat":13.1625713,"lon":-59.4596612,"type":"village"},{"id":"8089771553","name":"Lion Castle","lat":13.1838732,"lon":-59.5851094,"type":"village"},{"id":"8089781394","name":"Bridgefield","lat":13.1577148,"lon":-59.5902378,"type":"village"},{"id":"8089781396","name":"Edge Hill","lat":13.1588431,"lon":-59.6012671,"type":"village"},{"id":"8089827943","name":"White Hill","lat":13.1631757,"lon":-59.5969938,"type":"village"},{"id":"8089827946","name":"Rock Hall","lat":13.188156,"lon":-59.6000654,"type":"village"},{"id":"8089829760","name":"Hopewell","lat":13.1758162,"lon":-59.5818028,"type":"village"},{"id":"8151088316","name":"Four Roads","lat":13.1099009,"lon":-59.4721085,"type":"village"},{"id":"8151112420","name":"Robinsons","lat":13.1299312,"lon":-59.4449753,"type":"village"},{"id":"8151133611","name":"Industry Hall","lat":13.1587251,"lon":-59.4314355,"type":"village"},{"id":"8151185212","name":"St. Catherine's","lat":13.156442,"lon":-59.4434223,"type":"village"},{"id":"8151185213","name":"Fortescue","lat":13.1734286,"lon":-59.4592864,"type":"village"},{"id":"8151185214","name":"St. Marks","lat":13.1766879,"lon":-59.4620759,"type":"village"},{"id":"8151185216","name":"Parish Land","lat":13.1467497,"lon":-59.4806422,"type":"village"},{"id":"8151206819","name":"Church Village","lat":13.1391826,"lon":-59.4877178,"type":"village"},{"id":"8155976056","name":"St. Margaret's","lat":13.1999976,"lon":-59.5030874,"type":"village"},{"id":"8155976057","name":"Church View","lat":13.1888355,"lon":-59.5006503,"type":"village"},{"id":"8155976059","name":"Cliff Cottage","lat":13.1812997,"lon":-59.4917148,"type":"village"},{"id":"8155976060","name":"Welch Town","lat":13.1826368,"lon":-59.4855779,"type":"village"},{"id":"8155976072","name":"Blackmans","lat":13.18935,"lon":-59.5439106,"type":"village"},{"id":"8156117239","name":"Oldbury","lat":13.0935948,"lon":-59.4760168,"type":"village"},{"id":"8156117241","name":"Fairy Valley","lat":13.068317,"lon":-59.5021021,"type":"village"},{"id":"8329544345","name":"Castle Heights","lat":13.133935,"lon":-59.4375467,"type":"village"},{"id":"9220028407","name":"Shrewbury","lat":13.1359785,"lon":-59.4354053,"type":"village"},{"id":"9220028408","name":"Bequest","lat":13.1330086,"lon":-59.4326625,"type":"village"},{"id":"9220047731","name":"Harmony Hall","lat":13.1345513,"lon":-59.4362532,"type":"village"},{"id":"9598292934","name":"Bannatyne","lat":13.0895422,"lon":-59.5495597,"type":"village"},{"id":"9651965334","name":"Lancaster","lat":13.2034772,"lon":-59.6196209,"type":"village"},{"id":"9668763163","name":"Glebe Land","lat":13.182436,"lon":-59.4965392,"type":"village"},{"id":"9668763165","name":"Guinea","lat":13.1615166,"lon":-59.4883827,"type":"village"},{"id":"9668763166","name":"Stewart Hill","lat":13.1639526,"lon":-59.4781168,"type":"village"},{"id":"9671227102","name":"Greens","lat":13.1481684,"lon":-59.5281541,"type":"village"},{"id":"9776067485","name":"Hamden","lat":13.1334273,"lon":-59.4306397,"type":"village"},{"id":"9776067487","name":"Compton","lat":13.1314542,"lon":-59.4300646,"type":"village"},{"id":"9776184945","name":"Bottom Bay","lat":13.139541,"lon":-59.4269296,"type":"village"},{"id":"9776198408","name":"Content Cot","lat":13.1554242,"lon":-59.4287616,"type":"village"},{"id":"9818263417","name":"Ragged Point","lat":13.1623501,"lon":-59.4341377,"type":"village"},{"id":"9830101504","name":"Rock Hall","lat":13.0864208,"lon":-59.4767212,"type":"village"},{"id":"9834417238","name":"Drax Hall","lat":13.1444147,"lon":-59.5205724,"type":"village"},{"id":"9950358927","name":"Vineyard","lat":13.145747,"lon":-59.4682895,"type":"village"}]