[{"id":"308813067","name":"Parakou","lat":9.3400159,"lon":2.6278258,"type":"city"},{"id":"313015821","name":"Ouidah","lat":6.3666147,"lon":2.0853599,"type":"city"},{"id":"313015845","name":"Abomey","lat":7.1820012,"lon":1.993632,"type":"city"},{"id":"313015848","name":"Djougou","lat":9.7106683,"lon":1.6651614,"type":"city"},{"id":"313015849","name":"Bembèrèkè","lat":10.2242175,"lon":2.6675063,"type":"town"},{"id":"313015851","name":"Kalalé","lat":10.2880733,"lon":3.3792735,"type":"town"},{"id":"313015871","name":"Nikki","lat":9.9363383,"lon":3.2085658,"type":"city"},{"id":"343622708","name":"Boukombé","lat":10.1832167,"lon":1.1000529,"type":"town"},{"id":"408772064","name":"Tanougou","lat":10.8099544,"lon":1.4355041,"type":"village"},{"id":"414049498","name":"Kpawa","lat":9.1543898,"lon":2.0569447,"type":"village"},{"id":"414735877","name":"Wassa","lat":9.6150215,"lon":1.6301476,"type":"village"},{"id":"414735907","name":"Faka Faka","lat":9.5819358,"lon":1.6247561,"type":"village"},{"id":"414735920","name":"Goumbakou","lat":9.555192,"lon":1.6313947,"type":"village"},{"id":"414735955","name":"Kakindoni","lat":9.50931,"lon":1.6304416,"type":"village"},{"id":"414735969","name":"Pélébina","lat":9.4731597,"lon":1.6392279,"type":"village"},{"id":"414735980","name":"Gbessou","lat":9.4551172,"lon":1.6334003,"type":"village"},{"id":"414735991","name":"Bougou","lat":9.4376196,"lon":1.620465,"type":"village"},{"id":"414737877","name":"Nagayilé","lat":9.3170817,"lon":1.563131,"type":"village"},{"id":"425463532","name":"Wari-Maro","lat":9.1655911,"lon":2.1605948,"type":"village"},{"id":"442127218","name":"Aledjo-Koura","lat":9.3456334,"lon":1.4426657,"type":"village"},{"id":"442134145","name":"Bassila","lat":9.0075302,"lon":1.6642215,"type":"town"},{"id":"442134154","name":"Pira","lat":8.4939619,"lon":1.7249944,"type":"town"},{"id":"442134341","name":"Prékété","lat":8.6659123,"lon":1.6329755,"type":"town"},{"id":"442136278","name":"Pénélan","lat":9.247273,"lon":1.5085982,"type":"village"},{"id":"459525150","name":"Banikoara","lat":11.3004241,"lon":2.4370752,"type":"city"},{"id":"496107708","name":"Ségbana","lat":10.9286988,"lon":3.6952064,"type":"town"},{"id":"496108848","name":"Péhunco","lat":10.2308948,"lon":2.0004282,"type":"town"},{"id":"496121386","name":"Bétérou","lat":9.2021611,"lon":2.2736894,"type":"town"},{"id":"496133867","name":"Kouandé","lat":10.3321794,"lon":1.6919847,"type":"city"},{"id":"496140932","name":"Malanville","lat":11.8618128,"lon":3.3862982,"type":"city"},{"id":"496262977","name":"Bohicon","lat":7.1816331,"lon":2.0695683,"type":"city"},{"id":"496264781","name":"Aplahoué","lat":6.9396098,"lon":1.6751946,"type":"city"},{"id":"496265045","name":"Dogbo-Tota","lat":6.8014046,"lon":1.781282,"type":"city"},{"id":"501384821","name":"Owode","lat":7.05,"lon":2.75,"type":"village"},{"id":"746961312","name":"Gbelito","lat":7.0089407,"lon":1.7462404,"type":"village"},{"id":"746970105","name":"Yehouemey","lat":6.9683705,"lon":1.7070865,"type":"village"},{"id":"807261929","name":"Ouaké","lat":9.6642475,"lon":1.3859323,"type":"town"},{"id":"895493762","name":"Gadomé","lat":6.4022076,"lon":1.9092695,"type":"village"},{"id":"895493787","name":"Agatogbo","lat":6.4018183,"lon":1.9221955,"type":"town"},{"id":"895569152","name":"Kissamey","lat":6.992851,"lon":1.729013,"type":"village"},{"id":"895569167","name":"Agame","lat":6.725845,"lon":1.766372,"type":"village"},{"id":"895569259","name":"Adjahomey","lat":7.0495503,"lon":1.8033153,"type":"village"},{"id":"895569355","name":"Hagoumey","lat":6.8436002,"lon":1.7644405,"type":"village"},{"id":"895569479","name":"Lanta","lat":7.1041964,"lon":1.8644084,"type":"village"},{"id":"895569529","name":"Avegamey","lat":7.025497,"lon":1.7564553,"type":"village"},{"id":"895780050","name":"Doyissa","lat":7.9882725,"lon":1.983347,"type":"village"},{"id":"895780053","name":"Banté","lat":8.4114512,"lon":1.886978,"type":"village"},{"id":"910855162","name":"Pam-Pam","lat":10.0920291,"lon":1.4737589,"type":"village"},{"id":"910855177","name":"Nalouhou 2","lat":9.7593615,"lon":1.6028079,"type":"village"},{"id":"910855184","name":"Tigninti","lat":10.164647,"lon":1.417395,"type":"village"},{"id":"910855199","name":"Katabam","lat":9.9064251,"lon":1.5286505,"type":"village"},{"id":"910855204","name":"Sinaissir","lat":10.0570756,"lon":1.4838776,"type":"village"},{"id":"910855208","name":"Birni","lat":9.9912459,"lon":1.5274595,"type":"village"},{"id":"910855218","name":"Copargo","lat":9.8395429,"lon":1.5467475,"type":"town"},{"id":"910855223","name":"Papatia","lat":10.0383666,"lon":1.4893321,"type":"village"},{"id":"910855237","name":"Pabegou","lat":9.7933051,"lon":1.5736599,"type":"village"},{"id":"910855253","name":"Berecingou","lat":10.2296459,"lon":1.398203,"type":"village"},{"id":"910855268","name":"Nalouhou 1","lat":9.746297,"lon":1.615559,"type":"village"},{"id":"910855279","name":"Kankoulga","lat":9.9498802,"lon":1.5320315,"type":"village"},{"id":"910855299","name":"Perma","lat":10.1144986,"lon":1.4429194,"type":"village"},{"id":"915387427","name":"Koussoucoingou","lat":10.1806654,"lon":1.2028261,"type":"village"},{"id":"1086600250","name":"Frigniou","lat":9.1269477,"lon":1.5995931,"type":"village"},{"id":"1106919280","name":"Lalo","lat":6.9300818,"lon":1.8902204,"type":"town"},{"id":"1128220145","name":"Bodi","lat":9.3775838,"lon":1.566552,"type":"village"},{"id":"1177320774","name":"Dogué","lat":9.1014312,"lon":1.9370867,"type":"village"},{"id":"1177320796","name":"Kikélé","lat":9.0103048,"lon":1.7317617,"type":"village"},{"id":"1177320801","name":"Biguina-Akpassa","lat":8.7768349,"lon":1.6477986,"type":"village"},{"id":"1177320853","name":"Banigri","lat":9.4121435,"lon":1.7566818,"type":"village"},{"id":"1177320902","name":"Kprèkètè","lat":8.6704369,"lon":1.6501592,"type":"village"},{"id":"1177320906","name":"Kikélé-Logba","lat":9.0250829,"lon":1.7485502,"type":"village"},{"id":"1177320915","name":"Biguina-Holoudè","lat":8.7657264,"lon":1.6487989,"type":"village"},{"id":"1177321033","name":"Akaradè","lat":9.3460105,"lon":1.42355,"type":"village"},{"id":"1177321093","name":"Biguina-Tosso","lat":8.749825,"lon":1.6467284,"type":"village"},{"id":"1177321104","name":"Kodowari","lat":9.189875,"lon":1.570746,"type":"village"},{"id":"1177321111","name":"Aoro-Lokpa","lat":8.8327432,"lon":1.6511432,"type":"village"},{"id":"1177321152","name":"Partago","lat":9.3260691,"lon":1.4740945,"type":"village"},{"id":"1177321267","name":"Igbomakro","lat":9.0793605,"lon":1.9085156,"type":"village"},{"id":"1177321277","name":"Nioro","lat":9.2849622,"lon":1.500535,"type":"village"},{"id":"1177321307","name":"Barikini","lat":9.0194084,"lon":1.6613787,"type":"village"},{"id":"1177321314","name":"Kadégoué","lat":9.3182126,"lon":1.423035,"type":"village"},{"id":"1177321358","name":"Igbèrè","lat":8.9918646,"lon":1.9605625,"type":"village"},{"id":"1177342283","name":"Manigri","lat":8.9737216,"lon":1.7236256,"type":"town"},{"id":"1187128628","name":"Diépani-Balimboli","lat":9.086494,"lon":1.634264,"type":"village"},{"id":"1187128636","name":"Balimboli","lat":9.073071,"lon":1.640289,"type":"village"},{"id":"1187128638","name":"Tchétou","lat":9.144395,"lon":1.590454,"type":"village"},{"id":"1303908409","name":"Tchatchou","lat":9.1267264,"lon":2.55831,"type":"town"},{"id":"1311838551","name":"Bayakou","lat":9.366571,"lon":1.750652,"type":"village"},{"id":"1311838554","name":"M'boroko","lat":9.1886092,"lon":1.7512209,"type":"village"},{"id":"1311838558","name":"Dengou","lat":9.3209746,"lon":1.7419209,"type":"village"},{"id":"1311838559","name":"Saramanga","lat":9.221474,"lon":1.777135,"type":"village"},{"id":"1313128072","name":"Taba","lat":9.2815148,"lon":1.6575947,"type":"village"},{"id":"1344364476","name":"Founga","lat":9.6887048,"lon":1.5924728,"type":"village"},{"id":"1344364514","name":"Dangoussar","lat":9.6814809,"lon":1.5514897,"type":"village"},{"id":"1344364545","name":"Anandana","lat":9.944461,"lon":1.394184,"type":"village"},{"id":"1344364583","name":"Kawado","lat":9.7716569,"lon":1.392461,"type":"village"},{"id":"1344364598","name":"Barei","lat":9.6806029,"lon":1.5707986,"type":"village"},{"id":"1511437253","name":"Midangbé","lat":6.7883066,"lon":1.8447397,"type":"village"},{"id":"1511459543","name":"Sebiohoué-Adjintimey","lat":6.8345647,"lon":1.6738614,"type":"village"},{"id":"1511459562","name":"Ahomey","lat":6.800915,"lon":1.7434051,"type":"village"},{"id":"1511770080","name":"Lokogohoué","lat":6.7798703,"lon":1.841307,"type":"village"},{"id":"1590733212","name":"Oubérou","lat":9.209542,"lon":2.2317482,"type":"village"},{"id":"1590933142","name":"Bopa","lat":6.5893347,"lon":1.9668937,"type":"town"},{"id":"1590933146","name":"Doutou","lat":6.5725054,"lon":1.8792723,"type":"town"},{"id":"1660451359","name":"Abomey-Calavi","lat":6.4538637,"lon":2.354245,"type":"city"},{"id":"1669842684","name":"Porto-Novo","lat":6.4990718,"lon":2.6253361,"type":"city"},{"id":"1671041800","name":"Akpro-Missérété","lat":6.5584963,"lon":2.5893397,"type":"town"},{"id":"1671044835","name":"Avrankou","lat":6.5564209,"lon":2.6550687,"type":"town"},{"id":"1671046819","name":"Adjarra","lat":6.5282474,"lon":2.6629455,"type":"town"},{"id":"1671048819","name":"Aguégués","lat":6.4533468,"lon":2.543644,"type":"town"},{"id":"1681472004","name":"Fafadji","lat":6.8520719,"lon":1.8268116,"type":"village"},{"id":"1776467369","name":"Cotonou","lat":6.3676953,"lon":2.4252507,"type":"city"},{"id":"2071065504","name":"N'Dali","lat":9.8622949,"lon":2.7191259,"type":"city"},{"id":"2071888096","name":"Natitingou","lat":10.3051511,"lon":1.3808554,"type":"city"},{"id":"2071888099","name":"Savè","lat":8.0320548,"lon":2.4842293,"type":"town"},{"id":"2091201506","name":"Pèrèrè","lat":9.7980143,"lon":2.9913586,"type":"town"},{"id":"2106812046","name":"Tanguieta","lat":10.6300983,"lon":1.2706288,"type":"town"},{"id":"2106812052","name":"Korontière","lat":10.2674072,"lon":0.9960146,"type":"village"},{"id":"2152603558","name":"Hèdjamè","lat":6.7802742,"lon":1.8571072,"type":"village"},{"id":"2152603629","name":"Montchohoué","lat":6.7775412,"lon":1.8459317,"type":"village"},{"id":"2152603782","name":"Segba","lat":6.8091632,"lon":1.8212945,"type":"village"},{"id":"2152615643","name":"Kansouhoué","lat":6.8812297,"lon":1.753531,"type":"village"},{"id":"2152615726","name":"Sossouhoué","lat":6.8829985,"lon":1.748765,"type":"village"},{"id":"2152615785","name":"Kokohoué","lat":6.8730591,"lon":1.7387168,"type":"village"},{"id":"2152615803","name":"Déganhoué","lat":6.8558079,"lon":1.7685368,"type":"village"},{"id":"2157591404","name":"Alfa-Kpara","lat":9.6139125,"lon":1.7700552,"type":"village"},{"id":"2157591407","name":"Barerou","lat":9.3241848,"lon":2.5069585,"type":"village"},{"id":"2157591411","name":"Kpéssou","lat":9.2995812,"lon":2.1795381,"type":"village"},{"id":"2157591415","name":"Onklou","lat":9.4996284,"lon":1.9847102,"type":"village"},{"id":"2157591418","name":"Partago","lat":9.5342084,"lon":1.9101599,"type":"village"},{"id":"2157591661","name":"Sanson","lat":9.277565,"lon":2.4291363,"type":"town"},{"id":"2157591662","name":"Sebou","lat":9.3153763,"lon":2.4910668,"type":"village"},{"id":"2157591663","name":"Serou","lat":9.6592364,"lon":1.7035722,"type":"village"},{"id":"2157591667","name":"Yébéssi","lat":9.3381781,"lon":2.1365359,"type":"village"},{"id":"2157614169","name":"Komiguea","lat":9.4480848,"lon":2.624312,"type":"village"},{"id":"2161679329","name":"Comè","lat":6.4041973,"lon":1.8840863,"type":"town"},{"id":"2186982840","name":"Boko","lat":9.4901402,"lon":2.6263978,"type":"village"},{"id":"2186982846","name":"Ouénou","lat":9.7866128,"lon":2.63695,"type":"town"},{"id":"2186989502","name":"Sirarou","lat":9.5891431,"lon":2.6489264,"type":"village"},{"id":"2186989506","name":"Tamarou","lat":9.7352223,"lon":2.6973839,"type":"village"},{"id":"2192783661","name":"Bori","lat":9.7475763,"lon":2.4386704,"type":"town"},{"id":"2192783667","name":"Guessou-Banm Taka","lat":10.0417025,"lon":2.6473675,"type":"town"},{"id":"2192783672","name":"Konou","lat":10.0147706,"lon":2.5964949,"type":"village"},{"id":"2197505361","name":"Manta","lat":10.3524877,"lon":1.1106539,"type":"village"},{"id":"2197628452","name":"Natta","lat":10.222478,"lon":1.1163411,"type":"village"},{"id":"2197637376","name":"Kouaba","lat":10.2499663,"lon":1.2298435,"type":"village"},{"id":"2205181304","name":"Kouporgou","lat":10.2619335,"lon":1.1278681,"type":"village"},{"id":"2205489849","name":"Koukoua","lat":10.2367056,"lon":1.109964,"type":"village"},{"id":"2245162179","name":"Badjoudè","lat":9.7168104,"lon":1.4142794,"type":"village"},{"id":"2248036954","name":"Dassa-Zoumé","lat":7.7815402,"lon":2.183606,"type":"city"},{"id":"2248082547","name":"Camaté","lat":7.8481126,"lon":2.2153326,"type":"village"},{"id":"2260507142","name":"Cobli","lat":10.4892543,"lon":1.0081713,"type":"town"},{"id":"2282827069","name":"Savalou","lat":7.9297324,"lon":1.9780951,"type":"city"},{"id":"2293747795","name":"Biro","lat":9.9035389,"lon":2.9469131,"type":"town"},{"id":"2293747797","name":"Sakarou","lat":9.8806778,"lon":2.7806474,"type":"village"},{"id":"2293747799","name":"Worokpo","lat":9.8605504,"lon":2.9729469,"type":"village"},{"id":"2302211084","name":"Sakparou","lat":9.803116,"lon":2.9744601,"type":"village"},{"id":"2304828846","name":"Kandi","lat":11.1311029,"lon":2.9322321,"type":"city"},{"id":"2304867251","name":"Lokossa","lat":6.6458524,"lon":1.7171404,"type":"city"},{"id":"2304872572","name":"Sakété","lat":6.7377567,"lon":2.6551566,"type":"city"},{"id":"2306555809","name":"Gogounou","lat":10.8393454,"lon":2.8350479,"type":"town"},{"id":"2306558779","name":"Karimama","lat":12.0684051,"lon":3.1844069,"type":"town"},{"id":"2308654107","name":"Kérou","lat":10.8263035,"lon":2.1128252,"type":"town"},{"id":"2311642139","name":"Sinendé","lat":10.3444859,"lon":2.3822189,"type":"town"},{"id":"2312709884","name":"Materi","lat":10.6961681,"lon":1.0630914,"type":"town"},{"id":"2312709885","name":"Toucountouna","lat":10.4984345,"lon":1.3780009,"type":"town"},{"id":"2312747963","name":"Glazoué","lat":7.9732156,"lon":2.2406872,"type":"town"},{"id":"2312747964","name":"Ouèssè","lat":8.4919261,"lon":2.4258417,"type":"city"},{"id":"2312907989","name":"Adjohoun","lat":6.717471,"lon":2.4773959,"type":"town"},{"id":"2312907990","name":"Bonou","lat":6.9052139,"lon":2.4538661,"type":"town"},{"id":"2312907991","name":"Dangbo","lat":6.5850619,"lon":2.5508708,"type":"town"},{"id":"2312944481","name":"Ouinhi","lat":7.0913997,"lon":2.5104408,"type":"town"},{"id":"2312944482","name":"Zangnanado","lat":7.2225385,"lon":2.3870849,"type":"town"},{"id":"2312944483","name":"Zogbodomey","lat":7.0682962,"lon":2.1187793,"type":"town"},{"id":"2312973701","name":"Agbangnizoun","lat":7.075825,"lon":1.9705679,"type":"town"},{"id":"2312973702","name":"Covè","lat":7.2195352,"lon":2.3399622,"type":"town"},{"id":"2312973703","name":"Djidja","lat":7.3447833,"lon":1.9342593,"type":"town"},{"id":"2312973704","name":"Za-Kpota","lat":7.2309196,"lon":2.2170444,"type":"town"},{"id":"2313040349","name":"Sô-Ava","lat":6.4969731,"lon":2.4005373,"type":"town"},{"id":"2313207442","name":"Allada","lat":6.6658411,"lon":2.1511876,"type":"city"},{"id":"2313207444","name":"Athiémé","lat":6.5812935,"lon":1.6675163,"type":"town"},{"id":"2313207445","name":"Kpomassè","lat":6.4450306,"lon":2.0137014,"type":"town"},{"id":"2313207453","name":"Toffo","lat":6.8381029,"lon":2.1131289,"type":"town"},{"id":"2313207457","name":"Tori-Bossito","lat":6.502478,"lon":2.1441704,"type":"town"},{"id":"2313207461","name":"Aifa","lat":6.7927612,"lon":2.2771434,"type":"village"},{"id":"2313262061","name":"Djakotomey","lat":6.9020379,"lon":1.7178953,"type":"town"},{"id":"2313262066","name":"Sè","lat":6.516933,"lon":1.8229823,"type":"town"},{"id":"2313262067","name":"Klouékanmè","lat":6.9796836,"lon":1.8427041,"type":"town"},{"id":"2313262068","name":"Toviklin","lat":6.893515,"lon":1.8360905,"type":"town"},{"id":"2313302868","name":"Adja-Ouèrè","lat":7.0036929,"lon":2.6101941,"type":"town"},{"id":"2313302869","name":"Ifangni","lat":6.6805991,"lon":2.718289,"type":"town"},{"id":"2313302870","name":"Kétou","lat":7.3604193,"lon":2.6024222,"type":"city"},{"id":"2313302871","name":"Pobè","lat":6.9820238,"lon":2.666791,"type":"city"},{"id":"2313302872","name":"Sèmè-Kpodji","lat":6.3814684,"lon":2.6044573,"type":"town"},{"id":"2325176033","name":"Soubo-Baraworou","lat":10.0642278,"lon":2.8326376,"type":"village"},{"id":"2325176063","name":"Dérassi","lat":10.1615049,"lon":3.261694,"type":"town"},{"id":"2325176095","name":"Guiri-Gando","lat":10.194477,"lon":3.265747,"type":"village"},{"id":"2325176145","name":"Matchorè","lat":10.244633,"lon":3.2481703,"type":"village"},{"id":"2325176167","name":"Gando-Baka","lat":10.2707901,"lon":3.2544302,"type":"village"},{"id":"2325176235","name":"Péonga","lat":10.3396832,"lon":3.2683138,"type":"town"},{"id":"2325176239","name":"Guéné","lat":11.7249824,"lon":3.2233525,"type":"town"},{"id":"2325176251","name":"Kantoro","lat":11.7734667,"lon":3.2157303,"type":"village"},{"id":"2325176259","name":"Bodjécali","lat":11.8086997,"lon":3.3814495,"type":"village"},{"id":"2325176275","name":"Sakaouan","lat":11.8392595,"lon":3.2329546,"type":"village"},{"id":"2325176322","name":"Kargui","lat":11.9376893,"lon":3.2310928,"type":"village"},{"id":"2325176340","name":"Birni-Lafia","lat":11.9785829,"lon":3.2205809,"type":"town"},{"id":"2325176368","name":"Tondikoaria","lat":12.0329145,"lon":3.2079925,"type":"village"},{"id":"2325176379","name":"Ouadjito","lat":6.5198826,"lon":1.999548,"type":"village"},{"id":"2325176387","name":"Dékanmè","lat":6.5665855,"lon":1.9960127,"type":"town"},{"id":"2325176390","name":"Dédomè","lat":6.5761016,"lon":2.009855,"type":"town"},{"id":"2331705994","name":"Abeokouta","lat":6.8123811,"lon":2.4728283,"type":"village"},{"id":"2331705997","name":"Affamè","lat":6.8235981,"lon":2.4730911,"type":"town"},{"id":"2331705998","name":"Ahicon","lat":7.072134,"lon":2.5073782,"type":"village"},{"id":"2331705999","name":"Atchabita","lat":6.8969459,"lon":2.4534777,"type":"village"},{"id":"2331706000","name":"Atchonsa","lat":6.8560969,"lon":2.4653551,"type":"village"},{"id":"2331706002","name":"Bossa","lat":7.0005871,"lon":2.4698971,"type":"village"},{"id":"2331706008","name":"Dasso","lat":7.0109964,"lon":2.4669881,"type":"village"},{"id":"2331706010","name":"Goutin","lat":6.7385557,"lon":2.4836321,"type":"village"},{"id":"2331706011","name":"Kpedekpo","lat":7.2325499,"lon":2.5006873,"type":"town"},{"id":"2331706015","name":"Oke-Ola","lat":7.2188465,"lon":2.5051182,"type":"village"},{"id":"2331706068","name":"Toué","lat":7.2135645,"lon":2.3153291,"type":"village"},{"id":"2331706069","name":"Za-Gohoumé","lat":7.2008722,"lon":2.2187066,"type":"village"},{"id":"2331706070","name":"Zounge","lat":7.0281206,"lon":2.4816742,"type":"village"},{"id":"2331967022","name":"Sédjé-Dénou","lat":6.7249867,"lon":2.3791811,"type":"village"},{"id":"2331967064","name":"Setto","lat":7.4975861,"lon":2.0742249,"type":"town"},{"id":"2339058884","name":"Kidaroukpérou","lat":10.3018785,"lon":3.3217731,"type":"village"},{"id":"2345341419","name":"Zohoudji","lat":6.8208132,"lon":1.6370835,"type":"village"},{"id":"2348404091","name":"Godomey","lat":6.3854438,"lon":2.3432407,"type":"town"},{"id":"2394887772","name":"Koki","lat":11.8566842,"lon":3.4200516,"type":"village"},{"id":"2394887773","name":"Molla","lat":11.9003463,"lon":3.2661684,"type":"village"},{"id":"2429137839","name":"Tchetti","lat":7.8283591,"lon":1.6626374,"type":"village"},{"id":"2435751496","name":"Hêvê","lat":6.2857337,"lon":1.844173,"type":"village"},{"id":"2435751499","name":"Apoutagbo","lat":6.2816387,"lon":1.839101,"type":"village"},{"id":"2436724575","name":"Zoungbodji-Centre","lat":6.3404417,"lon":2.0888883,"type":"village"},{"id":"2436819142","name":"Djègbadji","lat":6.3278183,"lon":2.082377,"type":"village"},{"id":"2437399071","name":"Cana","lat":7.1194346,"lon":2.0942715,"type":"village"},{"id":"2437598419","name":"Koussoukpa","lat":7.0619952,"lon":2.2719195,"type":"village"},{"id":"2437598513","name":"Lokoli","lat":7.0612818,"lon":2.2653642,"type":"village"},{"id":"2437598528","name":"Dèmè","lat":7.0572784,"lon":2.2484663,"type":"village"},{"id":"2437643749","name":"Domè","lat":7.0961616,"lon":2.3090413,"type":"town"},{"id":"2437643788","name":"Gbaffo","lat":7.1050723,"lon":2.3111107,"type":"village"},{"id":"2437698934","name":"Banamè","lat":7.3247124,"lon":2.3325353,"type":"village"},{"id":"2437698962","name":"Agonlin-Houégbo","lat":7.2269903,"lon":2.3992494,"type":"village"},{"id":"2437794538","name":"Doukonta","lat":6.6725318,"lon":1.7023042,"type":"village"},{"id":"2437796013","name":"Duimè-Houin","lat":6.6203565,"lon":1.7671922,"type":"village"},{"id":"2466294219","name":"Datori","lat":10.4131233,"lon":0.7881224,"type":"village"},{"id":"2466325859","name":"Gouandé","lat":10.7862872,"lon":0.9204986,"type":"village"},{"id":"2466325861","name":"Tiélé","lat":10.7268159,"lon":1.205029,"type":"village"},{"id":"2466336819","name":"Tayakou","lat":10.5427782,"lon":1.2120186,"type":"village"},{"id":"2466364688","name":"Avakpa","lat":6.6667092,"lon":2.0423502,"type":"village"},{"id":"2466399016","name":"Massé","lat":7.1699344,"lon":2.5464176,"type":"village"},{"id":"2466409591","name":"Alafiarou","lat":9.0277064,"lon":2.4037421,"type":"town"},{"id":"2466409592","name":"Goro","lat":8.9761393,"lon":2.4978395,"type":"town"},{"id":"2466409593","name":"Kinnou-Kparou","lat":9.0764142,"lon":2.5028353,"type":"village"},{"id":"2466409594","name":"Tchaourou","lat":8.8881676,"lon":2.596108,"type":"town"},{"id":"2466508431","name":"Béssassi","lat":10.3861196,"lon":3.4710735,"type":"village"},{"id":"2466508434","name":"Gawézi","lat":10.3967015,"lon":3.5746601,"type":"village"},{"id":"2466508437","name":"Néganzi","lat":10.5939688,"lon":3.8070032,"type":"village"},{"id":"2466559713","name":"Kotopounga","lat":10.3094618,"lon":1.5318195,"type":"village"},{"id":"2466559714","name":"Kouarfa","lat":10.4862696,"lon":1.5144114,"type":"village"},{"id":"2466559715","name":"Ouabou","lat":10.4945275,"lon":1.449486,"type":"village"},{"id":"2466559946","name":"Yarikou","lat":10.3857833,"lon":1.5748998,"type":"village"},{"id":"2466595763","name":"Pénessoulou","lat":9.2404622,"lon":1.5522969,"type":"village"},{"id":"2466629600","name":"Firou","lat":10.9173226,"lon":1.9442057,"type":"town"},{"id":"2466946465","name":"Brignamaro","lat":10.7410878,"lon":2.0721339,"type":"village"},{"id":"2466946467","name":"Djoléni","lat":10.9906882,"lon":1.9878713,"type":"village"},{"id":"2466946469","name":"Kaobagou","lat":11.0676109,"lon":1.9206538,"type":"town"},{"id":"2466998907","name":"Angaradébou","lat":10.2789399,"lon":3.2406678,"type":"village"},{"id":"2466998910","name":"Batin","lat":10.4485937,"lon":2.9726806,"type":"village"},{"id":"2466998913","name":"Boa","lat":10.3702084,"lon":3.2198412,"type":"village"},{"id":"2466998920","name":"Djèga-Dunkassa","lat":10.2990456,"lon":3.2177245,"type":"village"},{"id":"2466998923","name":"Dunkassa","lat":10.3556586,"lon":3.1498407,"type":"town"},{"id":"2466998926","name":"Fô Bouré","lat":10.1130036,"lon":2.4016564,"type":"village"},{"id":"2466998930","name":"Gbéssakpérou","lat":10.4207163,"lon":3.0226068,"type":"village"},{"id":"2466998933","name":"Mani","lat":10.4835933,"lon":2.7795076,"type":"village"},{"id":"2466999658","name":"Sikki","lat":10.1799356,"lon":2.3881847,"type":"village"},{"id":"2466999661","name":"Yarra","lat":10.5090591,"lon":2.4758138,"type":"village"},{"id":"2467005754","name":"Tobré","lat":10.1962499,"lon":2.1305283,"type":"village"},{"id":"2467049173","name":"Kassa 2","lat":11.5675807,"lon":3.5109431,"type":"village"},{"id":"2467049178","name":"Madécali","lat":11.7038421,"lon":3.5482894,"type":"town"},{"id":"2467049181","name":"Monkassa","lat":11.7852195,"lon":3.3972169,"type":"village"},{"id":"2467065111","name":"Bouanri","lat":10.1971052,"lon":2.8786029,"type":"town"},{"id":"2467065112","name":"Dabou","lat":10.1730807,"lon":2.7478504,"type":"village"},{"id":"2467065425","name":"Wanrarou","lat":10.1667603,"lon":2.7410161,"type":"village"},{"id":"2467085475","name":"Bouka","lat":10.2148628,"lon":3.1367518,"type":"village"},{"id":"2467085476","name":"Ina","lat":9.9667956,"lon":2.7264778,"type":"town"},{"id":"2467135914","name":"Arbonga","lat":11.380405,"lon":2.433189,"type":"village"},{"id":"2467135921","name":"Founougo","lat":11.4765482,"lon":2.5326377,"type":"town"},{"id":"2467135926","name":"Kandérou","lat":11.6554675,"lon":2.5398213,"type":"village"},{"id":"2467576665","name":"Sompérekou","lat":11.3226056,"lon":2.4915802,"type":"town"},{"id":"2467631216","name":"Agonlin","lat":6.9979282,"lon":2.0546951,"type":"village"},{"id":"2467631218","name":"Ouassa","lat":7.0539842,"lon":2.0943732,"type":"village"},{"id":"2467631609","name":"Sé","lat":6.7538493,"lon":2.1036484,"type":"village"},{"id":"2467649539","name":"Akiza","lat":6.9717997,"lon":2.0420135,"type":"village"},{"id":"2467649540","name":"Zoungbo-Zounmè","lat":7.1055314,"lon":2.0445789,"type":"village"},{"id":"2467649541","name":"Lissazoumè","lat":7.1190085,"lon":2.0001841,"type":"village"},{"id":"2467649574","name":"Sinhoué-Kpota","lat":7.0324118,"lon":1.979211,"type":"village"},{"id":"2472333322","name":"Dérou","lat":11.2924803,"lon":2.3973192,"type":"village"},{"id":"2472333323","name":"Batran","lat":11.4017301,"lon":2.3697388,"type":"village"},{"id":"2472333533","name":"Songorogougou","lat":11.2755451,"lon":2.3716624,"type":"village"},{"id":"2472333534","name":"Toké-Banta","lat":11.3035924,"lon":2.4149844,"type":"village"},{"id":"2472357334","name":"Dassari","lat":10.8114546,"lon":1.1439349,"type":"town"},{"id":"2472888085","name":"Thio","lat":7.998301,"lon":2.2976621,"type":"town"},{"id":"2472888086","name":"Aklampa","lat":8.218688,"lon":2.185473,"type":"village"},{"id":"2472888105","name":"Hoko","lat":8.0642459,"lon":2.264553,"type":"village"},{"id":"2472888106","name":"Assanté","lat":8.1307998,"lon":2.2548536,"type":"village"},{"id":"2472888513","name":"Zoungou-Pantrossi","lat":10.7327429,"lon":2.9788655,"type":"town"},{"id":"2473306972","name":"Zè","lat":6.7221499,"lon":2.2883299,"type":"town"},{"id":"2473306973","name":"Agodogoué","lat":7.3324089,"lon":1.6509114,"type":"village"},{"id":"2473306974","name":"Akassato","lat":6.5073708,"lon":2.365643,"type":"village"},{"id":"2473306976","name":"Attogon","lat":6.7283347,"lon":2.1595636,"type":"village"},{"id":"2473306977","name":"Azovè","lat":6.9471178,"lon":1.7038129,"type":"village"},{"id":"2473306978","name":"Gbokoutou","lat":6.7324839,"lon":2.7096698,"type":"village"},{"id":"2473306979","name":"Tohouè","lat":6.4306558,"lon":2.6630653,"type":"town"},{"id":"2473306980","name":"Djèrègbé","lat":6.4279504,"lon":2.6250822,"type":"town"},{"id":"2473306981","name":"Govié","lat":6.6707586,"lon":2.2005261,"type":"village"},{"id":"2473306982","name":"Katagon","lat":6.6224243,"lon":2.5931471,"type":"village"},{"id":"2473306984","name":"Ouègamè","lat":6.9362088,"lon":1.7533673,"type":"village"},{"id":"2473306985","name":"Kpoguidi","lat":6.4251577,"lon":2.7020542,"type":"village"},{"id":"2473308179","name":"Sékou","lat":6.6361649,"lon":2.2270883,"type":"town"},{"id":"2473308184","name":"Sèhouè","lat":6.9258324,"lon":2.2711315,"type":"town"},{"id":"2473308188","name":"Tangbo","lat":6.5957218,"lon":2.2784861,"type":"town"},{"id":"2473308191","name":"Tanta","lat":6.6806095,"lon":2.2407537,"type":"village"},{"id":"2473308195","name":"Togodo","lat":6.6668058,"lon":2.1707829,"type":"village"},{"id":"2473308198","name":"Zinvié","lat":6.6133818,"lon":2.3567957,"type":"village"},{"id":"2474050578","name":"Lissègazoun","lat":6.6295361,"lon":2.0909496,"type":"village"},{"id":"2474050584","name":"Ouokon","lat":7.1009041,"lon":2.4658201,"type":"village"},{"id":"2474050587","name":"Paouignan","lat":7.6751763,"lon":2.2274102,"type":"village"},{"id":"2474051553","name":"Akoffodjoulé","lat":7.7567413,"lon":2.3741621,"type":"village"},{"id":"2474051640","name":"Sagon","lat":7.1563052,"lon":2.4260594,"type":"village"},{"id":"2474167724","name":"Lobogo","lat":6.6270955,"lon":1.9035145,"type":"town"},{"id":"2474167771","name":"Tozoumè","lat":6.9460194,"lon":1.8386507,"type":"village"},{"id":"2474167854","name":"Tozounmè","lat":6.7465906,"lon":1.8275358,"type":"village"},{"id":"2474283406","name":"Adjassagon","lat":7.0021534,"lon":1.9516879,"type":"village"},{"id":"2474283413","name":"Koguédé","lat":7.2117551,"lon":2.1715647,"type":"village"},{"id":"2474283614","name":"Kinta","lat":7.0730379,"lon":2.0084759,"type":"town"},{"id":"2474284281","name":"Zoungbonou","lat":6.5651813,"lon":1.8175499,"type":"town"},{"id":"2474284284","name":"Tindji","lat":7.2325484,"lon":2.107361,"type":"village"},{"id":"2474378642","name":"Agouna","lat":7.5645454,"lon":1.7012644,"type":"village"},{"id":"2474378643","name":"Doume","lat":8.0174273,"lon":1.6448043,"type":"village"},{"id":"2485804106","name":"Idigny","lat":7.4770592,"lon":2.7160786,"type":"village"},{"id":"2485804107","name":"Igbodja","lat":7.9071227,"lon":2.5423041,"type":"village"},{"id":"2486129486","name":"Idadjo","lat":8.5646348,"lon":2.2413047,"type":"village"},{"id":"2486129487","name":"Moka","lat":8.0169458,"lon":2.7005139,"type":"village"},{"id":"2486129745","name":"Sokponta","lat":7.8703354,"lon":2.2162005,"type":"village"},{"id":"2502503224","name":"Dipoli","lat":10.323478,"lon":0.9886169,"type":"village"},{"id":"2502503400","name":"Tabota","lat":10.3962332,"lon":1.046276,"type":"village"},{"id":"2502559963","name":"Koutangou","lat":10.3643243,"lon":1.076374,"type":"village"},{"id":"2502560650","name":"Koukouakoumagou","lat":10.3338957,"lon":1.0723267,"type":"village"},{"id":"2508223246","name":"Ganvié","lat":6.4681116,"lon":2.3899667,"type":"town"},{"id":"2529153340","name":"Ouèdèmè","lat":8.0139989,"lon":2.1744952,"type":"village"},{"id":"2537544559","name":"Agbanto","lat":6.3899144,"lon":1.9464601,"type":"town"},{"id":"2537614456","name":"Allahé","lat":7.164983,"lon":2.259879,"type":"village"},{"id":"2537614460","name":"Doga","lat":7.2033494,"lon":2.3867236,"type":"village"},{"id":"2537614465","name":"Dovi-Cogbé","lat":7.16755,"lon":2.3449521,"type":"village"},{"id":"2537614470","name":"Dovi-Dizigo","lat":7.1619628,"lon":2.3816337,"type":"village"},{"id":"2537614474","name":"Dovi-Dovè","lat":7.1769266,"lon":2.3869139,"type":"village"},{"id":"2537614477","name":"Laïnta","lat":7.1839342,"lon":2.3415282,"type":"village"},{"id":"2537614481","name":"Zouto","lat":7.2300375,"lon":2.2356101,"type":"village"},{"id":"2590093231","name":"Kountori","lat":10.4060443,"lon":0.943731,"type":"village"},{"id":"2590099236","name":"Namoutiaga","lat":10.4577166,"lon":0.9610939,"type":"village"},{"id":"2590113692","name":"Chabi Kouma","lat":10.0043444,"lon":1.474298,"type":"town"},{"id":"2608184383","name":"Oroukayo","lat":10.3020017,"lon":1.6527402,"type":"village"},{"id":"2608184387","name":"Pouya","lat":10.2863223,"lon":1.4855423,"type":"village"},{"id":"2619415630","name":"Onigbolo","lat":7.1620844,"lon":2.6529298,"type":"town"},{"id":"2623897008","name":"Manougou","lat":10.6490048,"lon":1.3211709,"type":"village"},{"id":"2794185058","name":"Liboussou","lat":10.9186373,"lon":3.4875238,"type":"town"},{"id":"2794185064","name":"Sam","lat":11.0318261,"lon":2.7367257,"type":"village"},{"id":"2794185148","name":"Sonsoro","lat":11.0863219,"lon":2.7592781,"type":"village"},{"id":"2938104304","name":"Adjaha","lat":6.3268302,"lon":1.8353515,"type":"town"},{"id":"3242553493","name":"Mèdédjonou","lat":6.5007957,"lon":2.7008488,"type":"village"},{"id":"3250444399","name":"Bensékou","lat":10.9859397,"lon":3.151395,"type":"town"},{"id":"3250444400","name":"Koutakroukou","lat":11.046693,"lon":3.0677666,"type":"village"},{"id":"3250460594","name":"Guéra-Nkali","lat":10.2710457,"lon":2.8998773,"type":"village"},{"id":"3250608255","name":"Pédé","lat":11.1879406,"lon":2.955759,"type":"village"},{"id":"3250611565","name":"Fafa","lat":11.247259,"lon":2.9979002,"type":"village"},{"id":"3250619772","name":"Alfakoara","lat":11.4439276,"lon":3.0760178,"type":"village"},{"id":"3250619773","name":"Angaradébou","lat":11.3228338,"lon":3.0412812,"type":"town"},{"id":"3250619774","name":"Kabagbèdè","lat":11.3510543,"lon":3.0622249,"type":"village"},{"id":"3250619775","name":"Thuy","lat":11.2879168,"lon":3.0223472,"type":"village"},{"id":"3353218657","name":"Hontonmey","lat":7.0234194,"lon":1.6548199,"type":"village"},{"id":"3353219041","name":"Sèhonouhoué","lat":7.0348164,"lon":1.6469273,"type":"village"},{"id":"3353219855","name":"LAGBAVE","lat":7.0544137,"lon":1.6694207,"type":"village"},{"id":"3354396579","name":"Gbètohoué","lat":7.0131319,"lon":1.648585,"type":"village"},{"id":"3355036082","name":"Bozinkpé","lat":6.9742056,"lon":1.6781016,"type":"village"},{"id":"3355037029","name":"Aflantan","lat":6.9828459,"lon":1.6609401,"type":"village"},{"id":"3359931808","name":"Azondogahoué","lat":6.9885018,"lon":1.601998,"type":"village"},{"id":"3362318302","name":"Hêvi-Sènouhoué","lat":6.9896069,"lon":1.5762063,"type":"village"},{"id":"3589423543","name":"Lokogba","lat":6.8731379,"lon":1.8717019,"type":"village"},{"id":"3589447793","name":"Kilibo","lat":8.5739444,"lon":2.6006985,"type":"town"},{"id":"3589500202","name":"Gbanlin","lat":8.4949401,"lon":2.3718022,"type":"town"},{"id":"3633452384","name":"Kétonou","lat":6.4231335,"lon":2.5474402,"type":"village"},{"id":"3633466881","name":"Torri-Agonsa","lat":6.4330673,"lon":2.5867506,"type":"village"},{"id":"3771755366","name":"Koko","lat":8.3788906,"lon":1.8438084,"type":"village"},{"id":"3771755371","name":"Lougba","lat":8.3794804,"lon":1.7894074,"type":"village"},{"id":"3772043779","name":"Diho","lat":8.0769065,"lon":2.5253813,"type":"village"},{"id":"3772071476","name":"Gogoro","lat":8.2787326,"lon":2.6470835,"type":"village"},{"id":"3772071505","name":"Okounfo","lat":8.3147715,"lon":2.6466522,"type":"village"},{"id":"3773776400","name":"Nontchédigbé","lat":7.5471163,"lon":2.1153869,"type":"village"},{"id":"3773846276","name":"Lotcho-Daho","lat":7.274696,"lon":2.0663574,"type":"village"},{"id":"3773846314","name":"Dan","lat":7.3250546,"lon":2.0813978,"type":"town"},{"id":"3773846329","name":"Agbohougoton","lat":7.3448572,"lon":2.0717574,"type":"village"},{"id":"3775337925","name":"Atéguédji","lat":8.1176971,"lon":2.1214864,"type":"village"},{"id":"3775337928","name":"Amanhoungavissa","lat":8.1522433,"lon":2.1411271,"type":"village"},{"id":"3775418464","name":"Gobada","lat":7.770558,"lon":2.013823,"type":"village"},{"id":"3775730334","name":"Tchatéhoué","lat":6.9691976,"lon":1.6663777,"type":"village"},{"id":"3775796294","name":"Gbezé","lat":6.9716961,"lon":1.6471039,"type":"village"},{"id":"3777132329","name":"Agoua","lat":8.2919287,"lon":1.9611894,"type":"village"},{"id":"3777132330","name":"Gouka","lat":8.1342843,"lon":1.9645649,"type":"village"},{"id":"3777132331","name":"Koutago","lat":8.0464007,"lon":1.9799023,"type":"village"},{"id":"3777132332","name":"Mamatchoke","lat":8.1058573,"lon":1.9732986,"type":"village"},{"id":"3777138269","name":"Okouta-Oro","lat":8.2047146,"lon":1.967917,"type":"village"},{"id":"3777138270","name":"Ôguèdè","lat":8.2320037,"lon":1.9690759,"type":"village"},{"id":"3777138271","name":"Cloubou","lat":8.2401102,"lon":1.9710089,"type":"village"},{"id":"3777185294","name":"Adjéwôlé","lat":8.33033,"lon":1.9733977,"type":"village"},{"id":"3777185295","name":"Sowiandji","lat":8.3303832,"lon":2.1313078,"type":"village"},{"id":"3777185323","name":"Tognon Doho","lat":8.3492483,"lon":2.1170671,"type":"village"},{"id":"3777185351","name":"Djanmandji","lat":8.3584173,"lon":2.1068797,"type":"village"},{"id":"3777185369","name":"Gbèzé Doho","lat":8.3639641,"lon":2.098519,"type":"village"},{"id":"3777185390","name":"Assaba","lat":8.3728246,"lon":1.9785991,"type":"village"},{"id":"3777185610","name":"Bôbè","lat":8.4280506,"lon":1.9968877,"type":"village"},{"id":"3777185629","name":"Djagballo","lat":8.4317219,"lon":2.0396482,"type":"village"},{"id":"3779441033","name":"Torozougou","lat":11.7650708,"lon":3.1969943,"type":"village"},{"id":"3779441035","name":"Kwara Tégui","lat":11.771157,"lon":3.2415737,"type":"village"},{"id":"3781053494","name":"Petit-Paris","lat":10.6082215,"lon":2.7469336,"type":"village"},{"id":"3781053543","name":"Gamagou","lat":10.6283451,"lon":2.7507795,"type":"village"},{"id":"3781053676","name":"Gnindarou","lat":10.6745282,"lon":2.7628206,"type":"village"},{"id":"3781053706","name":"Sori","lat":10.7168645,"lon":2.7847645,"type":"village"},{"id":"3781954884","name":"Gobé","lat":7.9992851,"lon":2.4075699,"type":"town"},{"id":"3781966707","name":"Béthel","lat":8.0100856,"lon":2.3629366,"type":"village"},{"id":"3781966720","name":"Longbondjin","lat":8.0113622,"lon":2.3326123,"type":"village"},{"id":"3781979732","name":"Kèrè","lat":7.8335275,"lon":2.1933153,"type":"village"},{"id":"3782007459","name":"Igoho","lat":7.8969331,"lon":2.1541876,"type":"village"},{"id":"3782033098","name":"Odo-Otchèrè","lat":7.8354072,"lon":2.1338296,"type":"village"},{"id":"3782033101","name":"Erokowari","lat":7.8413879,"lon":2.1321865,"type":"village"},{"id":"3782033108","name":"Orikéto Idjaka","lat":7.8568095,"lon":2.1420545,"type":"village"},{"id":"3782033138","name":"Coffè Odan","lat":7.8705166,"lon":2.1384606,"type":"village"},{"id":"3784311440","name":"Doh","lat":10.3417251,"lon":1.9357422,"type":"village"},{"id":"3784395367","name":"Keberou","lat":10.6701355,"lon":1.8921386,"type":"village"},{"id":"3788311729","name":"Kabanou","lat":10.5236938,"lon":2.7968503,"type":"village"},{"id":"3788311941","name":"Dougou","lat":10.6466032,"lon":2.5436297,"type":"village"},{"id":"3788312198","name":"Gbèmoussou","lat":10.6866503,"lon":2.8327877,"type":"village"},{"id":"3788312214","name":"Soukarou","lat":10.6922386,"lon":2.696217,"type":"village"},{"id":"3789770993","name":"Bagou","lat":10.8132664,"lon":2.7233307,"type":"town"},{"id":"3789771380","name":"Badou","lat":10.8956816,"lon":2.734955,"type":"town"},{"id":"3791058516","name":"Kparo","lat":10.4069071,"lon":2.4866057,"type":"village"},{"id":"3791058517","name":"Sekere","lat":10.4462227,"lon":2.451575,"type":"town"},{"id":"3791058518","name":"Diadia","lat":10.806566,"lon":2.6100648,"type":"village"},{"id":"3791058524","name":"Gbanbanga","lat":11.1645846,"lon":2.2902219,"type":"village"},{"id":"3791058533","name":"Goumori","lat":11.1795606,"lon":2.298975,"type":"town"},{"id":"3791058550","name":"Mondoukoka","lat":11.191049,"lon":2.283575,"type":"village"},{"id":"3791058553","name":"Kokiborou","lat":11.2026609,"lon":2.3200275,"type":"town"},{"id":"3791060083","name":"Ounet","lat":11.2288087,"lon":2.4055536,"type":"town"},{"id":"3791060097","name":"Toura","lat":11.2405968,"lon":2.3781233,"type":"town"},{"id":"3791827625","name":"Koda","lat":8.85367,"lon":2.2870219,"type":"village"},{"id":"3792333145","name":"Biboubawangou","lat":11.2912503,"lon":2.2523784,"type":"village"},{"id":"3792646234","name":"Dogossouwan","lat":11.2893173,"lon":2.3250324,"type":"village"},{"id":"3792647678","name":"Gnambourankorou","lat":11.3099888,"lon":2.3019896,"type":"village"},{"id":"3792663146","name":"Wagou","lat":11.2777422,"lon":2.4061885,"type":"village"},{"id":"3792694235","name":"Sirikou","lat":11.2257032,"lon":2.3591097,"type":"village"},{"id":"3792694436","name":"Tintinmou","lat":11.2403262,"lon":2.3456444,"type":"village"},{"id":"3792694648","name":"Kokourogou","lat":11.2594963,"lon":2.265283,"type":"village"},{"id":"3792724930","name":"Bonni","lat":11.1378291,"lon":2.1731081,"type":"village"},{"id":"3794181133","name":"Gogbèdè","lat":11.0241957,"lon":3.1042075,"type":"village"},{"id":"3794181587","name":"Kandi-Fô-Gah","lat":11.1019088,"lon":2.9520839,"type":"village"},{"id":"3794181628","name":"Kandi-Fô","lat":11.1151104,"lon":2.9678238,"type":"village"},{"id":"3794269119","name":"Fanan","lat":10.757952,"lon":2.927831,"type":"village"},{"id":"3794289543","name":"Binga","lat":10.8076537,"lon":2.8961367,"type":"village"},{"id":"3794294942","name":"Gando Dari","lat":10.8288998,"lon":2.9042591,"type":"village"},{"id":"3794295875","name":"Gounarou","lat":10.8717876,"lon":2.8454029,"type":"village"},{"id":"3795585850","name":"Vossa","lat":8.4943638,"lon":2.3504151,"type":"village"},{"id":"3795586687","name":"Monwadja","lat":8.5407329,"lon":2.3211687,"type":"village"},{"id":"3796376833","name":"Dombouré","lat":11.1478447,"lon":2.295668,"type":"village"},{"id":"3796625511","name":"Guèdarou","lat":10.9203165,"lon":3.033379,"type":"village"},{"id":"3796696617","name":"Boukoubourou","lat":10.9715603,"lon":2.2148968,"type":"village"},{"id":"3796758685","name":"Gorobani","lat":11.0067789,"lon":1.9532891,"type":"village"},{"id":"3796785504","name":"Gbéssaka","lat":10.9610563,"lon":3.3954027,"type":"village"},{"id":"3796785530","name":"Gbassè","lat":10.9817082,"lon":3.2835096,"type":"village"},{"id":"3796785698","name":"Zondji","lat":11.0111927,"lon":3.2943911,"type":"village"},{"id":"3796785730","name":"Boumoussou","lat":11.014514,"lon":3.4179005,"type":"village"},{"id":"3796785769","name":"Sinwan","lat":11.0241795,"lon":3.4222228,"type":"village"},{"id":"3796785827","name":"Gbèkakarou","lat":11.0734614,"lon":3.398971,"type":"village"},{"id":"3796785982","name":"Lougou","lat":11.1185872,"lon":3.3729383,"type":"town"},{"id":"3796786169","name":"Guénélaga","lat":11.2402333,"lon":3.4502519,"type":"village"},{"id":"3796786212","name":"Kamanan","lat":11.2644022,"lon":3.4943322,"type":"village"},{"id":"3796786473","name":"Sinzi","lat":11.2902812,"lon":3.5499873,"type":"village"},{"id":"3796809086","name":"Kambara","lat":10.930246,"lon":3.5493775,"type":"village"},{"id":"3796809773","name":"Lètè","lat":11.0306323,"lon":3.5472644,"type":"village"},{"id":"3796809839","name":"Tounga-Délégué","lat":11.0757831,"lon":3.6004398,"type":"village"},{"id":"3796833317","name":"Piami","lat":10.9557045,"lon":3.6383779,"type":"village"},{"id":"3796834132","name":"Iko","lat":11.0402137,"lon":3.6436148,"type":"village"},{"id":"3796845262","name":"Sèrèbani","lat":10.7924987,"lon":3.4672756,"type":"village"},{"id":"3796845372","name":"Sèrèkibè","lat":10.8294242,"lon":3.4729663,"type":"village"},{"id":"3796845391","name":"Sokotindji","lat":10.8487211,"lon":3.4283193,"type":"town"},{"id":"3796972400","name":"Libantè","lat":10.7871004,"lon":3.5850436,"type":"town"},{"id":"3796972453","name":"Diapéou","lat":10.8258585,"lon":3.5429068,"type":"village"},{"id":"3796980495","name":"Bobéna","lat":10.7940051,"lon":3.5360321,"type":"village"},{"id":"3796997917","name":"Banagbasson","lat":10.6185157,"lon":3.5818462,"type":"village"},{"id":"3796997940","name":"Morou","lat":10.6368864,"lon":3.3182529,"type":"town"},{"id":"3796998348","name":"Saonzi","lat":10.7159944,"lon":3.5888919,"type":"village"},{"id":"3796998396","name":"Poéla","lat":10.8135931,"lon":3.4339854,"type":"village"},{"id":"3797005923","name":"Gbarana","lat":10.8314968,"lon":3.3091073,"type":"village"},{"id":"3797023547","name":"Danganzi","lat":10.318655,"lon":3.4604771,"type":"village"},{"id":"3797023552","name":"Nassiconzi","lat":10.319881,"lon":3.4089157,"type":"village"},{"id":"3797031876","name":"Lou","lat":10.325968,"lon":3.4591295,"type":"village"},{"id":"3797031954","name":"Béssassi Gando","lat":10.3894781,"lon":3.4824599,"type":"village"},{"id":"3797032054","name":"Zambára","lat":10.4648803,"lon":3.5311212,"type":"village"},{"id":"3797032105","name":"Sébana","lat":10.5303919,"lon":3.5554417,"type":"village"},{"id":"3797034348","name":"Kouté","lat":10.6836117,"lon":3.8003793,"type":"village"},{"id":"3797063633","name":"Gbèkona","lat":10.553665,"lon":3.6328772,"type":"village"},{"id":"3797783910","name":"Gamia","lat":10.3969313,"lon":2.7286814,"type":"town"},{"id":"3797940004","name":"Basso","lat":10.4983017,"lon":3.6925834,"type":"town"},{"id":"3797940210","name":"Banézi","lat":10.5402462,"lon":3.7341688,"type":"village"},{"id":"3797952007","name":"Gidan Kada","lat":10.4429258,"lon":3.7852639,"type":"village"},{"id":"3798879583","name":"Koroborou","lat":9.3749677,"lon":2.6684541,"type":"village"},{"id":"3798879720","name":"Alafiarou","lat":9.3934625,"lon":2.6765632,"type":"village"},{"id":"3798879836","name":"Douroubé","lat":9.4061879,"lon":2.6833698,"type":"village"},{"id":"3799660524","name":"Oké-Olou-Ossin","lat":8.241172,"lon":2.6903996,"type":"village"},{"id":"3799725860","name":"Oké-Owo","lat":8.0501774,"lon":2.7109323,"type":"village"},{"id":"3799897199","name":"Tantéga","lat":10.8306411,"lon":1.0258987,"type":"town"},{"id":"3800111369","name":"Cotiakou","lat":10.5920163,"lon":1.3038172,"type":"village"},{"id":"3801167988","name":"Serou","lat":10.0372455,"lon":2.5240267,"type":"village"},{"id":"3802820659","name":"Keroukpogo","lat":10.1047031,"lon":2.6477072,"type":"village"},{"id":"3804728636","name":"Mareguinta","lat":10.195633,"lon":3.2989332,"type":"village"},{"id":"3805468752","name":"Sandilo","lat":9.5203122,"lon":3.1513948,"type":"village"},{"id":"3805469724","name":"Diguidirou","lat":9.6050836,"lon":3.1419255,"type":"village"},{"id":"3805469776","name":"Gninsy","lat":9.6128046,"lon":3.0527666,"type":"town"},{"id":"3805469785","name":"Nassy","lat":9.6152862,"lon":2.984784,"type":"village"},{"id":"3806399627","name":"Sinisson","lat":9.803739,"lon":2.7116127,"type":"village"},{"id":"3806999235","name":"Sissigourou","lat":10.2389297,"lon":2.869074,"type":"village"},{"id":"3806999765","name":"Bérou","lat":10.2539532,"lon":2.7459427,"type":"village"},{"id":"3807000412","name":"Konarou","lat":10.3164348,"lon":2.8485369,"type":"village"},{"id":"3807000841","name":"Kéké","lat":10.3228695,"lon":2.8858986,"type":"village"},{"id":"3807001051","name":"Taïti","lat":10.3289506,"lon":2.8250069,"type":"village"},{"id":"3807002027","name":"Boro","lat":10.3554064,"lon":2.9422789,"type":"village"},{"id":"3807002711","name":"Ganro","lat":10.3589198,"lon":2.8205404,"type":"village"},{"id":"3807003069","name":"Boussoura","lat":10.3645448,"lon":2.9025294,"type":"village"},{"id":"3807003262","name":"Bouri","lat":10.3683865,"lon":2.7613999,"type":"village"},{"id":"3807874669","name":"Teme","lat":9.8967599,"lon":2.4712703,"type":"town"},{"id":"3808045062","name":"Gando","lat":10.2011131,"lon":2.6560911,"type":"village"},{"id":"3808060706","name":"Sombouan","lat":10.5254969,"lon":2.6394293,"type":"village"},{"id":"3808060775","name":"Sombouan II","lat":10.5301275,"lon":2.6114457,"type":"village"},{"id":"3808448954","name":"Gbéï","lat":10.398992,"lon":3.2571323,"type":"village"},{"id":"3808449105","name":"Gnel-Yakan","lat":10.4099533,"lon":3.2740075,"type":"village"},{"id":"3808449318","name":"Korodji","lat":10.4482182,"lon":3.2093429,"type":"village"},{"id":"3808483294","name":"Wara","lat":10.6761957,"lon":2.6717582,"type":"town"},{"id":"3809312473","name":"Kpébié","lat":9.6970193,"lon":2.9998578,"type":"village"},{"id":"3809312474","name":"Won","lat":9.6977921,"lon":2.9362528,"type":"village"},{"id":"3809714885","name":"Kali","lat":10.8169419,"lon":2.6725162,"type":"village"},{"id":"3809720609","name":"Borodarou","lat":10.9806535,"lon":2.8739272,"type":"village"},{"id":"3809720610","name":"Kpadé","lat":11.0410767,"lon":2.8871391,"type":"village"},{"id":"3809720611","name":"Kassakou","lat":11.0802525,"lon":2.9042513,"type":"village"},{"id":"3809720612","name":"Donwari","lat":11.1178551,"lon":2.8532286,"type":"town"},{"id":"3809720613","name":"Tisserou","lat":11.126914,"lon":2.8755387,"type":"village"},{"id":"3809862768","name":"Kantakpara-Wokparou","lat":10.7181556,"lon":2.7428977,"type":"village"},{"id":"3809862785","name":"Kassirou","lat":10.7332329,"lon":2.7110002,"type":"village"},{"id":"3809862829","name":"Kerou Bagou","lat":10.7816208,"lon":2.7205437,"type":"village"},{"id":"3809862878","name":"Gandobou","lat":10.7985171,"lon":2.6984136,"type":"village"},{"id":"3809930148","name":"Toumé","lat":10.084872,"lon":2.4594647,"type":"village"},{"id":"3809930806","name":"Kokabo","lat":10.1339437,"lon":2.4910124,"type":"village"},{"id":"3809930981","name":"Kinninkou","lat":10.1545005,"lon":2.5675798,"type":"village"},{"id":"3809931214","name":"Saoré","lat":10.1977105,"lon":2.6073369,"type":"village"},{"id":"3809931371","name":"Kossia","lat":10.2804596,"lon":2.4480408,"type":"village"},{"id":"3809971742","name":"Wari","lat":10.2369951,"lon":2.4070938,"type":"village"},{"id":"3809971782","name":"Diadia","lat":10.2769156,"lon":2.4001378,"type":"village"},{"id":"3809971802","name":"Boukouro","lat":10.2894171,"lon":2.4000271,"type":"village"},{"id":"3810562837","name":"Gounin","lat":9.9266009,"lon":2.5760732,"type":"village"},{"id":"3811637898","name":"Baoura","lat":10.3312413,"lon":2.7169807,"type":"village"},{"id":"3811649588","name":"Timbouré","lat":10.4250632,"lon":2.5754515,"type":"village"},{"id":"3811649589","name":"Dantcha","lat":10.4459126,"lon":2.6199588,"type":"village"},{"id":"3811649591","name":"Bouratébé","lat":10.4856385,"lon":2.5866495,"type":"village"},{"id":"3812280068","name":"Saah","lat":11.1743447,"lon":3.067043,"type":"town"},{"id":"3812284095","name":"Massoupouna","lat":11.148924,"lon":3.6575433,"type":"village"},{"id":"3812936296","name":"Oké-Owo","lat":8.5313495,"lon":1.7118517,"type":"village"},{"id":"3812936339","name":"Gando","lat":8.5629217,"lon":1.6978754,"type":"village"},{"id":"3812936370","name":"Tchabi Loukou","lat":8.5750265,"lon":1.6936464,"type":"village"},{"id":"3812936499","name":"Okouta-Ossé","lat":8.5837586,"lon":1.6901129,"type":"village"},{"id":"3812936637","name":"Kabourè","lat":8.5975501,"lon":1.6862373,"type":"village"},{"id":"3812936665","name":"Assion","lat":8.6101222,"lon":1.6779001,"type":"village"},{"id":"3812936682","name":"Assion 2","lat":8.6172986,"lon":1.6701828,"type":"village"},{"id":"3813462595","name":"Wèwè 2","lat":9.3894043,"lon":2.1120785,"type":"village"},{"id":"3813462624","name":"Daringa","lat":9.4575313,"lon":2.032455,"type":"village"},{"id":"3813462633","name":"Gôrôbani","lat":9.4761274,"lon":2.0101611,"type":"village"},{"id":"3813463089","name":"Toko-Toko","lat":9.7412548,"lon":2.0226606,"type":"town"},{"id":"3813463271","name":"Affon","lat":9.7482769,"lon":2.0921004,"type":"village"},{"id":"3813576589","name":"Porga","lat":11.0455286,"lon":0.9673376,"type":"village"},{"id":"3813856379","name":"Pannaga","lat":10.66334,"lon":1.3503667,"type":"village"},{"id":"3813856618","name":"Tian Wassaka","lat":10.7436638,"lon":1.3880572,"type":"village"},{"id":"3813856839","name":"Batia","lat":10.9000565,"lon":1.4890824,"type":"village"},{"id":"3814101548","name":"Dimatadoni","lat":10.3237598,"lon":1.1163442,"type":"village"},{"id":"3814106776","name":"Koumagou","lat":10.147133,"lon":1.1387418,"type":"village"},{"id":"3814118004","name":"Tagayé","lat":10.2646477,"lon":1.3088148,"type":"village"},{"id":"3815076502","name":"Boungourou","lat":10.0461773,"lon":2.0541714,"type":"village"},{"id":"3815630578","name":"Wèrèkè","lat":9.7384659,"lon":2.523687,"type":"village"},{"id":"3815630625","name":"Bouérou","lat":9.7550695,"lon":2.5469413,"type":"village"},{"id":"3816784009","name":"Guinagourou","lat":9.5652455,"lon":2.9499748,"type":"town"},{"id":"3816784178","name":"Tchori","lat":9.6731443,"lon":2.9060547,"type":"village"},{"id":"3816831731","name":"Koukoumbou","lat":9.5014468,"lon":3.0467189,"type":"village"},{"id":"3816831815","name":"Boro","lat":9.5061617,"lon":3.0677665,"type":"village"},{"id":"3816832303","name":"Wondou","lat":9.5366507,"lon":2.9894881,"type":"village"},{"id":"3817321734","name":"Darnon","lat":9.4275908,"lon":2.7176282,"type":"village"},{"id":"3817321755","name":"Gbégourou","lat":9.4459374,"lon":2.7431626,"type":"town"},{"id":"3817321805","name":"Binassi","lat":9.4841496,"lon":2.7766344,"type":"village"},{"id":"3817321934","name":"Bougnankou","lat":9.5164529,"lon":2.8378115,"type":"village"},{"id":"3817355635","name":"Ogamoin","lat":9.414447,"lon":3.0213696,"type":"village"},{"id":"3817355872","name":"Gounkparé","lat":9.4619986,"lon":2.9380304,"type":"village"},{"id":"3817356021","name":"Gando Sonna","lat":9.5116495,"lon":2.9197253,"type":"village"},{"id":"3817471463","name":"Kabo","lat":9.1885124,"lon":3.0548046,"type":"town"},{"id":"3817471486","name":"Takisari","lat":9.202755,"lon":3.0175761,"type":"village"},{"id":"3817471503","name":"Gouroubara","lat":9.2056335,"lon":3.006129,"type":"village"},{"id":"3817471547","name":"Souanré","lat":9.2299197,"lon":2.9720468,"type":"village"},{"id":"3817472609","name":"Bonwoubérou","lat":9.2429136,"lon":2.9549093,"type":"village"},{"id":"3817472648","name":"Kpari","lat":9.2801876,"lon":2.8989529,"type":"village"},{"id":"3817491565","name":"Sonna","lat":9.2909831,"lon":2.9755695,"type":"village"},{"id":"3817491974","name":"Monta","lat":9.3280123,"lon":3.1299301,"type":"village"},{"id":"3818487989","name":"Kokobè","lat":9.2809203,"lon":2.8314989,"type":"village"},{"id":"3818487993","name":"Sui-Gourou","lat":9.2825763,"lon":2.8595791,"type":"village"},{"id":"3818487995","name":"Kika","lat":9.2874372,"lon":2.7827715,"type":"town"},{"id":"3818487996","name":"Kika-Barrage (Kika II)","lat":9.2891576,"lon":2.743665,"type":"village"},{"id":"3818487997","name":"Kpassa","lat":9.2901914,"lon":2.7288952,"type":"village"},{"id":"3818487998","name":"Kokoma Ganda","lat":9.3134763,"lon":2.6936409,"type":"village"},{"id":"3818681706","name":"Boé","lat":9.1968942,"lon":2.8705533,"type":"village"},{"id":"3818689289","name":"Tandou","lat":9.0944475,"lon":2.8905912,"type":"village"},{"id":"3820543210","name":"Tokissi 1","lat":9.1406134,"lon":2.8137898,"type":"village"},{"id":"3820543213","name":"Yèroumarou","lat":9.2105708,"lon":2.7747293,"type":"village"},{"id":"3820543216","name":"Borokou","lat":9.2331494,"lon":2.741586,"type":"village"},{"id":"3820569783","name":"Woria","lat":9.0820577,"lon":2.7308396,"type":"village"},{"id":"3820569784","name":"Gbékpanin","lat":9.0828583,"lon":2.6609328,"type":"village"},{"id":"3820569805","name":"Kpéwonkou","lat":9.0958579,"lon":2.8272831,"type":"village"},{"id":"3820569841","name":"Lafia Boudo 1","lat":9.1003048,"lon":2.79311,"type":"village"},{"id":"3820569847","name":"Batirou","lat":9.1001326,"lon":2.5817152,"type":"village"},{"id":"3820569858","name":"Soumon-Gah","lat":9.1036114,"lon":2.5856513,"type":"village"},{"id":"3820572887","name":"Kontoubarou","lat":9.1382738,"lon":2.5961812,"type":"village"},{"id":"3823387771","name":"Beket","lat":10.2506876,"lon":1.995509,"type":"village"},{"id":"3823388125","name":"Gnémasson","lat":10.3059651,"lon":2.0576684,"type":"village"},{"id":"3825543475","name":"Adanhondjigon","lat":7.0993952,"lon":2.0184131,"type":"town"},{"id":"3826476496","name":"Banhoun-Kpo","lat":9.6752599,"lon":2.6783682,"type":"village"},{"id":"3826476498","name":"Warikpa","lat":9.7225969,"lon":2.6925958,"type":"village"},{"id":"3828253351","name":"Adjakonou","lat":7.6302116,"lon":2.1121254,"type":"village"},{"id":"3832298171","name":"Narerou","lat":10.1139941,"lon":2.326074,"type":"village"},{"id":"3832322440","name":"Guessou-Bani","lat":10.3331163,"lon":2.2621349,"type":"village"},{"id":"3832332639","name":"Wassa-Maro","lat":10.240071,"lon":2.0962855,"type":"village"},{"id":"3832337933","name":"Gonri","lat":10.2517558,"lon":2.0499858,"type":"village"},{"id":"3832393588","name":"Bariénou","lat":9.7168374,"lon":1.7724794,"type":"village"},{"id":"3832393868","name":"Dendougou","lat":9.735886,"lon":1.7289721,"type":"village"},{"id":"3832393987","name":"Gnongambi","lat":9.759144,"lon":1.8102712,"type":"village"},{"id":"3832394023","name":"Koua 2","lat":9.7605902,"lon":1.7914296,"type":"village"},{"id":"3832394060","name":"Kolokondé","lat":9.8909233,"lon":1.7810939,"type":"town"},{"id":"3832661063","name":"Madjatom (Togo)","lat":9.8249026,"lon":1.3643483,"type":"village"},{"id":"3832661066","name":"TININGOU","lat":9.8925217,"lon":1.3608409,"type":"village"},{"id":"3833346234","name":"Koubagatiékou","lat":10.1316849,"lon":1.3176819,"type":"village"},{"id":"3833380914","name":"Madjatom (Bénin)","lat":9.8344386,"lon":1.3798537,"type":"village"},{"id":"3833396327","name":"Tchalinga","lat":9.807238,"lon":1.3955823,"type":"town"},{"id":"3833918543","name":"Tèbou","lat":9.9182768,"lon":1.8100264,"type":"village"},{"id":"3833927122","name":"Bom-Bom","lat":9.8414862,"lon":1.6600565,"type":"village"},{"id":"3833927508","name":"Gnanfouroum","lat":9.8561833,"lon":1.7040563,"type":"village"},{"id":"3833927825","name":"Bamisso","lat":9.9023415,"lon":1.7286053,"type":"village"},{"id":"3833932630","name":"Noumanè","lat":9.7807353,"lon":1.6995505,"type":"village"},{"id":"3833933057","name":"Djakpingou","lat":9.796086,"lon":1.6735369,"type":"village"},{"id":"3833933085","name":"Belléfoungou","lat":9.8146638,"lon":1.7220086,"type":"village"},{"id":"3833933105","name":"Sosso","lat":9.8465768,"lon":1.753471,"type":"village"},{"id":"3836884966","name":"Nimourou","lat":9.9534177,"lon":1.4801797,"type":"village"},{"id":"3838618016","name":"Dêdêra","lat":9.708984,"lon":1.7562626,"type":"village"},{"id":"3838618385","name":"Sehvessi","lat":9.7149704,"lon":1.7415814,"type":"village"},{"id":"3838618610","name":"Gakokpara","lat":9.7476173,"lon":2.0364361,"type":"village"},{"id":"3838618707","name":"Gosso 2","lat":9.7503868,"lon":2.0545364,"type":"village"},{"id":"3839486286","name":"Koubou","lat":9.2066776,"lon":2.5564991,"type":"village"},{"id":"3839486331","name":"Badékparou","lat":9.2193432,"lon":2.5607334,"type":"village"},{"id":"3839486758","name":"Bakpérou","lat":9.2758158,"lon":2.5821914,"type":"village"},{"id":"3840507318","name":"Worogui-Goura","lat":8.8843431,"lon":2.6716235,"type":"village"},{"id":"3840507793","name":"Gango","lat":8.9720794,"lon":2.69739,"type":"village"},{"id":"3840508161","name":"Tékparou","lat":9.0005053,"lon":2.5888547,"type":"village"},{"id":"3840508209","name":"Gokanna","lat":9.0249348,"lon":2.5800125,"type":"village"},{"id":"3840808895","name":"Gbéyèkèrou 1","lat":8.9225631,"lon":2.5650705,"type":"village"},{"id":"3840811132","name":"Gararou","lat":9.0703053,"lon":2.5489195,"type":"village"},{"id":"3840846293","name":"Odo-Akaba","lat":8.7741697,"lon":2.6028268,"type":"village"},{"id":"3840846363","name":"Kpakpanin","lat":8.8193663,"lon":2.6078441,"type":"town"},{"id":"3840856933","name":"Ikèmon","lat":8.5909833,"lon":2.5530744,"type":"town"},{"id":"3840856934","name":"Akpéro","lat":8.624829,"lon":2.5706902,"type":"village"},{"id":"3840856935","name":"Toui-Gare","lat":8.668725,"lon":2.6226648,"type":"village"},{"id":"3842312065","name":"Ansêkê","lat":8.4253831,"lon":2.5990522,"type":"village"},{"id":"3842312066","name":"Agboro-Idouya","lat":8.438441,"lon":2.5789828,"type":"village"},{"id":"3842312068","name":"Agboro-Kombon","lat":8.459682,"lon":2.5921084,"type":"village"},{"id":"3842312092","name":"Yaoui","lat":8.4857971,"lon":2.6135746,"type":"village"},{"id":"3842318966","name":"Jérusalèm","lat":8.5582254,"lon":2.6043382,"type":"village"},{"id":"3844273222","name":"Karhoum-Dora","lat":9.8303557,"lon":1.4611327,"type":"village"},{"id":"3844273294","name":"Singré","lat":9.8569567,"lon":1.4972807,"type":"village"},{"id":"3846853808","name":"Gomina Kpara","lat":9.9274417,"lon":1.5298123,"type":"village"},{"id":"3847873035","name":"Tiranga","lat":9.5917348,"lon":1.7717897,"type":"village"},{"id":"3847873460","name":"Tchanga","lat":9.5947462,"lon":1.734871,"type":"village"},{"id":"3847873521","name":"Paparapanga","lat":9.6046726,"lon":1.7756729,"type":"village"},{"id":"3847873772","name":"Kpali","lat":9.6393551,"lon":1.8126663,"type":"village"},{"id":"3847873801","name":"Nagatchohi","lat":9.6497061,"lon":1.7389588,"type":"village"},{"id":"3847873860","name":"Déwa","lat":9.6621466,"lon":1.6823426,"type":"village"},{"id":"3847873905","name":"Kpayèroun","lat":9.6788658,"lon":1.83774,"type":"village"},{"id":"3847873913","name":"Tamohoun","lat":9.682373,"lon":1.8050072,"type":"village"},{"id":"3847873947","name":"Afatalanga","lat":9.6857721,"lon":1.7483964,"type":"village"},{"id":"3853791904","name":"Koha","lat":9.4388307,"lon":1.6933968,"type":"village"},{"id":"3853840282","name":"Sèrh Sèrh","lat":9.4871595,"lon":1.7786844,"type":"village"},{"id":"3853863194","name":"Dabogou","lat":9.4193885,"lon":1.9171831,"type":"village"},{"id":"3854083315","name":"Kanan","lat":9.563829,"lon":1.8226609,"type":"village"},{"id":"3854136377","name":"Kpéssou-Samali","lat":9.2719181,"lon":2.181886,"type":"village"},{"id":"3854136451","name":"Tchokpassi","lat":9.3453857,"lon":2.1311677,"type":"village"},{"id":"3854136689","name":"Wèwè","lat":9.3811139,"lon":2.1159946,"type":"village"},{"id":"3854136939","name":"Bakou 2","lat":9.4093119,"lon":2.087465,"type":"village"},{"id":"3856376185","name":"Sèmèrè II","lat":9.5536136,"lon":1.3720776,"type":"town"},{"id":"3861071313","name":"Hounsa","lat":6.7801904,"lon":1.8281281,"type":"village"},{"id":"3862518555","name":"Dousso","lat":7.4346028,"lon":1.6590506,"type":"village"},{"id":"3862519680","name":"Datcha","lat":7.4700389,"lon":1.6567765,"type":"village"},{"id":"3862519898","name":"Koutagba","lat":7.5197304,"lon":1.6930876,"type":"village"},{"id":"3862741857","name":"N'Gbèga","lat":7.6931116,"lon":2.3918334,"type":"village"},{"id":"3862741863","name":"Agbondjèdo","lat":7.6974995,"lon":2.3346906,"type":"village"},{"id":"3862741904","name":"Agao","lat":7.7307745,"lon":2.3050442,"type":"village"},{"id":"3862741912","name":"Agondokpo","lat":7.7540829,"lon":2.3840471,"type":"village"},{"id":"3862741927","name":"Dogbo","lat":7.7583854,"lon":2.3249727,"type":"village"},{"id":"3862741946","name":"Ayédé","lat":7.766703,"lon":2.3592082,"type":"village"},{"id":"3862741955","name":"Banigbé","lat":7.7704776,"lon":2.3494865,"type":"village"},{"id":"3862742082","name":"Soclogbo","lat":7.7751202,"lon":2.2933419,"type":"village"},{"id":"3862742136","name":"Holli-Gamba-Itchèdoun","lat":7.7866701,"lon":2.3758466,"type":"village"},{"id":"3862742761","name":"Gnonkpingnon","lat":7.834735,"lon":2.2787831,"type":"village"},{"id":"3862742798","name":"Miniffi","lat":7.8415411,"lon":2.3033439,"type":"village"},{"id":"3862742830","name":"Akoba","lat":7.8592795,"lon":2.3395069,"type":"village"},{"id":"3862742886","name":"Erokoya","lat":7.8775623,"lon":2.2895309,"type":"village"},{"id":"3862743074","name":"Agbagoulè","lat":7.9017896,"lon":2.3210321,"type":"village"},{"id":"3862743111","name":"Adourékoman","lat":7.9154348,"lon":2.2742659,"type":"village"},{"id":"3862743133","name":"Oké-Okounou","lat":7.9184303,"lon":2.3157539,"type":"village"},{"id":"3862743270","name":"Madengbé","lat":7.9348729,"lon":2.3132114,"type":"village"},{"id":"3862761243","name":"Lotogo","lat":7.5332454,"lon":2.3587055,"type":"village"},{"id":"3862761252","name":"Habadahoué","lat":7.5468189,"lon":2.3822456,"type":"village"},{"id":"3862761253","name":"Goussoé","lat":7.5774297,"lon":2.33172,"type":"village"},{"id":"3862767390","name":"Adjanoudoho","lat":7.5913689,"lon":2.2738574,"type":"village"},{"id":"3862767393","name":"Lèbinongon","lat":7.6036266,"lon":2.3751518,"type":"village"},{"id":"3862767394","name":"Manonfi","lat":7.6068105,"lon":2.391533,"type":"village"},{"id":"3862767395","name":"Babalaohoué","lat":7.606701,"lon":2.3989177,"type":"village"},{"id":"3862767396","name":"Akpakihoué","lat":7.6113342,"lon":2.3748531,"type":"village"},{"id":"3862767438","name":"Ayitchokoè","lat":7.6476835,"lon":2.2846269,"type":"village"},{"id":"3862767440","name":"Vidjannasso","lat":7.6686255,"lon":2.2856894,"type":"village"},{"id":"3865655128","name":"Modogui","lat":8.9965598,"lon":1.8851834,"type":"village"},{"id":"3868201244","name":"Koyohoué","lat":6.9794452,"lon":1.6888546,"type":"village"},{"id":"3868201464","name":"Dawhèhoué","lat":6.9813153,"lon":1.7505053,"type":"village"},{"id":"3868201473","name":"Adandéhoué","lat":6.9831244,"lon":1.6988962,"type":"village"},{"id":"3868201509","name":"Atchihoué","lat":6.9874559,"lon":1.6853448,"type":"village"},{"id":"3868201540","name":"Atto-Houé","lat":6.9995236,"lon":1.6981637,"type":"village"},{"id":"3868201553","name":"Bogandji","lat":7.0125881,"lon":1.741704,"type":"village"},{"id":"3868223348","name":"Etôhohoué","lat":6.986412,"lon":1.7204953,"type":"village"},{"id":"3868226875","name":"Hèdjinawa","lat":7.0080526,"lon":1.7124811,"type":"village"},{"id":"3868236911","name":"Touvou","lat":7.0045754,"lon":1.7277114,"type":"village"},{"id":"3868236931","name":"Adamè","lat":7.0080154,"lon":1.6918712,"type":"village"},{"id":"3868236950","name":"Koudékéhoué","lat":7.0104795,"lon":1.7270346,"type":"village"},{"id":"3868236956","name":"Suimè","lat":7.0123726,"lon":1.7061518,"type":"village"},{"id":"3868237284","name":"Doloumè","lat":7.0254552,"lon":1.7067137,"type":"village"},{"id":"3868457482","name":"Gnangou","lat":10.5832946,"lon":0.8803277,"type":"village"},{"id":"3868457589","name":"Koukouan","lat":10.3814741,"lon":1.0794071,"type":"village"},{"id":"3868557929","name":"Boubou","lat":8.0101772,"lon":2.2318396,"type":"village"},{"id":"3869274317","name":"Etigbo","lat":7.3367674,"lon":2.5656594,"type":"village"},{"id":"3869283768","name":"Adaplamè","lat":7.4522788,"lon":2.5605935,"type":"town"},{"id":"3869723961","name":"Houègbo","lat":6.6342873,"lon":1.9734457,"type":"village"},{"id":"3869723964","name":"Abokpodji","lat":6.6394119,"lon":1.9804233,"type":"village"},{"id":"3869723965","name":"Agbodji","lat":6.6452047,"lon":1.9811572,"type":"village"},{"id":"3869723967","name":"Tègbo","lat":6.681896,"lon":2.0667454,"type":"village"},{"id":"3869723968","name":"Agbanou","lat":6.6823119,"lon":2.0879606,"type":"village"},{"id":"3869723974","name":"Ganhonou","lat":6.6883829,"lon":1.9877873,"type":"village"},{"id":"3870711522","name":"Ayetèdjou","lat":7.2477076,"lon":2.5564603,"type":"village"},{"id":"3870720778","name":"Igbo-Ikoko","lat":7.1672402,"lon":2.5946886,"type":"village"},{"id":"3870720841","name":"Ogourô","lat":7.1958822,"lon":2.5615839,"type":"village"},{"id":"3872006803","name":"Sazué-Kpota","lat":6.6014045,"lon":1.6908053,"type":"village"},{"id":"3872364511","name":"Nambouli","lat":10.8694798,"lon":0.9591332,"type":"village"},{"id":"3872734572","name":"Edéhoué","lat":6.9857562,"lon":1.7284235,"type":"village"},{"id":"3872734573","name":"Holou-Loko","lat":6.9887727,"lon":1.750447,"type":"village"},{"id":"3872734578","name":"Fanbohoué","lat":6.9917086,"lon":1.75756,"type":"village"},{"id":"3872734587","name":"Havou","lat":6.9997654,"lon":1.762448,"type":"village"},{"id":"3872734590","name":"Koumakohoué","lat":7.0049902,"lon":1.7543307,"type":"village"},{"id":"3872838934","name":"DEKPO","lat":7.0001007,"lon":1.6812715,"type":"village"},{"id":"3874123369","name":"Zoungbo-Glomè","lat":7.1312515,"lon":2.0053318,"type":"village"},{"id":"3874123370","name":"Awinongon","lat":7.1338815,"lon":2.008952,"type":"village"},{"id":"3874383154","name":"Eglimè","lat":7.08684,"lon":1.6755723,"type":"village"},{"id":"3874383177","name":"Gadekohounhoué","lat":7.0895113,"lon":1.7216325,"type":"village"},{"id":"3874383194","name":"Balohoué","lat":7.0892727,"lon":1.6831387,"type":"village"},{"id":"3874383305","name":"Aboloumè","lat":7.0950693,"lon":1.6554455,"type":"village"},{"id":"3874383345","name":"Djowé","lat":7.0963921,"lon":1.7283967,"type":"village"},{"id":"3874383495","name":"Agbannaté","lat":7.0977424,"lon":1.6825334,"type":"village"},{"id":"3874383534","name":"Kidji","lat":7.1007509,"lon":1.6950249,"type":"village"},{"id":"3874383662","name":"Godohou","lat":7.1075985,"lon":1.7238985,"type":"village"},{"id":"3874383862","name":"Badjamè","lat":7.1155618,"lon":1.6577668,"type":"village"},{"id":"3874383896","name":"Sinlita","lat":7.1181393,"lon":1.7078616,"type":"village"},{"id":"3874384130","name":"HOKY","lat":7.1762708,"lon":1.659718,"type":"village"},{"id":"3875537760","name":"Tapoga","lat":10.5694135,"lon":0.990475,"type":"town"},{"id":"3875873094","name":"Tchakama","lat":10.9251158,"lon":3.2943506,"type":"village"},{"id":"3875955953","name":"Agoundji","lat":6.8554043,"lon":2.3647256,"type":"village"},{"id":"3875955955","name":"Djigbé-Agué","lat":6.8661481,"lon":2.3616743,"type":"village"},{"id":"3875955956","name":"Djigbé","lat":6.8663027,"lon":2.3659829,"type":"village"},{"id":"3875968257","name":"Sessivali","lat":6.8675773,"lon":2.3792088,"type":"village"},{"id":"3876599492","name":"Kpatinmè","lat":7.1125018,"lon":2.0244879,"type":"village"},{"id":"3876599493","name":"Tossota","lat":7.1157101,"lon":2.0345609,"type":"village"},{"id":"3876599494","name":"Adingnigon","lat":7.1465806,"lon":2.0350961,"type":"village"},{"id":"3876926283","name":"Diyèbouaré","lat":10.3714642,"lon":0.950598,"type":"village"},{"id":"3876927259","name":"Matalé","lat":10.4222487,"lon":0.8430906,"type":"village"},{"id":"3876927441","name":"Nanagadé","lat":10.4728723,"lon":0.8987873,"type":"village"},{"id":"3877463556","name":"Kpé","lat":6.649635,"lon":2.3600924,"type":"village"},{"id":"3877463733","name":"Dèdo","lat":6.6548322,"lon":2.3727296,"type":"town"},{"id":"3877463742","name":"Hadjanaho","lat":6.6740398,"lon":2.3814493,"type":"village"},{"id":"3877472037","name":"Agbohounsou","lat":6.705388,"lon":2.3856927,"type":"village"},{"id":"3877472046","name":"Agodénou","lat":6.7060878,"lon":2.3751023,"type":"village"},{"id":"3877472197","name":"Agongbo","lat":6.7319627,"lon":2.3919117,"type":"village"},{"id":"3877472198","name":"Bodji","lat":6.7463283,"lon":2.3714976,"type":"village"},{"id":"3877481060","name":"Ayahounta-Fifadji","lat":6.7783969,"lon":2.3743699,"type":"village"},{"id":"3877491027","name":"Ahozonnoudé","lat":6.8140906,"lon":2.3760136,"type":"village"},{"id":"3877495350","name":"Gbagodo","lat":6.8305785,"lon":2.3696941,"type":"village"},{"id":"3877628182","name":"Gbèssarè","lat":10.9869868,"lon":3.7350165,"type":"village"},{"id":"3877692877","name":"Aouignangon","lat":7.5427575,"lon":1.8775381,"type":"village"},{"id":"3877693009","name":"Kohougon","lat":7.5769713,"lon":1.9008888,"type":"village"},{"id":"3877693070","name":"Lobèta","lat":7.5811758,"lon":1.8719949,"type":"village"},{"id":"3877944363","name":"Sèdjannako","lat":6.7865752,"lon":2.3646821,"type":"village"},{"id":"3877944683","name":"Vossa","lat":6.8035189,"lon":2.3662267,"type":"village"},{"id":"3877945649","name":"Wédji","lat":6.8247111,"lon":2.3608831,"type":"village"},{"id":"3878136324","name":"Missèbo","lat":6.750497,"lon":2.3555448,"type":"village"},{"id":"3878136591","name":"Houédota-Djoko","lat":6.7679281,"lon":2.3348669,"type":"village"},{"id":"3878136863","name":"Houédota","lat":6.7754272,"lon":2.3279663,"type":"village"},{"id":"3878136885","name":"Hèkanmè","lat":6.7785661,"lon":2.320205,"type":"village"},{"id":"3878137069","name":"Adjakpatomè","lat":6.806871,"lon":2.3323523,"type":"village"},{"id":"3878137152","name":"Agbata","lat":6.8156801,"lon":2.3454563,"type":"village"},{"id":"3878137978","name":"Agbata-Wédji","lat":6.8218617,"lon":2.3357659,"type":"village"},{"id":"3878750732","name":"Adamè","lat":6.6750889,"lon":1.6084658,"type":"village"},{"id":"3878751027","name":"Toguido","lat":6.6976468,"lon":1.6201606,"type":"village"},{"id":"3878796524","name":"Kodji","lat":6.6742188,"lon":1.6692259,"type":"village"},{"id":"3879103905","name":"Akpassi","lat":8.4423589,"lon":1.8848208,"type":"village"},{"id":"3880383389","name":"Ayésso","lat":6.8471529,"lon":1.8390991,"type":"village"},{"id":"3880399421","name":"Madjrè","lat":6.82546,"lon":1.8496851,"type":"village"},{"id":"3880399434","name":"Sogbokinhoué","lat":6.8304179,"lon":1.8136362,"type":"village"},{"id":"3880399437","name":"Sékouhoué","lat":6.8310674,"lon":1.828448,"type":"village"},{"id":"3880399447","name":"Kpogodou","lat":6.8351461,"lon":1.8165125,"type":"village"},{"id":"3881154438","name":"Adjadji-Zoungbomey","lat":6.64594,"lon":2.0375984,"type":"village"},{"id":"3884465886","name":"Ôlôgô","lat":6.9133691,"lon":2.704394,"type":"village"},{"id":"3884465887","name":"Ita-Ègbèbi","lat":6.9199708,"lon":2.7227704,"type":"village"},{"id":"3886027943","name":"Godohou","lat":6.8354412,"lon":1.8574832,"type":"village"},{"id":"3886066147","name":"Agnavo","lat":6.7449938,"lon":1.6848232,"type":"village"},{"id":"3886066150","name":"Dévé","lat":6.765026,"lon":1.6647938,"type":"town"},{"id":"3886066154","name":"Ketchandji-Kpolédji","lat":6.7663251,"lon":1.6938623,"type":"village"},{"id":"3886071395","name":"Avédjin","lat":6.7893485,"lon":1.6816174,"type":"village"},{"id":"3886071406","name":"Doumahou","lat":6.8034771,"lon":1.6683823,"type":"village"},{"id":"3887455013","name":"Dékandji","lat":6.8074517,"lon":1.7599105,"type":"village"},{"id":"3887455015","name":"Séguémè","lat":6.8081257,"lon":1.7066991,"type":"village"},{"id":"3887455024","name":"Aguinhoué","lat":6.8177987,"lon":1.7750812,"type":"village"},{"id":"3887455027","name":"Kpodaha","lat":6.8187901,"lon":1.7055849,"type":"village"},{"id":"3887455039","name":"Montchôhoué","lat":6.8248813,"lon":1.6981591,"type":"village"},{"id":"3887455042","name":"Fannahinhoué","lat":6.8272419,"lon":1.6871348,"type":"village"},{"id":"3887455043","name":"Kpodaha-Deka","lat":6.8274182,"lon":1.7070973,"type":"village"},{"id":"3887455048","name":"Migbowomey","lat":6.8308261,"lon":1.7197568,"type":"village"},{"id":"3887455049","name":"Adjintimey","lat":6.8317995,"lon":1.6779543,"type":"village"},{"id":"3887455055","name":"Dowomey","lat":6.8333577,"lon":1.7454229,"type":"village"},{"id":"3887455563","name":"Blotchihoué","lat":6.8356934,"lon":1.7248818,"type":"village"},{"id":"3887455564","name":"Amahoué","lat":6.8357623,"lon":1.7705458,"type":"village"},{"id":"3887455565","name":"Hekpé","lat":6.8360917,"lon":1.6964044,"type":"village"},{"id":"3887455576","name":"Sèmanouhoué","lat":6.8414457,"lon":1.7135622,"type":"village"},{"id":"3887455577","name":"Gohomey","lat":6.8421183,"lon":1.7414309,"type":"village"},{"id":"3887455583","name":"Godouhoué","lat":6.8462772,"lon":1.7367146,"type":"village"},{"id":"3887455584","name":"Démahouhoué","lat":6.8457646,"lon":1.7237974,"type":"village"},{"id":"3887455587","name":"Gbognonhoué","lat":6.8485254,"lon":1.6961816,"type":"village"},{"id":"3887455593","name":"Hagoumey","lat":6.8503475,"lon":1.7579285,"type":"village"},{"id":"3887455614","name":"Fogbadja centre","lat":6.8568439,"lon":1.7210937,"type":"village"},{"id":"3887455617","name":"Mouzoukpokpohoué","lat":6.8583884,"lon":1.7552499,"type":"village"},{"id":"3887455627","name":"Assogbahoué","lat":6.8636578,"lon":1.6797815,"type":"village"},{"id":"3887455632","name":"Sahou-Sohoué","lat":6.8648082,"lon":1.6740771,"type":"village"},{"id":"3887455647","name":"Atchouhoué","lat":6.8724185,"lon":1.6999697,"type":"village"},{"id":"3887455650","name":"Hounkémey","lat":6.8747192,"lon":1.6847283,"type":"village"},{"id":"3887455959","name":"Zouzouvou","lat":6.8808693,"lon":1.6794695,"type":"village"},{"id":"3887455961","name":"Kpèkèhoué","lat":6.8853379,"lon":1.688249,"type":"village"},{"id":"3887455963","name":"Gbédjagni","lat":6.8881988,"lon":1.7475189,"type":"village"},{"id":"3887455986","name":"Lokoui-Bedjamey","lat":6.8907955,"lon":1.7393256,"type":"village"},{"id":"3887456045","name":"Houngbezanmè","lat":6.9006602,"lon":1.7308681,"type":"village"},{"id":"3887456046","name":"Gbognonhoué","lat":6.8985541,"lon":1.7453445,"type":"village"},{"id":"3887456047","name":"Nouboudji","lat":6.8991485,"lon":1.7493782,"type":"village"},{"id":"3887456053","name":"Avodjihoué","lat":6.9026813,"lon":1.6945327,"type":"village"},{"id":"3887456055","name":"Sokouhoué","lat":6.904274,"lon":1.6850848,"type":"village"},{"id":"3887456262","name":"Kessahouèdji","lat":6.9110661,"lon":1.7370059,"type":"village"},{"id":"3887456274","name":"Kinkinhoué","lat":6.9158259,"lon":1.7179538,"type":"village"},{"id":"3887456279","name":"Dédjihoué","lat":6.9203276,"lon":1.7401765,"type":"village"},{"id":"3887456287","name":"Seglahoué","lat":6.9241128,"lon":1.7328025,"type":"village"},{"id":"3887456292","name":"Lokogba","lat":6.9250883,"lon":1.6951135,"type":"village"},{"id":"3887456300","name":"Tchitongon","lat":6.9314955,"lon":1.7229076,"type":"village"},{"id":"3887456302","name":"Ablomey","lat":6.9337478,"lon":1.7305967,"type":"village"},{"id":"3887456303","name":"Danmakahoué","lat":6.9354667,"lon":1.7400311,"type":"village"},{"id":"3887456304","name":"Wanou","lat":6.9376893,"lon":1.7442731,"type":"village"},{"id":"3888834128","name":"Mahèssou","lat":7.0539397,"lon":2.366765,"type":"village"},{"id":"3888835162","name":"Dangbéhonou","lat":7.1459743,"lon":2.3595946,"type":"village"},{"id":"3891485865","name":"Dré","lat":6.4604827,"lon":1.8345591,"type":"village"},{"id":"3891485866","name":"Djanglanmey","lat":6.4125078,"lon":1.8130205,"type":"town"},{"id":"3891485912","name":"Gountoèto","lat":6.4294637,"lon":1.8062441,"type":"village"},{"id":"3891485928","name":"Oumako","lat":6.4354205,"lon":1.841381,"type":"town"},{"id":"3898096232","name":"Gomè","lat":6.3658978,"lon":1.9809086,"type":"village"},{"id":"3898096233","name":"Kpablè","lat":6.3660363,"lon":1.9031721,"type":"village"},{"id":"3898096238","name":"Nazoumè","lat":6.3684913,"lon":1.9593928,"type":"village"},{"id":"3898096247","name":"Godonoutin","lat":6.3808057,"lon":2.0042087,"type":"village"},{"id":"3898096248","name":"Dohi","lat":6.3830784,"lon":1.9399425,"type":"village"},{"id":"3898096251","name":"Guézin-Zinkpanou","lat":6.3966915,"lon":1.9381954,"type":"village"},{"id":"3904353293","name":"Adjadji-Cossoé","lat":6.6222648,"lon":2.0600277,"type":"village"},{"id":"3904375103","name":"Guéné-Kouzi","lat":11.0316735,"lon":3.7045052,"type":"village"},{"id":"3904375104","name":"Owodé","lat":11.0630384,"lon":3.7105327,"type":"village"},{"id":"3904375138","name":"Tounga-Yacoubou","lat":11.0960416,"lon":3.7110351,"type":"village"},{"id":"3904380756","name":"Katchanga","lat":9.8937545,"lon":1.7654056,"type":"village"},{"id":"3904388357","name":"Foumbéa","lat":9.9056476,"lon":1.774253,"type":"village"},{"id":"3904388369","name":"Agorogossi","lat":9.9155333,"lon":1.7572982,"type":"village"},{"id":"3904388442","name":"Galora-Yabaga","lat":9.9512508,"lon":1.6868448,"type":"village"},{"id":"3904444401","name":"Atchakpa","lat":8.0169181,"lon":2.3949143,"type":"town"},{"id":"3904452987","name":"Vévi","lat":7.6357589,"lon":1.6964328,"type":"village"},{"id":"3904453002","name":"Houto","lat":7.6788327,"lon":1.6644438,"type":"village"},{"id":"3906226348","name":"Don","lat":7.2531466,"lon":2.3790509,"type":"village"},{"id":"3906692620","name":"Sèhoun","lat":7.2025818,"lon":2.0305134,"type":"village"},{"id":"3906692630","name":"Agbokpa","lat":7.2145104,"lon":2.0232997,"type":"village"},{"id":"3906692653","name":"Goutchon","lat":7.2354006,"lon":2.0503732,"type":"village"},{"id":"3906692655","name":"Agblokpa","lat":7.2377217,"lon":2.058321,"type":"village"},{"id":"3906693575","name":"Fonkpamè","lat":7.2431876,"lon":2.0427755,"type":"village"},{"id":"3906693597","name":"Djoho","lat":7.2564193,"lon":2.0326935,"type":"village"},{"id":"3906693605","name":"Lotcho-Ahouamè","lat":7.2759302,"lon":2.0546637,"type":"village"},{"id":"3906694050","name":"Gnidjazoun","lat":7.2131979,"lon":2.064016,"type":"village"},{"id":"3906694051","name":"Avokanzoun","lat":7.2195109,"lon":2.0478653,"type":"village"},{"id":"3906694052","name":"Lissèzoun Zoungoudo","lat":7.2201466,"lon":2.0633734,"type":"village"},{"id":"3919354621","name":"Hetin Glahounsa","lat":6.58527,"lon":2.5004417,"type":"village"},{"id":"3919354635","name":"Yokon","lat":6.6248331,"lon":2.5126381,"type":"village"},{"id":"3919354637","name":"Dannou","lat":6.6293267,"lon":2.4712056,"type":"village"},{"id":"3919356663","name":"Lowé","lat":6.6412547,"lon":2.476287,"type":"village"},{"id":"3919356706","name":"Agonlin","lat":6.6562901,"lon":2.4760978,"type":"village"},{"id":"3919356742","name":"Azowlissè","lat":6.6662285,"lon":2.4926623,"type":"village"},{"id":"3919356773","name":"Gangban","lat":6.6687395,"lon":2.4693141,"type":"town"},{"id":"3919356811","name":"Agué-Gbagodo","lat":6.6745702,"lon":2.4793168,"type":"village"},{"id":"3919356910","name":"Démè","lat":6.697622,"lon":2.479401,"type":"town"},{"id":"3921516058","name":"Tatonnonkon","lat":6.9030848,"lon":2.5141506,"type":"village"},{"id":"3921692361","name":"Ahouanzonmè","lat":6.9251085,"lon":2.4351239,"type":"village"},{"id":"3921692368","name":"Avlankanmè","lat":6.9363295,"lon":2.420413,"type":"village"},{"id":"3921692400","name":"Damè-Wogon","lat":6.945791,"lon":2.4187842,"type":"village"},{"id":"3921692403","name":"Houéaga","lat":6.9480366,"lon":2.4139884,"type":"village"},{"id":"3924329362","name":"Gomè","lat":6.9927582,"lon":2.0422522,"type":"village"},{"id":"3933300968","name":"Bakou Bè","lat":11.1638846,"lon":3.4137598,"type":"village"},{"id":"3933331945","name":"Sein","lat":11.2928656,"lon":3.4953089,"type":"village"},{"id":"3933332401","name":"Godjékoara","lat":11.4441455,"lon":3.4756546,"type":"village"},{"id":"3933332432","name":"Touloua","lat":11.5535373,"lon":3.3587805,"type":"village"},{"id":"3934486540","name":"Djèkian","lat":6.8226589,"lon":1.9235526,"type":"village"},{"id":"3937284831","name":"Ekpè","lat":6.3877269,"lon":2.5420041,"type":"town"},{"id":"3943330380","name":"Akodébakou","lat":6.8943923,"lon":1.6721648,"type":"village"},{"id":"3943330409","name":"Houétchihoué","lat":6.9098379,"lon":1.6656959,"type":"village"},{"id":"3943330413","name":"Tchiglihoué","lat":6.9233692,"lon":1.6550154,"type":"village"},{"id":"3943330414","name":"Afikôè","lat":6.9243708,"lon":1.6643916,"type":"village"},{"id":"3943330417","name":"Djikpamè","lat":6.9295859,"lon":1.6601447,"type":"village"},{"id":"4037296533","name":"Banga","lat":10.8307275,"lon":3.4936081,"type":"village"},{"id":"4125335569","name":"Hetin Gléhoué","lat":6.577103,"lon":2.5080949,"type":"village"},{"id":"4126039744","name":"Hanou","lat":6.330342,"lon":1.8055756,"type":"village"},{"id":"4153123285","name":"Cococodji","lat":6.3874765,"lon":2.2720568,"type":"village"},{"id":"4164182890","name":"Gamare","lat":10.1696047,"lon":2.6498428,"type":"village"},{"id":"4164183461","name":"Pedarou","lat":10.3083523,"lon":2.7066565,"type":"village"},{"id":"4164183647","name":"Hangar Peul","lat":10.135489,"lon":2.6505013,"type":"village"},{"id":"4164183648","name":"Wodora","lat":9.9230477,"lon":2.7215465,"type":"village"},{"id":"4164183790","name":"Badougoukparou","lat":10.1181726,"lon":2.6503316,"type":"village"},{"id":"4167395748","name":"Sèhomi-Dato","lat":6.5064936,"lon":1.9632637,"type":"village"},{"id":"4169346428","name":"Akodeha","lat":6.4586128,"lon":1.9179378,"type":"village"},{"id":"4180956951","name":"Devoukanmey","lat":6.4291633,"lon":2.1870321,"type":"village"},{"id":"4180956952","name":"Gakpe","lat":6.4492489,"lon":2.11016,"type":"village"},{"id":"4180956954","name":"Gbodjè","lat":6.3864878,"lon":2.2833466,"type":"village"},{"id":"4180956955","name":"Houndomè","lat":6.4639182,"lon":2.1738142,"type":"village"},{"id":"4180956956","name":"Minantinkpon","lat":6.3910795,"lon":2.0937985,"type":"village"},{"id":"4180956957","name":"Ouèssè","lat":6.4021767,"lon":2.1302309,"type":"village"},{"id":"4180956958","name":"Pahou","lat":6.3838712,"lon":2.2127617,"type":"town"},{"id":"4180958331","name":"Savi","lat":6.4274735,"lon":2.1023605,"type":"village"},{"id":"4208983188","name":"Togba","lat":6.4651364,"lon":2.3048643,"type":"town"},{"id":"4258666039","name":"Gninhountimè","lat":6.3106934,"lon":1.943202,"type":"village"},{"id":"4258756987","name":"Gbèzounmè","lat":6.3440004,"lon":1.9599265,"type":"village"},{"id":"4258775973","name":"Tokpadomè","lat":6.5030936,"lon":2.0014022,"type":"village"},{"id":"4258787454","name":"Hinzounmè","lat":6.4966272,"lon":1.9990674,"type":"village"},{"id":"4258797323","name":"Doga","lat":6.4579715,"lon":1.9800337,"type":"village"},{"id":"4258797328","name":"Lokogbo","lat":6.4847012,"lon":1.991849,"type":"village"},{"id":"4258820838","name":"Adja-Tokpa","lat":6.4379054,"lon":1.9695106,"type":"village"},{"id":"4258820843","name":"Vovio","lat":6.4475336,"lon":1.9745309,"type":"village"},{"id":"4258868311","name":"Sègbohouè","lat":6.4062675,"lon":1.9629177,"type":"town"},{"id":"4259461281","name":"Gonguèkpè","lat":6.4153422,"lon":1.9300048,"type":"village"},{"id":"4259461282","name":"Kpétou","lat":6.426928,"lon":1.9226257,"type":"village"},{"id":"4259611408","name":"Zounta","lat":6.4999522,"lon":1.9585721,"type":"village"},{"id":"4259640391","name":"Possotomè","lat":6.521662,"lon":1.9681247,"type":"town"},{"id":"4264119143","name":"Avlo","lat":6.2951995,"lon":1.8945374,"type":"town"},{"id":"4264119144","name":"Allongo","lat":6.2905511,"lon":1.8856997,"type":"village"},{"id":"4264119145","name":"Djondji","lat":6.3058676,"lon":1.9746852,"type":"village"},{"id":"4264119147","name":"Mèko Village","lat":6.312417,"lon":1.9997066,"type":"village"},{"id":"4264119579","name":"Dégouè Domè","lat":6.3265647,"lon":2.0584106,"type":"village"},{"id":"4264119610","name":"Avlo Houta","lat":6.2916733,"lon":1.8973381,"type":"village"},{"id":"4264119617","name":"Houakpè Daho","lat":6.329234,"lon":2.0477252,"type":"village"},{"id":"4264120010","name":"Aïdo Village","lat":6.3182751,"lon":2.0044847,"type":"village"},{"id":"4264120091","name":"Seyigbé","lat":6.3247138,"lon":2.0418144,"type":"village"},{"id":"4264120416","name":"Ahouandji","lat":6.3394797,"lon":2.1610243,"type":"village"},{"id":"4264120418","name":"Avlékété","lat":6.3484353,"lon":2.2040058,"type":"town"},{"id":"4283184389","name":"Kpovidji","lat":6.3446307,"lon":1.839294,"type":"village"},{"id":"4313209400","name":"Vèkky","lat":6.486039,"lon":2.4202494,"type":"town"},{"id":"4314432331","name":"Hêvié","lat":6.4138647,"lon":2.2571111,"type":"village"},{"id":"4314432332","name":"Ouèdo","lat":6.4524367,"lon":2.2670915,"type":"village"},{"id":"4323430694","name":"Zoungamè","lat":6.4596532,"lon":2.5443077,"type":"village"},{"id":"4323464863","name":"Aniviécomè","lat":6.4473968,"lon":2.542011,"type":"village"},{"id":"4326296434","name":"Hètin Sota","lat":6.586525,"lon":2.504149,"type":"village"},{"id":"4341921825","name":"Dogbadji","lat":6.5816109,"lon":2.5022338,"type":"village"},{"id":"4342245255","name":"Azizakouè","lat":6.3217513,"lon":2.0321395,"type":"village"},{"id":"4535548017","name":"Ogobaï","lat":7.391266,"lon":2.5390602,"type":"village"},{"id":"4535576339","name":"Issèlou","lat":7.4757987,"lon":2.7378787,"type":"village"},{"id":"4535593913","name":"Odokoto","lat":7.2747296,"lon":2.5642369,"type":"village"},{"id":"4535613364","name":"Oke Ola","lat":7.2938849,"lon":2.5749442,"type":"village"},{"id":"4535622293","name":"Village Obatèdo","lat":7.413677,"lon":2.6950686,"type":"village"},{"id":"4535625561","name":"Ogboun Ilèchi","lat":7.3827175,"lon":2.5565458,"type":"village"},{"id":"4535656964","name":"Chori","lat":7.4034392,"lon":2.6959111,"type":"village"},{"id":"4535656965","name":"Moumou","lat":7.400836,"lon":2.7032362,"type":"village"},{"id":"4535663754","name":"Zoukou","lat":7.3865267,"lon":2.4999133,"type":"village"},{"id":"4535672197","name":"sodji","lat":7.40952,"lon":2.5082833,"type":"village"},{"id":"4535706947","name":"Awaya","lat":7.5747559,"lon":2.6639822,"type":"village"},{"id":"4535706964","name":"Effèoutè","lat":7.6536053,"lon":2.6698095,"type":"village"},{"id":"4535706973","name":"Iwesoun","lat":7.603177,"lon":2.6635776,"type":"village"},{"id":"4535706974","name":"Kpassara","lat":7.5007407,"lon":2.6443919,"type":"village"},{"id":"4535706977","name":"Mosoukagbé","lat":7.5665406,"lon":2.6603701,"type":"village"},{"id":"4535734692","name":"Village Illikimou","lat":7.4561651,"lon":2.7410159,"type":"village"},{"id":"4637301035","name":"Djègbamè","lat":6.3332271,"lon":1.9707997,"type":"village"},{"id":"4639559994","name":"Ayanho","lat":7.5920534,"lon":2.6971345,"type":"village"},{"id":"4643948415","name":"Igbo-olojoumaré","lat":7.2438825,"lon":2.5879777,"type":"village"},{"id":"4643948416","name":"Oke-orè","lat":7.2423838,"lon":2.5427798,"type":"village"},{"id":"4643948417","name":"Owode","lat":7.2837941,"lon":2.5551602,"type":"village"},{"id":"4644002951","name":"Atan-iya","lat":7.2613076,"lon":2.6645282,"type":"village"},{"id":"4644177111","name":"Ojou-Elègbara","lat":7.4919317,"lon":2.6069104,"type":"village"},{"id":"4644192323","name":"Dogo","lat":7.5415769,"lon":2.6132797,"type":"village"},{"id":"4644210943","name":"Olorounshogo","lat":7.3933529,"lon":2.5045481,"type":"village"},{"id":"4649685752","name":"Emèda","lat":7.4908928,"lon":2.6665516,"type":"village"},{"id":"4649686966","name":"Onbadé","lat":7.5121383,"lon":2.6446661,"type":"village"},{"id":"4763999703","name":"Ladji","lat":6.3907482,"lon":2.4306111,"type":"village"},{"id":"4869558691","name":"Alagbèdè","lat":7.3736405,"lon":2.661714,"type":"village"},{"id":"4869558692","name":"Bas-Igbo","lat":7.3797466,"lon":2.6630202,"type":"village"},{"id":"4869558698","name":"Ichagboun","lat":7.4177429,"lon":2.6782069,"type":"village"},{"id":"4869558699","name":"Idjou","lat":7.3699604,"lon":2.6827304,"type":"village"},{"id":"4869558700","name":"Ikpia","lat":7.4046753,"lon":2.6756802,"type":"village"},{"id":"4869558701","name":"Issaba","lat":7.409229,"lon":2.6627198,"type":"village"},{"id":"4869558703","name":"Ofia","lat":7.3586377,"lon":2.6543942,"type":"village"},{"id":"4869558704","name":"Ogbon-Ilèchin","lat":7.28784,"lon":2.6922146,"type":"village"},{"id":"4869558705","name":"Ogounou","lat":7.3014768,"lon":2.7062685,"type":"village"},{"id":"4869558706","name":"Ossokodjo","lat":7.3189616,"lon":2.664132,"type":"village"},{"id":"4869612337","name":"Oloka","lat":7.2766582,"lon":2.6304831,"type":"village"},{"id":"4869665793","name":"Agbossassa","lat":7.5877229,"lon":2.5279638,"type":"village"},{"id":"4869665796","name":"Sabo","lat":7.547502,"lon":2.5955665,"type":"village"},{"id":"4869703266","name":"Mowodani","lat":7.2628529,"lon":2.5409464,"type":"village"},{"id":"4869707155","name":"Ogélété","lat":7.3293597,"lon":2.7367724,"type":"village"},{"id":"4924943398","name":"Assoklé","lat":6.6539183,"lon":2.2846,"type":"village"},{"id":"4924943399","name":"Hounssagoudo","lat":6.6335666,"lon":2.2825128,"type":"village"},{"id":"4924945164","name":"Adjrako","lat":6.6145045,"lon":2.2813083,"type":"village"},{"id":"4924945167","name":"Dodji-Bata","lat":6.686431,"lon":2.2881353,"type":"village"},{"id":"4924945422","name":"Atindomè","lat":6.6983886,"lon":2.2886519,"type":"village"},{"id":"4924945424","name":"Akouèdjromèdé","lat":6.6676283,"lon":2.2858967,"type":"village"},{"id":"4936866453","name":"Adjan","lat":6.7083129,"lon":2.2694066,"type":"village"},{"id":"4986570657","name":"DJODJIZOUNMEY/OUEDEME-ADJA","lat":6.7241167,"lon":1.6138169,"type":"village"},{"id":"4986580580","name":"TOTINGA/OUEDEME-ADJA","lat":6.7100742,"lon":1.6767093,"type":"village"},{"id":"4986688844","name":"Koudo","lat":6.7144539,"lon":1.7929682,"type":"town"},{"id":"5064340100","name":"Tori-Avamè","lat":6.5059519,"lon":2.2112772,"type":"village"},{"id":"5064340101","name":"Tori-Gare","lat":6.5118506,"lon":2.1747802,"type":"village"},{"id":"5064340102","name":"Azohouè-Cada","lat":6.5579512,"lon":2.0994123,"type":"village"},{"id":"5064340103","name":"Hayakpa","lat":6.5721024,"lon":2.1304271,"type":"village"},{"id":"5064340104","name":"Adzohouè-Aliho","lat":6.585618,"lon":2.1252297,"type":"village"},{"id":"5064340105","name":"Akadjamè","lat":6.4719523,"lon":2.1877994,"type":"village"},{"id":"5110317467","name":"Ahahonto","lat":6.4687617,"lon":2.2792012,"type":"village"},{"id":"5125180340","name":"Kassa","lat":11.5794017,"lon":3.5084099,"type":"village"},{"id":"5168736518","name":"Grand-Popo","lat":6.2763745,"lon":1.8067199,"type":"town"},{"id":"5177045744","name":"Todjonoukoin","lat":6.3573293,"lon":1.8377772,"type":"village"},{"id":"5210798909","name":"Agbanzin-Kpota","lat":6.3540704,"lon":2.2065568,"type":"village"},{"id":"5210854939","name":"Adounko Daho","lat":6.3537079,"lon":2.2779142,"type":"village"},{"id":"5210854955","name":"Hio Houta","lat":6.3449722,"lon":2.2488982,"type":"village"},{"id":"5210883402","name":"Adounko","lat":6.3452734,"lon":2.2886163,"type":"village"},{"id":"5210883414","name":"Togbin Daho","lat":6.3547529,"lon":2.3106694,"type":"village"},{"id":"5210891110","name":"Djako Daho","lat":6.3529631,"lon":2.3555622,"type":"village"},{"id":"5395560587","name":"Mougnon","lat":7.2389363,"lon":2.0144581,"type":"village"},{"id":"5399374032","name":"Zinkanme","lat":7.3065984,"lon":1.9482238,"type":"village"},{"id":"5428857211","name":"Wometo","lat":7.255516,"lon":2.4393023,"type":"village"},{"id":"5428873034","name":"Ahlan","lat":7.2152681,"lon":2.4701156,"type":"village"},{"id":"5428873035","name":"Azakpo","lat":7.3231467,"lon":2.4640034,"type":"village"},{"id":"5428873036","name":"Zantan","lat":7.2363986,"lon":2.5055189,"type":"village"},{"id":"5428873037","name":"Agongbodji","lat":7.2353743,"lon":2.4983509,"type":"village"},{"id":"5472434583","name":"Logozohe","lat":7.8954863,"lon":2.0821321,"type":"village"},{"id":"5494769761","name":"Village de Detekpa Adjinangon","lat":7.276465,"lon":2.2239533,"type":"village"},{"id":"5537939608","name":"Ita-Djebou","lat":6.8231866,"lon":2.6100154,"type":"village"},{"id":"5538676989","name":"Golo-Djigbé","lat":6.5592571,"lon":2.3032531,"type":"town"},{"id":"5618516181","name":"Maredourou","lat":9.5443281,"lon":2.629855,"type":"village"},{"id":"5624162015","name":"Oloungbé","lat":8.8250614,"lon":2.2862884,"type":"village"},{"id":"5624162016","name":"Agramarou","lat":9.0458703,"lon":2.3922983,"type":"village"},{"id":"5624162017","name":"Ayégourou","lat":9.0637036,"lon":2.3672116,"type":"village"},{"id":"5624162019","name":"Koko","lat":9.067546,"lon":2.3616938,"type":"village"},{"id":"5624162020","name":"Kpebera","lat":10.4330823,"lon":2.6990078,"type":"village"},{"id":"5624163421","name":"Bouro","lat":10.3695764,"lon":2.460224,"type":"village"},{"id":"5624163422","name":"Gah-Guessou","lat":10.3336181,"lon":2.4460438,"type":"village"},{"id":"5624163423","name":"Didi","lat":10.3057242,"lon":2.2225364,"type":"village"},{"id":"5624163425","name":"Goro-Bani","lat":10.2212936,"lon":2.3075314,"type":"village"},{"id":"5624163426","name":"Bouka-Gando","lat":10.1887474,"lon":3.1601989,"type":"village"},{"id":"5624163427","name":"Gbérougbassi","lat":10.2703691,"lon":3.1553706,"type":"village"},{"id":"5624163428","name":"Kirikoubé","lat":10.3108833,"lon":3.1387715,"type":"village"},{"id":"5624163429","name":"Ouénagourou","lat":10.341397,"lon":3.1953966,"type":"village"},{"id":"5624163430","name":"Djilidjaré","lat":10.2974421,"lon":3.1647378,"type":"village"},{"id":"5624163431","name":"Bagaria","lat":10.3103748,"lon":3.2567872,"type":"village"},{"id":"5624163432","name":"Bouka-Peulh","lat":10.2227574,"lon":3.1486146,"type":"village"},{"id":"5663306399","name":"Winra","lat":9.3288043,"lon":2.7610406,"type":"village"},{"id":"5663306400","name":"Gbande","lat":9.4024572,"lon":2.801385,"type":"village"},{"id":"5663306401","name":"Sinanimoin","lat":9.4746573,"lon":2.8280646,"type":"village"},{"id":"5663306402","name":"Tanguè","lat":9.1943188,"lon":3.1001285,"type":"village"},{"id":"5663306403","name":"Warankpérou","lat":9.1388793,"lon":2.9870557,"type":"village"},{"id":"5663306404","name":"Monrawonkourou","lat":9.2421502,"lon":3.065635,"type":"village"},{"id":"5663306405","name":"Camp Zato","lat":9.2984231,"lon":3.0244315,"type":"village"},{"id":"5663306415","name":"Tourou-Souanré","lat":9.2544832,"lon":3.0011799,"type":"village"},{"id":"5663312031","name":"Tekparou","lat":9.1334456,"lon":2.5872542,"type":"village"},{"id":"5663312049","name":"Boukousséra","lat":9.1035475,"lon":2.5294322,"type":"village"},{"id":"5663312050","name":"Atira-Kparou","lat":9.0987644,"lon":2.4901721,"type":"village"},{"id":"5663312052","name":"Guinirou","lat":8.9342718,"lon":2.5893315,"type":"village"},{"id":"5663312054","name":"Boronin","lat":8.892797,"lon":2.5853843,"type":"village"},{"id":"5663312058","name":"Kera","lat":8.8742953,"lon":2.5997979,"type":"village"},{"id":"5663312059","name":"Akoundanmon","lat":8.8493029,"lon":2.5597986,"type":"village"},{"id":"5663312061","name":"Gah-Gourou","lat":8.9444584,"lon":2.4433364,"type":"village"},{"id":"5663312062","name":"Gbeba","lat":8.9419372,"lon":2.440334,"type":"village"},{"id":"5663312078","name":"Babarou","lat":9.1230473,"lon":2.4255765,"type":"village"},{"id":"5663312095","name":"Banigri","lat":9.1566838,"lon":2.3160572,"type":"village"},{"id":"5663312097","name":"Sinahou","lat":9.202449,"lon":2.2581072,"type":"village"},{"id":"5663312154","name":"Kaki-Koka","lat":9.2126621,"lon":2.3229987,"type":"village"},{"id":"5663312155","name":"Somou-Gah","lat":9.3392727,"lon":2.077627,"type":"village"},{"id":"5663312204","name":"Kpassatona","lat":9.2348741,"lon":2.3475224,"type":"village"},{"id":"5663312225","name":"Gbétébou","lat":9.2386529,"lon":2.3594819,"type":"village"},{"id":"5663312262","name":"Amadou-Kpara","lat":9.2544616,"lon":2.3849599,"type":"village"},{"id":"5663312280","name":"Téou-Kpara","lat":9.2657569,"lon":2.4073569,"type":"village"},{"id":"5663312297","name":"Toukoussari","lat":9.2004766,"lon":2.4832501,"type":"village"},{"id":"5663312298","name":"Gombouerou","lat":9.316966,"lon":2.4947041,"type":"village"},{"id":"5663312299","name":"Toko-Bio","lat":9.340649,"lon":2.4329293,"type":"village"},{"id":"5663312300","name":"Monnon","lat":9.3878879,"lon":2.4666337,"type":"village"},{"id":"5663312301","name":"Bosso-Camps-Peulhs","lat":9.3926029,"lon":2.4100588,"type":"village"},{"id":"5663312306","name":"Kaya","lat":9.3518401,"lon":2.3892583,"type":"village"},{"id":"5663312321","name":"Owode","lat":8.7620719,"lon":2.7293407,"type":"village"},{"id":"5663312355","name":"Borori","lat":8.9285069,"lon":2.661005,"type":"village"},{"id":"5663312356","name":"Yambouan","lat":8.9709852,"lon":2.7827503,"type":"village"},{"id":"5782227949","name":"Adido","lat":6.8307567,"lon":2.5305998,"type":"village"},{"id":"5820632037","name":"Mafouta-Waassarè","lat":11.1238573,"lon":3.6679369,"type":"village"},{"id":"5838349121","name":"Onklou 1","lat":9.4883611,"lon":1.9949322,"type":"village"},{"id":"5901445675","name":"Kpébouco","lat":9.9808966,"lon":1.8803894,"type":"village"},{"id":"5910147587","name":"Sakaouan Kwara Tégui","lat":11.8529032,"lon":3.2099819,"type":"village"},{"id":"5910147623","name":"Tomboutou","lat":11.8554547,"lon":3.2889729,"type":"town"},{"id":"5965831698","name":"Ina-Gando","lat":9.9954083,"lon":2.7654596,"type":"village"},{"id":"5965831699","name":"Goua","lat":9.981626,"lon":2.8367293,"type":"village"},{"id":"5965831700","name":"Sikouro","lat":10.0354644,"lon":2.763422,"type":"village"},{"id":"5965831701","name":"Soubo-Ganderou","lat":10.059102,"lon":2.8307519,"type":"village"},{"id":"5965831703","name":"Temé","lat":10.1976507,"lon":2.8986065,"type":"village"},{"id":"5965831704","name":"Gnel Babi","lat":10.2242763,"lon":2.9203787,"type":"village"},{"id":"5965831705","name":"Gbérou-Daba","lat":10.2293302,"lon":2.9372028,"type":"village"},{"id":"5965831706","name":"Gando-Borou","lat":10.2013281,"lon":2.8442032,"type":"village"},{"id":"5965831725","name":"Bembéréké Peulh","lat":10.1146646,"lon":2.739476,"type":"village"},{"id":"5965831726","name":"Wonka-Gourou","lat":10.0852561,"lon":2.6449287,"type":"village"},{"id":"5965831727","name":"Sonkorou","lat":9.9802562,"lon":2.5500095,"type":"village"},{"id":"5965831728","name":"Kori","lat":9.9537824,"lon":2.4973446,"type":"village"},{"id":"5965831729","name":"Sakarou","lat":10.1129696,"lon":2.37838,"type":"village"},{"id":"5965831730","name":"Fo-Bouko","lat":10.1166601,"lon":2.3215046,"type":"village"},{"id":"5965831769","name":"Monsi","lat":10.2029029,"lon":2.4436535,"type":"village"},{"id":"5965831770","name":"Gah-Baka","lat":10.1922673,"lon":2.4117271,"type":"village"},{"id":"5965831773","name":"Gnanro","lat":10.3698197,"lon":2.3965978,"type":"town"},{"id":"5965831774","name":"Seko-Kparou","lat":10.4382475,"lon":2.4441917,"type":"village"},{"id":"5965831775","name":"Beroubouay Peulh","lat":10.52697,"lon":2.6909013,"type":"village"},{"id":"6164348081","name":"Binagnon","lat":7.5927936,"lon":2.5404179,"type":"village"},{"id":"6176804163","name":"Illikimou kolly","lat":7.4307289,"lon":2.786582,"type":"village"},{"id":"6176806743","name":"Illikimou Allagbé","lat":7.4226152,"lon":2.7393674,"type":"village"},