[{"id":"369493516","name":"Muara","lat":5.0262617,"lon":115.0702263,"type":"town"},{"id":"583096673","name":"Peramu","lat":4.8820548,"lon":114.9432854,"type":"village"},{"id":"583096674","name":"Saba","lat":4.883562,"lon":114.9470084,"type":"village"},{"id":"583096675","name":"Tamoi","lat":4.8839041,"lon":114.93555,"type":"village"},{"id":"583096973","name":"Burong Pingai Ayer","lat":4.8762929,"lon":114.9337905,"type":"village"},{"id":"583097365","name":"Sungai Kebun","lat":4.8796282,"lon":114.9433069,"type":"village"},{"id":"1013092342","name":"Kuala Belait","lat":4.5845101,"lon":114.1932373,"type":"town"},{"id":"1694143799","name":"Bengkurong","lat":4.8470639,"lon":114.870818,"type":"village"},{"id":"1699083598","name":"Bandar Seri Begawan","lat":4.8895453,"lon":114.9417574,"type":"city"},{"id":"1699103550","name":"Bangar","lat":4.7076478,"lon":115.0724439,"type":"town"},{"id":"1841496285","name":"Seria","lat":4.6141594,"lon":114.3301832,"type":"town"},{"id":"2676923448","name":"Kampung Menengah","lat":4.7226981,"lon":115.0700391,"type":"village"},{"id":"2757709599","name":"Sungai Tujoh","lat":4.5853595,"lon":114.0767345,"type":"village"},{"id":"3172022762","name":"Jangsak","lat":4.8803219,"lon":114.8760083,"type":"village"},{"id":"3172022763","name":"Kilanas","lat":4.8692855,"lon":114.8630106,"type":"village"},{"id":"3172022764","name":"Tanjong Bunut","lat":4.8915766,"lon":114.8549888,"type":"village"},{"id":"3174225684","name":"Kiulap","lat":4.8969821,"lon":114.9277373,"type":"village"},{"id":"3174389756","name":"Kiarong","lat":4.8952832,"lon":114.9159181,"type":"village"},{"id":"3175125661","name":"Batu Apoi","lat":4.7146461,"lon":115.1110835,"type":"village"},{"id":"3175125662","name":"Bebatik","lat":4.8518298,"lon":114.8441336,"type":"village"},{"id":"3175125663","name":"Beribi","lat":4.8844394,"lon":114.9009664,"type":"village"},{"id":"3175125664","name":"Bunut","lat":4.8560685,"lon":114.8889472,"type":"village"},{"id":"3175125665","name":"Jerudong","lat":4.9378332,"lon":114.8417358,"type":"village"},{"id":"3175125666","name":"Katok","lat":4.9177929,"lon":114.8936033,"type":"village"},{"id":"3175125669","name":"Mulaut","lat":4.8690454,"lon":114.8475667,"type":"village"},{"id":"3175125670","name":"Negalang Ering","lat":4.7270452,"lon":115.1250442,"type":"village"},{"id":"3175125671","name":"Tumasek","lat":4.8809992,"lon":114.9217085,"type":"village"},{"id":"3181219294","name":"Pasai","lat":4.8843885,"lon":114.8449518,"type":"village"},{"id":"3181219296","name":"Selayun","lat":4.8985543,"lon":114.8495516,"type":"village"},{"id":"3181219301","name":"Tagap","lat":4.9165573,"lon":114.8449104,"type":"village"},{"id":"3181219302","name":"Tanjong Nangka","lat":4.8796083,"lon":114.8318974,"type":"village"},{"id":"3298583192","name":"Batong","lat":4.8196873,"lon":114.8168079,"type":"village"},{"id":"3298583193","name":"Katimahar","lat":4.8681482,"lon":114.8141261,"type":"village"},{"id":"3298583194","name":"Kulapis","lat":4.858046,"lon":114.8215625,"type":"village"},{"id":"3298583196","name":"Masin","lat":4.8301159,"lon":114.8449062,"type":"village"},{"id":"3298583199","name":"Panchor Murai","lat":4.803648,"lon":114.8106117,"type":"village"},{"id":"3298583200","name":"Parit","lat":4.8102495,"lon":114.8334576,"type":"village"},{"id":"3298583201","name":"Pengkalan Batu","lat":4.7993855,"lon":114.828356,"type":"village"},{"id":"3300513361","name":"Bunut Perpindahan","lat":4.8509471,"lon":114.8882419,"type":"village"},{"id":"3300513362","name":"Madewa","lat":4.8578607,"lon":114.8967112,"type":"village"},{"id":"3300513363","name":"Tasek Meradun","lat":4.8536464,"lon":114.8739614,"type":"village"},{"id":"3300513364","name":"Telanai","lat":4.8710979,"lon":114.9005281,"type":"village"},{"id":"4007403183","name":"Panchor","lat":4.9743283,"lon":115.0088693,"type":"village"},{"id":"4254106342","name":"Burong Lepas","lat":4.8265804,"lon":114.8638517,"type":"village"},{"id":"4254106343","name":"Sinarubai","lat":4.8376117,"lon":114.8714893,"type":"village"},{"id":"4299419158","name":"Parit","lat":4.8859199,"lon":114.9276318,"type":"village"},{"id":"4318991429","name":"Batang Tuau","lat":4.7023426,"lon":115.0524188,"type":"village"},{"id":"4320585691","name":"Kampong Sungai Liang","lat":4.677346,"lon":114.4954694,"type":"village"},{"id":"4320585693","name":"Kampong Kuala Tutong","lat":4.781962,"lon":114.6092819,"type":"village"},{"id":"4320588791","name":"Kampong Lumut","lat":4.660332,"lon":114.44212,"type":"village"},{"id":"4745086502","name":"Limau Manis","lat":4.7683121,"lon":114.8235924,"type":"village"},{"id":"4758978227","name":"Kampong Luagan Dudok","lat":4.8172693,"lon":114.729745,"type":"village"},{"id":"4758980581","name":"Kampong Sinaut","lat":4.816115,"lon":114.7459432,"type":"village"},{"id":"4758980687","name":"Kampong Sungai Kelugos","lat":4.8054509,"lon":114.7647308,"type":"village"},{"id":"4845120741","name":"Lupak Luas","lat":4.8696713,"lon":114.9408519,"type":"village"},{"id":"4851094757","name":"Lumapas","lat":4.8266225,"lon":114.9164648,"type":"village"},{"id":"4851094758","name":"Buang Tekurok","lat":4.86712,"lon":114.9324477,"type":"village"},{"id":"4851094759","name":"Kilugus","lat":4.8362782,"lon":114.9167913,"type":"village"},{"id":"4851094760","name":"Panchor","lat":4.843461,"lon":114.918113,"type":"village"},{"id":"4852904088","name":"Junjongan","lat":4.8103553,"lon":114.8534548,"type":"village"},{"id":"4923458819","name":"STKRJ Lambak Kiri","lat":4.9840202,"lon":114.9369308,"type":"village"},{"id":"4986628842","name":"Kampong Keriam","lat":4.8160508,"lon":114.6940843,"type":"village"},{"id":"4986658719","name":"Kampong Bukit Panggal","lat":4.8277269,"lon":114.7262595,"type":"village"},{"id":"4986692439","name":"Kampong Danau","lat":4.7640328,"lon":114.5889764,"type":"village"},{"id":"4986692440","name":"Kampong Keramut","lat":4.7488771,"lon":114.5811712,"type":"village"},{"id":"4986692441","name":"Kampong Telisai","lat":4.7357022,"lon":114.5629828,"type":"village"},{"id":"4986696169","name":"Kampong Kupang","lat":4.842927,"lon":114.7946752,"type":"village"},{"id":"4987536856","name":"Kampong Penabai","lat":4.7958467,"lon":114.6257295,"type":"village"},{"id":"4987536857","name":"Kampong Sengkarai","lat":4.8047837,"lon":114.6455847,"type":"village"},{"id":"4987541563","name":"Kampong Panchor Dulit","lat":4.8052589,"lon":114.665937,"type":"village"},{"id":"4987543855","name":"Kampong Penanjong","lat":4.8394529,"lon":114.6809496,"type":"village"},{"id":"4999370889","name":"Mata-Mata","lat":4.8999682,"lon":114.896148,"type":"village"},{"id":"5503323974","name":"Kampong Kiudang","lat":4.7433746,"lon":114.7373288,"type":"village"},{"id":"5503323976","name":"Kampong Pad Nunok","lat":4.7171999,"lon":114.7286384,"type":"village"},{"id":"5546878311","name":"Sungai Akar","lat":4.9381323,"lon":114.9654966,"type":"village"},{"id":"5863646187","name":"Kampong Ayer","lat":4.8818594,"lon":114.9438983,"type":"village"},{"id":"5930522088","name":"Baong","lat":4.829696,"lon":114.9638152,"type":"village"},{"id":"5930522089","name":"Putat","lat":4.8340151,"lon":114.9760889,"type":"village"},{"id":"5930522096","name":"Kasat","lat":4.8230651,"lon":114.9471211,"type":"village"},{"id":"5934544190","name":"Batang Perhentian","lat":4.7627524,"lon":114.8125336,"type":"village"},{"id":"5934560742","name":"Wasan","lat":4.7737007,"lon":114.8020623,"type":"village"},{"id":"5934570722","name":"Bebuloh","lat":4.7422739,"lon":114.7885202,"type":"village"},{"id":"5934590085","name":"Kuala Lurah","lat":4.7508451,"lon":114.8171727,"type":"village"},{"id":"5934591314","name":"Batu Ampar","lat":4.7807606,"lon":114.8212282,"type":"village"},{"id":"5934613785","name":"Sengkurong","lat":4.8873301,"lon":114.8411148,"type":"town"},{"id":"5934637149","name":"Lambak","lat":4.968644,"lon":114.9461528,"type":"town"},{"id":"5934638674","name":"Lambak Kiri","lat":4.9892431,"lon":114.9500259,"type":"village"},{"id":"5934824452","name":"Lambak Kanan","lat":4.9721244,"lon":114.9661295,"type":"town"},{"id":"5934849381","name":"Sungai Orok","lat":4.9748125,"lon":114.9840681,"type":"village"},{"id":"5934851942","name":"Salambigar","lat":4.9820379,"lon":114.9903123,"type":"village"},{"id":"5934861863","name":"Sungai Hanching","lat":4.9651662,"lon":114.9759679,"type":"village"},{"id":"5934865838","name":"Sungai Tilong","lat":4.9569306,"lon":114.9733393,"type":"village"},{"id":"5934871663","name":"Tanah Jambu","lat":4.9960982,"lon":115.0021248,"type":"village"},{"id":"5934878931","name":"Sungai Buloh","lat":4.9892364,"lon":115.0229602,"type":"village"},{"id":"5934885118","name":"Mentiri","lat":4.970546,"lon":115.0207821,"type":"village"},{"id":"5934944510","name":"Pangkalan Sibabau","lat":4.955582,"lon":115.0243065,"type":"village"},{"id":"5934975887","name":"Salar","lat":5.0026107,"lon":115.0267956,"type":"village"},{"id":"5934990638","name":"Kapok","lat":5.0226402,"lon":115.0457061,"type":"village"},{"id":"5935000700","name":"Sabun","lat":5.0298757,"lon":115.0591386,"type":"village"},{"id":"5935020931","name":"Serasa","lat":5.0138106,"lon":115.0585533,"type":"village"},{"id":"5936197366","name":"Menunggol","lat":4.8636895,"lon":114.9780551,"type":"village"},{"id":"5936208370","name":"Pudak","lat":4.8982821,"lon":115.0024203,"type":"village"},{"id":"5936265799","name":"Tungku","lat":4.9240489,"lon":114.8878631,"type":"village"},{"id":"5936265800","name":"Rimba","lat":4.9293935,"lon":114.9058017,"type":"village"},{"id":"5938154825","name":"Kampong Panchor Papan","lat":4.8131034,"lon":114.6741152,"type":"village"},{"id":"5938847390","name":"Kampong Telamba","lat":4.7298878,"lon":114.5671915,"type":"village"},{"id":"5940019095","name":"Tutong","lat":4.806672,"lon":114.6594998,"type":"town"},{"id":"5940045594","name":"Kampong Tunggulian","lat":4.6912024,"lon":114.5126803,"type":"village"},{"id":"5940215095","name":"Kampong Sungai Bera","lat":4.6137981,"lon":114.359316,"type":"village"},{"id":"5940241037","name":"Panaga","lat":4.6008933,"lon":114.2859831,"type":"village"},{"id":"5940599927","name":"Kampong Sungai Teraban","lat":4.5856296,"lon":114.1815815,"type":"village"},{"id":"5941750700","name":"Kampong Bukit Beruang","lat":4.7350489,"lon":114.6065097,"type":"village"},{"id":"5941863485","name":"Kampong Lubok Pulau","lat":4.7639921,"lon":114.6636085,"type":"village"},{"id":"5941898746","name":"Kampong Tanjong Maya","lat":4.7492791,"lon":114.6649269,"type":"village"},{"id":"5941925968","name":"Kampong Penapar","lat":4.7188624,"lon":114.6685747,"type":"village"},{"id":"5941933134","name":"Kampong Bukit Udal","lat":4.7307737,"lon":114.6505717,"type":"village"},{"id":"5942044807","name":"Kampong Birau","lat":4.7838271,"lon":114.7572124,"type":"village"},{"id":"5942106790","name":"Kampong Batang Mitus","lat":4.7544917,"lon":114.7598839,"type":"village"},{"id":"5942268402","name":"Kampong Kuala Abang","lat":4.6967038,"lon":114.6781836,"type":"village"},{"id":"5942305850","name":"Kampong Lamunin","lat":4.6815983,"lon":114.7153991,"type":"village"},{"id":"5942377326","name":"Kampong Panchong","lat":4.6410451,"lon":114.6777977,"type":"village"},{"id":"11800438951","name":"Piasau-Piasau","lat":4.7853379,"lon":115.1965927,"type":"village"},{"id":"13835046244","name":"Puni","lat":4.6969913,"lon":115.0467628,"type":"village"}]