[{"id":"198437954","name":"Bermejo","lat":-22.7327163,"lon":-64.3427757,"type":"city"},{"id":"214184496","name":"Guailla","lat":-17.983333,"lon":-68.233333,"type":"village"},{"id":"276957417","name":"Villazón","lat":-22.090727,"lon":-65.5956943,"type":"city"},{"id":"277381654","name":"Potosí","lat":-19.5892896,"lon":-65.7534713,"type":"city"},{"id":"288685745","name":"Puerto Acosta","lat":-15.5328927,"lon":-69.2523531,"type":"village"},{"id":"313764484","name":"Sucre","lat":-19.0477251,"lon":-65.2594306,"type":"city"},{"id":"313795146","name":"Puerto Suárez","lat":-18.9631791,"lon":-57.7974552,"type":"city"},{"id":"313799118","name":"El Carmen Rivero Tórrez","lat":-18.8273646,"lon":-58.6242576,"type":"town"},{"id":"313799826","name":"Puerto Quijarro","lat":-19.0044088,"lon":-57.7157091,"type":"city"},{"id":"313811401","name":"Cochabamba","lat":-17.3936114,"lon":-66.1568983,"type":"city"},{"id":"319509344","name":"Villa Montes","lat":-21.2589001,"lon":-63.4722606,"type":"city"},{"id":"319514554","name":"Entre Ríos","lat":-21.5258437,"lon":-64.1720189,"type":"village"},{"id":"319515454","name":"Palos Blancos","lat":-21.4162981,"lon":-63.7848633,"type":"village"},{"id":"319531592","name":"Padcaya","lat":-21.8871451,"lon":-64.7127693,"type":"village"},{"id":"319535262","name":"Iscayachi","lat":-21.486408,"lon":-64.9699808,"type":"village"},{"id":"319549648","name":"Santiago de Cotagaita","lat":-20.8177718,"lon":-65.6586736,"type":"village"},{"id":"319550086","name":"Tupiza","lat":-21.4437717,"lon":-65.7208365,"type":"city"},{"id":"319552203","name":"Tumusla","lat":-20.4902343,"lon":-65.6193225,"type":"village"},{"id":"319553112","name":"Vitichi","lat":-20.2070239,"lon":-65.4939585,"type":"village"},{"id":"319581607","name":"Pulacayo","lat":-20.3885517,"lon":-66.6983008,"type":"village"},{"id":"319719185","name":"Tarabuco","lat":-19.1823985,"lon":-64.9149885,"type":"village"},{"id":"319723728","name":"Zudáñez","lat":-19.1194364,"lon":-64.6996662,"type":"village"},{"id":"319729411","name":"Ipita","lat":-19.354535,"lon":-63.5054734,"type":"village"},{"id":"319738849","name":"Samaipata","lat":-18.1796658,"lon":-63.8759138,"type":"town"},{"id":"319761585","name":"Quillacollo","lat":-17.3976617,"lon":-66.2814763,"type":"city"},{"id":"319780564","name":"Oruro","lat":-17.9698363,"lon":-67.1148341,"type":"city"},{"id":"319783539","name":"Poopo","lat":-18.3800093,"lon":-66.9658868,"type":"village"},{"id":"344619252","name":"Colchani","lat":-20.3006101,"lon":-66.9378189,"type":"village"},{"id":"353253064","name":"Quime","lat":-16.9799847,"lon":-67.2157204,"type":"village"},{"id":"353257420","name":"Yanapaca","lat":-16.8647447,"lon":-67.5481822,"type":"village"},{"id":"353257722","name":"Viloco","lat":-16.8740288,"lon":-67.4999657,"type":"village"},{"id":"354524387","name":"Quetena Chico","lat":-22.1927017,"lon":-67.3403487,"type":"village"},{"id":"412332419","name":"Viacha","lat":-16.6532619,"lon":-68.301516,"type":"city"},{"id":"413159461","name":"Yucumo","lat":-15.1468012,"lon":-67.0337518,"type":"village"},{"id":"413169623","name":"Rurrenabaque","lat":-14.443664,"lon":-67.5312662,"type":"town"},{"id":"413185906","name":"Riberalta","lat":-10.997342,"lon":-66.0751504,"type":"city"},{"id":"413294762","name":"Ancoraimes","lat":-15.897539,"lon":-68.9056455,"type":"village"},{"id":"415162589","name":"Sacaba","lat":-17.403834,"lon":-66.0402928,"type":"city"},{"id":"415163462","name":"Santa Cruz de la Sierra","lat":-17.7834217,"lon":-63.1820853,"type":"city"},{"id":"415165546","name":"Montero","lat":-17.3420202,"lon":-63.2557687,"type":"city"},{"id":"415165872","name":"Trinidad","lat":-14.8349438,"lon":-64.9044936,"type":"city"},{"id":"415166392","name":"Cobija","lat":-11.0184614,"lon":-68.7538149,"type":"city"},{"id":"415166396","name":"Guayaramerín","lat":-10.818915,"lon":-65.3550455,"type":"city"},{"id":"415166559","name":"Camiri","lat":-20.0390682,"lon":-63.5203507,"type":"city"},{"id":"415167227","name":"San Borja","lat":-14.8582125,"lon":-66.7474736,"type":"city"},{"id":"415167492","name":"San Ignacio de Moxos","lat":-14.9961581,"lon":-65.641067,"type":"town"},{"id":"417109570","name":"Caranavi","lat":-15.8339756,"lon":-67.5659334,"type":"city"},{"id":"494323205","name":"Limoncito","lat":-18.0274737,"lon":-63.4031733,"type":"village"},{"id":"494327421","name":"Mineros","lat":-17.1175579,"lon":-63.2332727,"type":"city"},{"id":"494747610","name":"San Pedro","lat":-14.3362654,"lon":-64.9021133,"type":"village"},{"id":"494779192","name":"San Joaquín","lat":-13.0403174,"lon":-64.6680007,"type":"village"},{"id":"494856597","name":"Warnes","lat":-17.5100818,"lon":-63.1647184,"type":"city"},{"id":"494875989","name":"Hardeman","lat":-16.6747012,"lon":-63.6171415,"type":"village"},{"id":"494908239","name":"Yapacaní","lat":-17.4022838,"lon":-63.8812325,"type":"city"},{"id":"495027200","name":"Ascensión de Guarayos","lat":-15.8966537,"lon":-63.1876907,"type":"city"},{"id":"495944629","name":"Ivirgarzama","lat":-17.0337524,"lon":-64.8575169,"type":"town"},{"id":"495946027","name":"Portachuelo","lat":-17.3545949,"lon":-63.3946477,"type":"city"},{"id":"497265814","name":"San Juan de Yapacaní","lat":-17.2915516,"lon":-63.8470843,"type":"town"},{"id":"497509652","name":"Palmar Chico","lat":-21.8785396,"lon":-63.6149348,"type":"village"},{"id":"497653929","name":"Independencia","lat":-17.084149,"lon":-66.8194461,"type":"village"},{"id":"498432352","name":"Puerto Rico","lat":-11.1049143,"lon":-67.556766,"type":"village"},{"id":"498708476","name":"Porvenir","lat":-11.2378535,"lon":-68.6872389,"type":"village"},{"id":"498881811","name":"Abapó","lat":-18.9058852,"lon":-63.3993393,"type":"village"},{"id":"499155761","name":"Pailón","lat":-17.6596808,"lon":-62.7197122,"type":"city"},{"id":"503887813","name":"Carhuani","lat":-16.8641736,"lon":-66.903614,"type":"village"},{"id":"538092509","name":"Chaunaca","lat":-18.9906455,"lon":-65.4385979,"type":"village"},{"id":"538092510","name":"Potolo","lat":-19.0157021,"lon":-65.5343736,"type":"village"},{"id":"568203308","name":"El Alto","lat":-16.5048228,"lon":-68.1624337,"type":"city"},{"id":"570042613","name":"Tiawanacu","lat":-16.5531233,"lon":-68.681603,"type":"village"},{"id":"588354428","name":"Alota","lat":-21.4039314,"lon":-67.5965194,"type":"village"},{"id":"588354784","name":"Villa Mar","lat":-21.7550993,"lon":-67.4815079,"type":"village"},{"id":"588363860","name":"Carmen de Ruiz","lat":-16.0486348,"lon":-61.100149,"type":"village"},{"id":"597659377","name":"Choreti","lat":-20.010643,"lon":-63.5246194,"type":"village"},{"id":"598366146","name":"Machareti","lat":-20.8155026,"lon":-63.3611096,"type":"village"},{"id":"598366911","name":"Tiguipa","lat":-21.0014978,"lon":-63.3309142,"type":"village"},{"id":"600896375","name":"Gutierrez","lat":-19.4227691,"lon":-63.529696,"type":"village"},{"id":"602926380","name":"Huarina","lat":-16.190705,"lon":-68.6010077,"type":"village"},{"id":"609061195","name":"Urundaiti","lat":-19.9626127,"lon":-63.5262185,"type":"village"},{"id":"612503356","name":"Tartagalito","lat":-20.3927046,"lon":-63.4564634,"type":"village"},{"id":"612513613","name":"Cuevo","lat":-20.4545939,"lon":-63.5187489,"type":"village"},{"id":"616614865","name":"Kami","lat":-17.3838675,"lon":-66.8146611,"type":"village"},{"id":"616629345","name":"Calchani","lat":-17.3243635,"lon":-66.6899371,"type":"village"},{"id":"617159933","name":"Morochata","lat":-17.2344553,"lon":-66.5321067,"type":"village"},{"id":"617177768","name":"Yayani Alto","lat":-17.21137,"lon":-66.6565019,"type":"village"},{"id":"617177771","name":"Chinchiri","lat":-17.1841602,"lon":-66.6097654,"type":"village"},{"id":"617185769","name":"Tiquirpaya","lat":-17.1155051,"lon":-66.7301826,"type":"village"},{"id":"617185771","name":"Icari","lat":-17.0207046,"lon":-66.3430975,"type":"village"},{"id":"617897670","name":"Ivamirapinta","lat":-19.8060783,"lon":-63.4823403,"type":"village"},{"id":"632913085","name":"Boyuibe","lat":-20.4318294,"lon":-63.2815357,"type":"village"},{"id":"633031346","name":"Tigüipa Pueblo","lat":-20.9151584,"lon":-63.3824392,"type":"village"},{"id":"660855108","name":"Llica","lat":-19.8505095,"lon":-68.2498122,"type":"village"},{"id":"695661633","name":"Cotoca","lat":-17.7545038,"lon":-62.9962235,"type":"city"},{"id":"783766927","name":"Lava Lava Alta","lat":-17.4344824,"lon":-65.9876633,"type":"village"},{"id":"783868852","name":"Larati","lat":-17.3442383,"lon":-66.0119337,"type":"village"},{"id":"789501046","name":"Machaca","lat":-17.1217423,"lon":-66.8687307,"type":"village"},{"id":"792641816","name":"Colcapirhua","lat":-17.3885131,"lon":-66.2407833,"type":"city"},{"id":"794364281","name":"El Torno","lat":-17.9918059,"lon":-63.3826134,"type":"town"},{"id":"794376713","name":"Vinto","lat":-17.3967933,"lon":-66.3135814,"type":"city"},{"id":"794377784","name":"Llallagua","lat":-18.4227385,"lon":-66.5851833,"type":"city"},{"id":"794378368","name":"Uncía","lat":-18.4665145,"lon":-66.5681946,"type":"town"},{"id":"794381207","name":"Punata","lat":-17.5452092,"lon":-65.8364548,"type":"city"},{"id":"794383256","name":"Huanuni","lat":-18.2857835,"lon":-66.8346828,"type":"city"},{"id":"794504245","name":"Santa Ana del Yacuma","lat":-13.7454829,"lon":-65.4279305,"type":"city"},{"id":"794507239","name":"La Guardia","lat":-17.8919353,"lon":-63.3310809,"type":"city"},{"id":"795493512","name":"Challapata","lat":-18.9021565,"lon":-66.7750462,"type":"city"},{"id":"795493520","name":"Monteagudo","lat":-19.8028386,"lon":-63.9551052,"type":"town"},{"id":"795493530","name":"Roboré","lat":-18.3306352,"lon":-59.7561842,"type":"city"},{"id":"795493542","name":"San José de Chiquitos","lat":-17.8454524,"lon":-60.7422053,"type":"town"},{"id":"795493553","name":"Betanzos","lat":-19.5533342,"lon":-65.4537101,"type":"town"},{"id":"795493560","name":"San Julián","lat":-16.910497,"lon":-62.6153727,"type":"city"},{"id":"795493574","name":"Chimoré","lat":-16.9939202,"lon":-65.1504578,"type":"town"},{"id":"795493578","name":"Cliza","lat":-17.5918058,"lon":-65.9341813,"type":"city"},{"id":"795493582","name":"San Matías","lat":-16.3598435,"lon":-58.4001944,"type":"town"},{"id":"795493591","name":"Concepción","lat":-16.1349051,"lon":-62.0239275,"type":"town"},{"id":"795493601","name":"Aiquile","lat":-18.2002218,"lon":-65.1806293,"type":"town"},{"id":"795493608","name":"San Javier","lat":-16.2739191,"lon":-62.5044287,"type":"town"},{"id":"795493613","name":"Uyuni","lat":-20.4628406,"lon":-66.8239072,"type":"city"},{"id":"795493652","name":"San Ramón","lat":-16.6151671,"lon":-62.500201,"type":"town"},{"id":"795493658","name":"Fernández Alonso","lat":-17.0097948,"lon":-63.23234,"type":"town"},{"id":"795493662","name":"Santos Reyes","lat":-14.2952193,"lon":-67.335855,"type":"town"},{"id":"795493670","name":"Siglo XX","lat":-18.4213937,"lon":-66.5894836,"type":"town"},{"id":"795493675","name":"Achacachi","lat":-16.0438951,"lon":-68.6849563,"type":"town"},{"id":"795493682","name":"Patacamaya","lat":-17.2326745,"lon":-67.9202528,"type":"city"},{"id":"795493689","name":"Cuatro Cañadas","lat":-17.2663127,"lon":-62.5571442,"type":"town"},{"id":"795493695","name":"Vallegrande","lat":-18.4894001,"lon":-64.1081091,"type":"town"},{"id":"795601542","name":"Irincollo","lat":-17.3541238,"lon":-66.2852556,"type":"village"},{"id":"795601545","name":"Camargo","lat":-20.6412954,"lon":-65.2088538,"type":"town"},{"id":"795601546","name":"Caranda","lat":-17.5222879,"lon":-63.5352771,"type":"village"},{"id":"795601547","name":"Okinawa","lat":-17.2187172,"lon":-62.8946437,"type":"town"},{"id":"795601548","name":"La Bélgica","lat":-17.5650284,"lon":-63.2251773,"type":"village"},{"id":"795628868","name":"Shinahota","lat":-16.9962125,"lon":-65.2454909,"type":"town"},{"id":"795628874","name":"Capinota","lat":-17.7146234,"lon":-66.2628331,"type":"town"},{"id":"795648133","name":"Comarapa","lat":-17.9136428,"lon":-64.5295941,"type":"town"},{"id":"795648137","name":"San Miguel de Velasco","lat":-16.6979999,"lon":-60.9680716,"type":"village"},{"id":"795655638","name":"San Ramon","lat":-13.2668996,"lon":-64.617291,"type":"village"},{"id":"795662927","name":"Copacabana","lat":-16.1657276,"lon":-69.0854397,"type":"town"},{"id":"795663048","name":"Entre Ríos","lat":-17.1969527,"lon":-64.5353901,"type":"town"},{"id":"795663053","name":"Caracollo","lat":-17.6491026,"lon":-67.20853,"type":"town"},{"id":"795663054","name":"Santa Rosa de Yacuma","lat":-14.079683,"lon":-66.7924102,"type":"village"},{"id":"795663056","name":"Santa Rosa del Sara","lat":-17.1096766,"lon":-63.5990338,"type":"town"},{"id":"795668307","name":"Arroyo Concepción","lat":-19.0229175,"lon":-57.7096304,"type":"town"},{"id":"795673005","name":"Illataco","lat":-17.3686653,"lon":-66.2999088,"type":"village"},{"id":"795673006","name":"Sipe Sipe","lat":-17.4535441,"lon":-66.3575415,"type":"city"},{"id":"795675611","name":"Colomi","lat":-17.3383022,"lon":-65.8683123,"type":"town"},{"id":"795675614","name":"Tarata","lat":-17.6113527,"lon":-66.0233585,"type":"town"},{"id":"795675617","name":"Arani","lat":-17.5730798,"lon":-65.7681368,"type":"village"},{"id":"795675619","name":"El Paso","lat":-17.3381339,"lon":-66.2655476,"type":"town"},{"id":"796495043","name":"Villa Tunari","lat":-16.9728088,"lon":-65.4201829,"type":"village"},{"id":"796495047","name":"Parotani","lat":-17.5682404,"lon":-66.345914,"type":"village"},{"id":"796495049","name":"Chulla","lat":-17.3921188,"lon":-66.3085679,"type":"village"},{"id":"796495058","name":"Ucureña","lat":-17.578907,"lon":-65.9088851,"type":"village"},{"id":"796495067","name":"San Benito","lat":-17.5227602,"lon":-65.8945153,"type":"village"},{"id":"796495074","name":"Villa Montenegro","lat":-17.4537663,"lon":-66.33961,"type":"village"},{"id":"796495080","name":"Tolata","lat":-17.5342193,"lon":-65.9631376,"type":"village"},{"id":"796495098","name":"Mizque","lat":-17.9424499,"lon":-65.3418174,"type":"village"},{"id":"796495114","name":"Tiraque","lat":-17.4267884,"lon":-65.7229192,"type":"village"},{"id":"796495116","name":"Irpa Irpa","lat":-17.7217459,"lon":-66.2862297,"type":"village"},{"id":"796498692","name":"Puerto Villarroel","lat":-16.8390294,"lon":-64.7928503,"type":"village"},{"id":"796498693","name":"Pandoja","lat":-17.3642619,"lon":-66.2684841,"type":"town"},{"id":"796498694","name":"Catachilla Baja","lat":-17.4082808,"lon":-65.9910978,"type":"village"},{"id":"796506899","name":"Totora","lat":-17.7355219,"lon":-65.1913604,"type":"village"},{"id":"796510848","name":"Suticollo","lat":-17.4652945,"lon":-66.3356803,"type":"village"},{"id":"796747544","name":"Santiago de Huari","lat":-19.0130122,"lon":-66.7773075,"type":"village"},{"id":"796747727","name":"Eucaliptus","lat":-17.5959156,"lon":-67.5092003,"type":"village"},{"id":"796757801","name":"La Joya","lat":-17.7749228,"lon":-67.4976415,"type":"village"},{"id":"796757846","name":"Chuquiña","lat":-17.8031069,"lon":-67.4688884,"type":"village"},{"id":"796764790","name":"Chayanta","lat":-18.4603006,"lon":-66.4437449,"type":"village"},{"id":"796764799","name":"Catavi","lat":-18.4121953,"lon":-66.5659274,"type":"village"},{"id":"796764804","name":"Santa Barbara","lat":-20.9235844,"lon":-66.0504257,"type":"village"},{"id":"796768624","name":"Porco","lat":-19.7993313,"lon":-65.9877907,"type":"town"},{"id":"796779567","name":"Pampa Aullagas","lat":-19.1962117,"lon":-67.0617615,"type":"village"},{"id":"796915767","name":"Taraco","lat":-16.4567794,"lon":-68.8586357,"type":"village"},{"id":"797097615","name":"Apolo","lat":-14.7153938,"lon":-68.4176615,"type":"town"},{"id":"813389444","name":"Moya Pampa","lat":-17.7146968,"lon":-65.2076585,"type":"village"},{"id":"817321982","name":"Coluyo Grande","lat":-17.6845268,"lon":-65.2138172,"type":"village"},{"id":"817321985","name":"Lope Mendoza","lat":-17.5322908,"lon":-65.3767615,"type":"village"},{"id":"830982989","name":"El Sena","lat":-11.4858684,"lon":-67.2476084,"type":"village"},{"id":"836796539","name":"Aguirre","lat":-17.3721279,"lon":-65.8297524,"type":"village"},{"id":"846160544","name":"Yumani","lat":-16.0352596,"lon":-69.1490164,"type":"village"},{"id":"846160820","name":"Challapampa","lat":-15.9971738,"lon":-69.1829477,"type":"village"},{"id":"851426731","name":"Epizana","lat":-17.6359354,"lon":-65.2124113,"type":"village"},{"id":"851427053","name":"Chaupiloma Baja","lat":-17.6167315,"lon":-65.1577728,"type":"village"},{"id":"851427538","name":"Rodeo Chico","lat":-17.6514019,"lon":-65.1806125,"type":"village"},{"id":"851492471","name":"Monte Punco","lat":-17.6668754,"lon":-65.1116192,"type":"village"},{"id":"851492620","name":"Rodeo Grande","lat":-17.6606718,"lon":-65.1305386,"type":"village"},{"id":"876543172","name":"Cuevas","lat":-18.1941557,"lon":-63.7389967,"type":"village"},{"id":"877447542","name":"Cañada Hornillos","lat":-17.6853654,"lon":-65.1405601,"type":"village"},{"id":"879554290","name":"Río Grande","lat":-20.8217305,"lon":-67.2981857,"type":"village"},{"id":"891037617","name":"Valle Sacta","lat":-17.1189727,"lon":-64.7703036,"type":"village"},{"id":"906716167","name":"Ixiamas","lat":-13.7676196,"lon":-68.1258503,"type":"village"},{"id":"937888399","name":"Puerto Morales","lat":-10.9896121,"lon":-67.4197803,"type":"village"},{"id":"938895866","name":"San Buenaventura","lat":-14.4387342,"lon":-67.53647,"type":"village"},{"id":"938901071","name":"Urubicha","lat":-15.6282387,"lon":-63.0841318,"type":"village"},{"id":"938901370","name":"Yaguaru","lat":-15.6002557,"lon":-63.2258816,"type":"village"},{"id":"938904177","name":"Nueva Esperanza","lat":-16.2233798,"lon":-64.9143153,"type":"village"},{"id":"938904181","name":"El Carmen","lat":-16.169179,"lon":-64.9051326,"type":"village"},{"id":"938904189","name":"Trinidadcito","lat":-16.4499805,"lon":-64.9397151,"type":"village"},{"id":"938904190","name":"La Mision","lat":-16.7136363,"lon":-65.1487426,"type":"village"},{"id":"940912916","name":"Sacabambilla Bajo","lat":-17.4795122,"lon":-65.764612,"type":"village"},{"id":"940913151","name":"Koari","lat":-17.480218,"lon":-65.5790664,"type":"village"},{"id":"940913602","name":"Rinconada","lat":-16.8608147,"lon":-66.6701313,"type":"village"},{"id":"940914200","name":"Vera Cruz","lat":-16.8084378,"lon":-66.737406,"type":"village"},{"id":"940914371","name":"Kañacota","lat":-17.4776709,"lon":-65.6338774,"type":"village"},{"id":"940914490","name":"Yotau","lat":-16.1765537,"lon":-63.0225286,"type":"village"},{"id":"942904937","name":"Calamuchita","lat":-21.6995139,"lon":-64.6214575,"type":"village"},{"id":"945152662","name":"San Cristobal","lat":-14.1288218,"lon":-66.9136364,"type":"village"},{"id":"945193969","name":"Orobayaya","lat":-13.234896,"lon":-63.7887659,"type":"village"},{"id":"945194286","name":"Camiaco","lat":-15.3332025,"lon":-64.8666572,"type":"village"},{"id":"945195188","name":"Bella Vista","lat":-13.2741388,"lon":-63.705423,"type":"village"},{"id":"945259985","name":"Rancho Grande","lat":-18.2791625,"lon":-67.1234882,"type":"village"},{"id":"946395995","name":"Monterrey","lat":-10.7465318,"lon":-67.4811206,"type":"village"},{"id":"1055916492","name":"Villa Busch","lat":-11.0850977,"lon":-68.7811372,"type":"village"},{"id":"1075611895","name":"Culpina K","lat":-21.2586014,"lon":-67.2226683,"type":"village"},{"id":"1075611899","name":"Vila Vila","lat":-21.0740002,"lon":-67.0964826,"type":"village"},{"id":"1075646717","name":"Pelca","lat":-20.0448586,"lon":-66.1680799,"type":"village"},{"id":"1075689662","name":"Alegria","lat":-18.9875752,"lon":-65.2746101,"type":"village"},{"id":"1119450818","name":"Apillapampa","lat":-17.859613,"lon":-66.2566636,"type":"village"},{"id":"1120079140","name":"Sarcobamba","lat":-17.7428641,"lon":-66.2852638,"type":"village"},{"id":"1120442649","name":"Alto Yatamoco","lat":-17.7382092,"lon":-66.2605895,"type":"village"},{"id":"1120442664","name":"Ucuchi","lat":-17.6348805,"lon":-66.2649889,"type":"village"},{"id":"1120442666","name":"Charamoco","lat":-17.6136066,"lon":-66.2909996,"type":"village"},{"id":"1120442667","name":"Yatamoco","lat":-17.732776,"lon":-66.2700534,"type":"village"},{"id":"1120442676","name":"Buen Retiro","lat":-17.694211,"lon":-66.2636488,"type":"village"},{"id":"1121513111","name":"Hornoma","lat":-17.8862843,"lon":-66.2018541,"type":"village"},{"id":"1121710262","name":"Villcabamba","lat":-17.8693682,"lon":-66.1909979,"type":"village"},{"id":"1124793329","name":"Itapaya","lat":-17.5833267,"lon":-66.3198831,"type":"village"},{"id":"1126874067","name":"Santiváñez","lat":-17.5502553,"lon":-66.2483899,"type":"village"},{"id":"1126874269","name":"Tajra","lat":-17.5788529,"lon":-66.3322693,"type":"village"},{"id":"1128689178","name":"Arampampa","lat":-17.8767544,"lon":-66.081778,"type":"village"},{"id":"1129657890","name":"Buena Vista","lat":-17.4601261,"lon":-63.6606221,"type":"village"},{"id":"1261522027","name":"San Rafael de Velasco","lat":-16.7868211,"lon":-60.6750906,"type":"village"},{"id":"1261932596","name":"Santa Rosa de Roca","lat":-15.913205,"lon":-61.4397021,"type":"village"},{"id":"1328282084","name":"Huanca Pampa","lat":-16.5481134,"lon":-67.9529272,"type":"village"},{"id":"1328834807","name":"Mecapaca","lat":-16.6679516,"lon":-68.0179385,"type":"village"},{"id":"1332011633","name":"Choquecota","lat":-16.5207146,"lon":-67.9261903,"type":"village"},{"id":"1333252548","name":"Santiago de Collana","lat":-16.668816,"lon":-67.9663579,"type":"village"},{"id":"1335372959","name":"Palca","lat":-16.5611164,"lon":-67.9530221,"type":"village"},{"id":"1335374904","name":"Lacayani","lat":-16.6332485,"lon":-67.9216025,"type":"village"},{"id":"1335374906","name":"Calchani","lat":-16.6024364,"lon":-67.9267972,"type":"village"},{"id":"1345531391","name":"Millocato","lat":-16.7326138,"lon":-67.9117964,"type":"village"},{"id":"1345532298","name":"Huaricana Bajo","lat":-16.7319024,"lon":-67.9535911,"type":"village"},{"id":"1345533786","name":"Huaricana Alta","lat":-16.7281966,"lon":-67.9619704,"type":"village"},{"id":"1348152214","name":"Pacuani","lat":-16.5669146,"lon":-67.8918506,"type":"village"},{"id":"1368677128","name":"Coro Coro","lat":-17.1769763,"lon":-68.4537291,"type":"village"},{"id":"1370326594","name":"Chulumani","lat":-16.4099097,"lon":-67.5256308,"type":"village"},{"id":"1370389522","name":"Irupana","lat":-16.4660434,"lon":-67.4548847,"type":"village"},{"id":"1371250969","name":"Pasto Pata","lat":-16.3669614,"lon":-67.46646,"type":"village"},{"id":"1371887170","name":"Circuata","lat":-16.6447581,"lon":-67.2312708,"type":"village"},{"id":"1378520967","name":"Quillihuaya","lat":-16.6658877,"lon":-67.9014092,"type":"village"},{"id":"1378523686","name":"Tahuapalca","lat":-16.718015,"lon":-67.8751904,"type":"village"},{"id":"1379601604","name":"Licoma","lat":-16.8045982,"lon":-67.2028194,"type":"village"},{"id":"1379812812","name":"Cajuata","lat":-16.7010068,"lon":-67.1692087,"type":"village"},{"id":"1379826856","name":"Suri","lat":-16.7475648,"lon":-67.1914595,"type":"village"},{"id":"1379865223","name":"Inquisivi","lat":-16.9072146,"lon":-67.137845,"type":"village"},{"id":"1379926083","name":"Campamento Minero La Chojlla","lat":-16.4066021,"lon":-67.7756787,"type":"village"},{"id":"1379957807","name":"La Asunta","lat":-16.1264231,"lon":-67.1957888,"type":"village"},{"id":"1380035749","name":"Luribay","lat":-17.0626746,"lon":-67.660811,"type":"village"},{"id":"1390448911","name":"Yaco","lat":-17.1585354,"lon":-67.4112923,"type":"village"},{"id":"1390463812","name":"Malla","lat":-17.0393955,"lon":-67.4505959,"type":"village"},{"id":"1390466963","name":"Cairoma","lat":-16.904439,"lon":-67.5396757,"type":"village"},{"id":"1390468656","name":"Sapahaqui","lat":-16.8886905,"lon":-67.9496384,"type":"village"},{"id":"1390470043","name":"Khola Alta","lat":-16.8861028,"lon":-67.7115149,"type":"village"},{"id":"1390474005","name":"Villa Pucarani","lat":-16.9312697,"lon":-67.5612539,"type":"village"},{"id":"1391987163","name":"Comanche","lat":-16.9563785,"lon":-68.4270673,"type":"village"},{"id":"1391987676","name":"Caxata","lat":-17.1462301,"lon":-67.34442,"type":"village"},{"id":"1412549574","name":"Palos Blancos","lat":-15.5864887,"lon":-67.2502218,"type":"town"},{"id":"1413101187","name":"Umala","lat":-17.3732926,"lon":-68.0207849,"type":"village"},{"id":"1413104237","name":"Sica Sica","lat":-17.3329148,"lon":-67.7389238,"type":"village"},{"id":"1414374019","name":"Capunata","lat":-17.249347,"lon":-68.0317765,"type":"village"},{"id":"1414581338","name":"Llanga Belen","lat":-17.3474277,"lon":-67.9063114,"type":"village"},{"id":"1414585066","name":"Colchani","lat":-17.2394128,"lon":-67.8559956,"type":"village"},{"id":"1414592745","name":"Pusucani","lat":-17.4299984,"lon":-67.9582032,"type":"village"},{"id":"1414592794","name":"San Jose de Llanga","lat":-17.3905585,"lon":-67.932949,"type":"village"},{"id":"1414639721","name":"Lahuachaca","lat":-17.3764769,"lon":-67.6746016,"type":"town"},{"id":"1414639757","name":"Belen","lat":-17.4003198,"lon":-67.5708518,"type":"village"},{"id":"1414658545","name":"Challoma Grande","lat":-17.1742499,"lon":-67.4840195,"type":"village"},{"id":"1414661305","name":"Pampajasi","lat":-17.2503908,"lon":-67.4390571,"type":"village"},{"id":"1414661306","name":"Achaya","lat":-17.2363554,"lon":-67.4674358,"type":"village"},{"id":"1415048463","name":"Chuacollo Grande","lat":-17.2114202,"lon":-67.6734017,"type":"village"},{"id":"1415070847","name":"Chairumani","lat":-17.1813799,"lon":-67.8752658,"type":"village"},{"id":"1415072754","name":"Muruhuta","lat":-17.1222981,"lon":-67.8469238,"type":"village"},{"id":"1415078392","name":"Chacoma","lat":-17.2002711,"lon":-67.8779147,"type":"village"},{"id":"1415196610","name":"San Juan de Sirca","lat":-17.3335822,"lon":-67.9598131,"type":"village"},{"id":"1415196616","name":"Carachuyo","lat":-17.3418585,"lon":-67.9386227,"type":"village"},{"id":"1415766956","name":"Nazacara de Pacajes","lat":-16.9381272,"lon":-68.7643015,"type":"village"},{"id":"1415958758","name":"Tumarapi","lat":-17.085114,"lon":-68.1882848,"type":"village"},{"id":"1415961111","name":"Caquiaviri","lat":-17.0232683,"lon":-68.6059237,"type":"village"},{"id":"1415979098","name":"Corpa","lat":-16.6793867,"lon":-68.865949,"type":"village"},{"id":"1416099210","name":"Ayo Ayo","lat":-17.0910156,"lon":-68.0026183,"type":"village"},{"id":"1416480811","name":"Milli Milli Alto","lat":-16.9955675,"lon":-67.8963775,"type":"village"},{"id":"1416485603","name":"Tolar","lat":-17.0071943,"lon":-68.0637825,"type":"village"},{"id":"1417411767","name":"Villa Anta","lat":-16.905868,"lon":-68.7106729,"type":"village"},{"id":"1417436044","name":"Santo Domingo de Machaca","lat":-16.8468629,"lon":-68.6387143,"type":"village"},{"id":"1420819457","name":"Atocha","lat":-20.9333477,"lon":-66.2215123,"type":"village"},{"id":"1430963838","name":"Guanay","lat":-15.4977479,"lon":-67.8797554,"type":"village"},{"id":"1430967854","name":"La Aguada","lat":-15.4913764,"lon":-67.9293422,"type":"village"},{"id":"1440116646","name":"Millipaya","lat":-15.8726191,"lon":-68.618721,"type":"village"},{"id":"1440117668","name":"Cooco","lat":-15.7879045,"lon":-68.4502137,"type":"village"},{"id":"1440119917","name":"Chajolpaya","lat":-15.8302552,"lon":-68.3803826,"type":"village"},{"id":"1440173354","name":"Chaguaya","lat":-21.8678956,"lon":-64.8227256,"type":"village"},{"id":"1440241254","name":"Cuchu Ingenio","lat":-19.8782454,"lon":-65.6866608,"type":"village"},{"id":"1446653194","name":"Bolívar","lat":-17.9681383,"lon":-66.538445,"type":"village"},{"id":"1447706298","name":"Uriondo","lat":-21.6954941,"lon":-64.6529147,"type":"village"},{"id":"1447715362","name":"Sella Cercado","lat":-21.3986836,"lon":-64.702508,"type":"village"},{"id":"1447715368","name":"Sella Mendez","lat":-21.3883583,"lon":-64.6966923,"type":"village"},{"id":"1447715374","name":"San Lorenzo","lat":-21.4177939,"lon":-64.7494286,"type":"village"},{"id":"1447942319","name":"Sorata","lat":-15.7728143,"lon":-68.6499285,"type":"village"},{"id":"1448624943","name":"Suipacha","lat":-21.5729186,"lon":-65.6059835,"type":"village"},{"id":"1448625096","name":"Chuquiago","lat":-21.5690682,"lon":-65.6380809,"type":"village"},{"id":"1448640613","name":"Huaranca","lat":-16.8038569,"lon":-67.9309183,"type":"village"},{"id":"1448640614","name":"Comunidad Tumusa","lat":-16.8125437,"lon":-67.9645436,"type":"village"},{"id":"1448640615","name":"Chanca","lat":-16.7642893,"lon":-67.9807291,"type":"village"},{"id":"1448645843","name":"Janko Suni","lat":-16.7953456,"lon":-67.8707005,"type":"village"},{"id":"1448648243","name":"Cohoni","lat":-16.7114942,"lon":-67.8381862,"type":"village"},{"id":"1449508342","name":"Sajama","lat":-18.1358664,"lon":-68.976235,"type":"village"},{"id":"1453674933","name":"Tambo Quemado","lat":-18.2778925,"lon":-69.0020263,"type":"village"},{"id":"1453674939","name":"Lagunas","lat":-18.2242547,"lon":-68.9382087,"type":"village"},{"id":"1497243010","name":"Milla Milla","lat":-17.4957054,"lon":-67.5644811,"type":"village"},{"id":"1502707584","name":"Tuhuaco","lat":-16.5752075,"lon":-67.9272635,"type":"village"},{"id":"1502707588","name":"Uni","lat":-16.5428414,"lon":-67.9985673,"type":"village"},{"id":"1505539849","name":"Angostura","lat":-17.4598097,"lon":-67.6207208,"type":"village"},{"id":"1505539864","name":"Ayzacollo","lat":-17.4210815,"lon":-67.5243788,"type":"village"},{"id":"1505539893","name":"Cala Cala","lat":-17.4850181,"lon":-67.5147929,"type":"village"},{"id":"1505539921","name":"Taruca Marca","lat":-17.5282613,"lon":-67.5370251,"type":"village"},{"id":"1505539926","name":"Kolluhuma","lat":-17.4140277,"lon":-67.5504213,"type":"village"},{"id":"1505539931","name":"Llojlla Chico","lat":-17.4312817,"lon":-67.5994954,"type":"village"},{"id":"1505539956","name":"Machacamarca","lat":-17.4522217,"lon":-67.5972798,"type":"village"},{"id":"1505539963","name":"Panduro","lat":-17.4941361,"lon":-67.4439711,"type":"village"},{"id":"1505540352","name":"Quelcata","lat":-17.5605511,"lon":-67.4847014,"type":"village"},{"id":"1505540371","name":"Vilaque","lat":-17.450082,"lon":-67.4933692,"type":"village"},{"id":"1511274046","name":"San Jose Centro","lat":-17.7240065,"lon":-67.7541635,"type":"village"},{"id":"1511274050","name":"San Pedro de Curahuara","lat":-17.6539758,"lon":-68.0491828,"type":"village"},{"id":"1511290958","name":"Jankho Marca","lat":-17.668315,"lon":-67.8703475,"type":"village"},{"id":"1511291019","name":"Achaviri","lat":-17.6051516,"lon":-67.8974795,"type":"village"},{"id":"1511291023","name":"Villa Manquiri","lat":-17.5820752,"lon":-67.9168826,"type":"village"},{"id":"1511349740","name":"Jalsuri","lat":-17.735947,"lon":-67.8950851,"type":"village"},{"id":"1511349743","name":"Waldo Ballivián","lat":-17.5423856,"lon":-67.985914,"type":"village"},{"id":"1512563532","name":"Santiago de Huayllamarca","lat":-17.838231,"lon":-67.9428717,"type":"village"},{"id":"1512605845","name":"Chojnohuma","lat":-17.7556521,"lon":-67.9984763,"type":"village"},{"id":"1512685807","name":"San Pedro de Totora","lat":-17.7927191,"lon":-68.1455912,"type":"village"},{"id":"1513951909","name":"Lajma","lat":-17.8939574,"lon":-67.6717716,"type":"village"},{"id":"1515039288","name":"Queroma","lat":-17.1253324,"lon":-67.6889221,"type":"village"},{"id":"1515762558","name":"San Pedro de Quemes","lat":-20.7468618,"lon":-68.0497798,"type":"village"},{"id":"1517927380","name":"Entre Rios Tacuaral","lat":-17.0811099,"lon":-65.2091885,"type":"village"},{"id":"1517927460","name":"Senda 3","lat":-16.9947999,"lon":-65.1825075,"type":"village"},{"id":"1518263561","name":"Coroico","lat":-16.1886022,"lon":-67.7274645,"type":"village"},{"id":"1518519001","name":"Agua de Castilla","lat":-19.7722452,"lon":-65.9863159,"type":"village"},{"id":"1519228996","name":"Charaña","lat":-17.593033,"lon":-69.4464289,"type":"village"},{"id":"1519228999","name":"Ladislao Cabrera","lat":-17.4959264,"lon":-69.4661993,"type":"village"},{"id":"1519267610","name":"San Andres de Machaca","lat":-16.9560435,"lon":-68.9687798,"type":"village"},{"id":"1519267612","name":"Santiago de Machaca","lat":-17.066052,"lon":-69.1920087,"type":"village"},{"id":"1519276985","name":"Catacora","lat":-17.1609285,"lon":-69.4868875,"type":"village"},{"id":"1534790380","name":"Santa Ana de Velasco","lat":-16.5837066,"lon":-60.6879104,"type":"village"},{"id":"1534934595","name":"Asuncion Laca Laca","lat":-18.0131757,"lon":-67.9410796,"type":"village"},{"id":"1535606606","name":"Chipaya","lat":-19.0417944,"lon":-68.0897354,"type":"village"},{"id":"1535685663","name":"Ayparavi","lat":-19.0327088,"lon":-67.9144072,"type":"village"},{"id":"1535685666","name":"Piña Piñani","lat":-18.9289131,"lon":-67.9395814,"type":"village"},{"id":"1536273185","name":"Huachacalla","lat":-18.7931115,"lon":-68.2618545,"type":"village"},{"id":"1536273187","name":"Opoqueri","lat":-18.5404091,"lon":-67.9035664,"type":"village"},{"id":"1536273188","name":"Pisiga Bolívar","lat":-19.2734842,"lon":-68.6164194,"type":"town"},{"id":"1536273279","name":"Sabaya","lat":-19.0148366,"lon":-68.3729426,"type":"village"},{"id":"1536273281","name":"Toledo","lat":-18.1812759,"lon":-67.4061409,"type":"village"},{"id":"1536287691","name":"Coipasa","lat":-19.2767878,"lon":-68.2781424,"type":"village"},{"id":"1536287696","name":"Curahuara de Carangas","lat":-17.8426585,"lon":-68.4089744,"type":"village"},{"id":"1536326050","name":"Machacamarca","lat":-18.1718352,"lon":-67.0198395,"type":"village"},{"id":"1536485570","name":"Macha","lat":-18.8174163,"lon":-66.0373698,"type":"village"},{"id":"1538556212","name":"Cosapa","lat":-18.1777563,"lon":-68.7085674,"type":"village"},{"id":"1538556243","name":"Turco","lat":-18.18073,"lon":-68.1930009,"type":"village"},{"id":"1538561909","name":"Pocoata","lat":-18.6990945,"lon":-66.1626788,"type":"village"},{"id":"1538579519","name":"Santiago de Callapa","lat":-17.4792521,"lon":-68.3559861,"type":"village"},{"id":"1538623325","name":"San Cristóbal","lat":-21.1539571,"lon":-67.1662036,"type":"village"},{"id":"1545952997","name":"Cala Cala","lat":-18.5264716,"lon":-66.4837075,"type":"village"},{"id":"1546224933","name":"Antequera","lat":-18.4785686,"lon":-66.8409733,"type":"village"},{"id":"1546224939","name":"Avicaya","lat":-18.5239195,"lon":-66.8821544,"type":"village"},{"id":"1546224943","name":"Campamento Bolivar","lat":-18.4771765,"lon":-66.8453047,"type":"village"},{"id":"1546224946","name":"Pazña","lat":-18.5974435,"lon":-66.9207527,"type":"village"},{"id":"1546225066","name":"Totoral","lat":-18.4959631,"lon":-66.8739315,"type":"village"},{"id":"1546292895","name":"Chalguamayo","lat":-18.6091103,"lon":-66.7575047,"type":"village"},{"id":"1546292901","name":"Chiquiroyo","lat":-18.5971527,"lon":-66.5726397,"type":"village"},{"id":"1546292910","name":"Lupuyo","lat":-18.5963053,"lon":-66.5736717,"type":"village"},{"id":"1546292917","name":"Maraca","lat":-18.5080414,"lon":-66.6135525,"type":"village"},{"id":"1546292924","name":"Paria Willque","lat":-18.5694267,"lon":-66.5955499,"type":"village"},{"id":"1546293405","name":"Venta y Media","lat":-18.2943155,"lon":-66.8592389,"type":"village"},{"id":"1546293409","name":"Vinto Pampa","lat":-18.5305415,"lon":-66.5987758,"type":"village"},{"id":"1546293428","name":"Yauriri","lat":-18.4878433,"lon":-66.5792063,"type":"village"},{"id":"1550319099","name":"Palca","lat":-17.1871158,"lon":-66.0751059,"type":"village"},{"id":"1573616572","name":"Puerto Almacén","lat":-14.8708317,"lon":-64.9654094,"type":"village"},{"id":"1573616595","name":"Loma Suárez","lat":-14.7627135,"lon":-64.9630171,"type":"village"},{"id":"1573616630","name":"Villa Alba","lat":-15.0611866,"lon":-64.6818311,"type":"village"},{"id":"1573616657","name":"Sachojere","lat":-14.9853944,"lon":-64.7529999,"type":"village"},{"id":"1573616696","name":"Loreto","lat":-15.1930388,"lon":-64.7590778,"type":"village"},{"id":"1573616750","name":"Magdalena","lat":-13.2637193,"lon":-64.0544595,"type":"town"},{"id":"1573616764","name":"Huacaraje","lat":-13.5924211,"lon":-63.878525,"type":"village"},{"id":"1573616776","name":"Elvira","lat":-14.9280473,"lon":-64.6019774,"type":"village"},{"id":"1573616779","name":"Puerto Barador","lat":-14.8780487,"lon":-64.9970111,"type":"village"},{"id":"1573616829","name":"San Javier","lat":-14.6002157,"lon":-64.8810449,"type":"village"},{"id":"1573616901","name":"San Andrés","lat":-15.0225463,"lon":-64.6673301,"type":"village"},{"id":"1573616959","name":"Naranjitos","lat":-15.0101002,"lon":-64.7072095,"type":"village"},{"id":"1573616984","name":"Baures","lat":-13.6546062,"lon":-63.6955015,"type":"village"},{"id":"1573616986","name":"Puerto Ballivián","lat":-14.7942707,"lon":-64.9723167,"type":"village"},{"id":"1573617026","name":"Perotó","lat":-14.9752478,"lon":-64.6370456,"type":"village"},{"id":"1576368659","name":"El Carmen","lat":-14.2313702,"lon":-63.8033335,"type":"village"},{"id":"1578556216","name":"Jasiaquiri","lat":-13.7194575,"lon":-63.7381705,"type":"village"},{"id":"1580059972","name":"La Joya Aransaya","lat":-17.8450718,"lon":-67.6092568,"type":"village"},{"id":"1580556798","name":"Miraflores","lat":-14.9466096,"lon":-64.6675226,"type":"village"},{"id":"1583451928","name":"Puerto Siles","lat":-12.8003748,"lon":-65.0044135,"type":"village"},{"id":"1595307051","name":"Chojlla","lat":-18.2142501,"lon":-66.5924492,"type":"village"},{"id":"1595307052","name":"Chaicuriri","lat":-18.2225282,"lon":-66.6355938,"type":"village"},{"id":"1595313537","name":"Juntavi","lat":-18.2356624,"lon":-66.5060243,"type":"village"},{"id":"1595369160","name":"Morococala","lat":-18.1535145,"lon":-66.7901533,"type":"village"},{"id":"1595862018","name":"Turberia","lat":-18.6232047,"lon":-66.0816687,"type":"village"},{"id":"1595943534","name":"Tinguipaya","lat":-19.2201563,"lon":-65.82247,"type":"village"},{"id":"1595943536","name":"Yocalla","lat":-19.3898733,"lon":-65.9091306,"type":"village"},{"id":"1595970260","name":"Acasio","lat":-18.0240462,"lon":-66.0588558,"type":"village"},{"id":"1595970269","name":"Colloma","lat":-18.3257901,"lon":-66.3445661,"type":"village"},{"id":"1595970274","name":"Irupata","lat":-18.407222,"lon":-66.4,"type":"village"},{"id":"1595970280","name":"Sacaca","lat":-18.0692715,"lon":-66.3844024,"type":"village"},{"id":"1597336184","name":"Colquechaca","lat":-18.7000051,"lon":-66.0038977,"type":"village"},{"id":"1597369295","name":"Tarowaque","lat":-18.8618538,"lon":-65.8126164,"type":"village"},{"id":"1597370087","name":"Surumi","lat":-18.5657309,"lon":-65.8478669,"type":"village"},{"id":"1600439006","name":"Arque","lat":-17.8218044,"lon":-66.403409,"type":"village"},{"id":"1600442208","name":"San Pedro de Buena Vista","lat":-18.2702127,"lon":-65.980971,"type":"village"},{"id":"1602444014","name":"Villa Abecia","lat":-20.974536,"lon":-65.2307378,"type":"village"},{"id":"1605562627","name":"Anzaldo","lat":-17.7788061,"lon":-65.9320958,"type":"village"},{"id":"1605580737","name":"Toropalca","lat":-20.3200138,"lon":-65.709383,"type":"village"},{"id":"1607414788","name":"Santiago K","lat":-20.8039635,"lon":-67.7407056,"type":"village"},{"id":"1607572700","name":"Santa Rosa","lat":-16.2911073,"lon":-67.2998499,"type":"village"},{"id":"1607572714","name":"La Calzada","lat":-16.2945864,"lon":-67.3225581,"type":"village"},{"id":"1607572715","name":"Miguillas","lat":-16.5542027,"lon":-67.3372965,"type":"village"},{"id":"1607572716","name":"Union Huiri","lat":-16.3083405,"lon":-67.3530109,"type":"village"},{"id":"1607867036","name":"Colopampa Chico","lat":-16.3482505,"lon":-67.4629709,"type":"village"},{"id":"1607918668","name":"Locotani","lat":-16.8281511,"lon":-66.955752,"type":"village"},{"id":"1607952682","name":"Arcopongo","lat":-16.5652755,"lon":-66.9355225,"type":"village"},{"id":"1607952683","name":"Patohoco","lat":-16.6136006,"lon":-66.8583994,"type":"village"},{"id":"1614088628","name":"San Jose","lat":-15.8030031,"lon":-66.9978511,"type":"village"},{"id":"1615337306","name":"Angostura","lat":-17.335921,"lon":-66.6219824,"type":"village"},{"id":"1615337309","name":"Vilacota","lat":-17.3814077,"lon":-66.6148908,"type":"village"},{"id":"1615414238","name":"Patiño Alto","lat":-17.3918064,"lon":-66.8318356,"type":"village"},{"id":"1615437781","name":"Villa Hermosa","lat":-17.3709707,"lon":-66.8053031,"type":"village"},{"id":"1615511294","name":"Pata Morochata","lat":-17.2727583,"lon":-66.4915124,"type":"village"},{"id":"1615540743","name":"Piusilla","lat":-17.2285321,"lon":-66.489301,"type":"village"},{"id":"1615694330","name":"Cataricahua","lat":-18.2738127,"lon":-66.8155124,"type":"village"},{"id":"1633530400","name":"Toko","lat":-17.6269059,"lon":-65.9269707,"type":"village"},{"id":"1645119404","name":"Colcha K","lat":-20.7403538,"lon":-67.6605934,"type":"village"},{"id":"1682355539","name":"Caraparí","lat":-21.8280757,"lon":-63.743706,"type":"village"},{"id":"1683363087","name":"Rio Mulato","lat":-19.6971018,"lon":-66.7784798,"type":"village"},{"id":"1687587188","name":"Jiroja","lat":-18.9036366,"lon":-65.5886908,"type":"village"},{"id":"1687604657","name":"Poroma","lat":-18.5381869,"lon":-65.4267785,"type":"village"},{"id":"1687681449","name":"Mojo Toro","lat":-18.9524315,"lon":-65.1274367,"type":"village"},{"id":"1687681474","name":"Sijcha","lat":-18.9146187,"lon":-65.2959438,"type":"village"},{"id":"1687681488","name":"Kacha Kacha","lat":-18.8927058,"lon":-65.1781478,"type":"village"},{"id":"1687681498","name":"Paredon","lat":-18.9315623,"lon":-65.1562836,"type":"village"},{"id":"1688444368","name":"Challcha","lat":-18.4425123,"lon":-65.541499,"type":"village"},{"id":"1689015680","name":"Cororo","lat":-19.0692713,"lon":-64.9040516,"type":"village"},{"id":"1689048702","name":"Surima Chica","lat":-19.0119999,"lon":-64.8932951,"type":"village"},{"id":"1689048721","name":"Morado K'asa","lat":-19.058209,"lon":-64.9143897,"type":"village"},{"id":"1689048758","name":"Icla","lat":-19.3636364,"lon":-64.7928835,"type":"village"},{"id":"1689048864","name":"Tomoroco","lat":-18.9739996,"lon":-64.8868489,"type":"village"},{"id":"1689048882","name":"Presto","lat":-18.9297903,"lon":-64.9377217,"type":"village"},{"id":"1689054931","name":"Puca Puca","lat":-19.1962296,"lon":-64.8642048,"type":"village"},{"id":"1689079215","name":"Yamparáez","lat":-19.189328,"lon":-65.1216841,"type":"village"},{"id":"1689138969","name":"Vilaque","lat":-17.6509083,"lon":-66.0102254,"type":"village"},{"id":"1689139034","name":"Arbieto","lat":-17.5834672,"lon":-66.0148054,"type":"village"},{"id":"1691470167","name":"Guadalupe","lat":-18.6907463,"lon":-65.7969198,"type":"village"},{"id":"1693564010","name":"Padilla","lat":-19.307485,"lon":-64.3025643,"type":"village"},{"id":"1693584245","name":"Ipati","lat":-19.7654687,"lon":-63.56266,"type":"village"},{"id":"1693661150","name":"Pucara","lat":-18.7149205,"lon":-64.1844365,"type":"village"},{"id":"1694192975","name":"Saipina","lat":-18.0945149,"lon":-64.583374,"type":"village"},{"id":"1694239327","name":"Mataral","lat":-18.1149923,"lon":-64.2157938,"type":"village"},{"id":"1694345990","name":"Cruz Loma","lat":-16.200404,"lon":-67.6974328,"type":"village"},{"id":"1694811607","name":"Alcala","lat":-19.3661926,"lon":-64.3909328,"type":"village"},{"id":"1694811616","name":"Azurduy","lat":-20.1050368,"lon":-64.4144197,"type":"village"},{"id":"1694811638","name":"Sopachuy","lat":-19.485286,"lon":-64.4736552,"type":"village"},{"id":"1694811651","name":"Yotala","lat":-19.1616017,"lon":-65.2647648,"type":"village"},{"id":"1695805620","name":"Thaqo Pampa","lat":-19.3858778,"lon":-64.728862,"type":"village"},{"id":"1695805623","name":"Niagara","lat":-19.3450132,"lon":-64.7988681,"type":"village"},{"id":"1695805625","name":"Candelaria","lat":-19.2996513,"lon":-64.7888747,"type":"village"},{"id":"1695805627","name":"Pila Torre","lat":-19.301004,"lon":-64.7560629,"type":"village"},{"id":"1695805630","name":"San Jacinto","lat":-19.3220501,"lon":-64.7456676,"type":"village"},{"id":"1696084665","name":"Esmeralda","lat":-18.0838626,"lon":-64.9243084,"type":"village"},{"id":"1696084668","name":"Omereque","lat":-18.107245,"lon":-64.908006,"type":"village"},{"id":"1696084671","name":"Peña Colorada","lat":-18.1716446,"lon":-64.8702166,"type":"village"},{"id":"1698720572","name":"Villa Serrano","lat":-19.1227159,"lon":-64.3237772,"type":"village"},{"id":"1698736852","name":"Guadalupe","lat":-18.5558206,"lon":-64.0887294,"type":"village"},{"id":"1701367088","name":"Cruce Culta","lat":-19.0704213,"lon":-66.2071094,"type":"village"},{"id":"1706103046","name":"Huacareta","lat":-20.3675434,"lon":-64.0031126,"type":"village"},{"id":"1718465078","name":"Quila Quila","lat":-19.1196136,"lon":-65.3770635,"type":"village"},{"id":"1725062105","name":"Buena Vista","lat":-17.9609012,"lon":-65.3736843,"type":"village"},{"id":"1725062109","name":"Cazorla","lat":-17.9562472,"lon":-65.3549279,"type":"village"},{"id":"1725168144","name":"San Ignacio de Velasco","lat":-16.3738881,"lon":-60.9598466,"type":"city"},{"id":"1728291666","name":"Postrervalle","lat":-18.4909496,"lon":-63.8351805,"type":"village"},{"id":"1740620948","name":"Santa Rosa de Caata","lat":-15.1546942,"lon":-69.0103824,"type":"village"},{"id":"1764214876","name":"San Carlos","lat":-17.4044038,"lon":-63.7324754,"type":"village"},{"id":"1772278532","name":"Tomina","lat":-19.1851793,"lon":-64.4615523,"type":"village"},{"id":"1772290973","name":"Tarabuquillo","lat":-19.3515514,"lon":-64.4772921,"type":"village"},{"id":"1782462738","name":"Recreo","lat":-16.4254862,"lon":-61.0557925,"type":"village"},{"id":"1782506678","name":"Comunidad 15 de Agosto","lat":-16.0455716,"lon":-61.2204954,"type":"village"},{"id":"1782506679","name":"Comunidad San Juancito","lat":-16.2310974,"lon":-60.9752062,"type":"village"},{"id":"1782506690","name":"San Antonio","lat":-16.0398971,"lon":-61.1585608,"type":"village"},{"id":"1789920145","name":"Mercedes de Las Minas","lat":-16.3869887,"lon":-60.8795535,"type":"village"},{"id":"1801693175","name":"Puerto Margarita","lat":-21.197778,"lon":-63.801389,"type":"village"},{"id":"1802652185","name":"El Villar","lat":-19.6285755,"lon":-64.3110441,"type":"village"},{"id":"1802652186","name":"Keluyo","lat":-19.843056,"lon":-65.188056,"type":"village"},{"id":"1802652187","name":"Millares","lat":-19.427222,"lon":-65.181944,"type":"village"},{"id":"1802652901","name":"San Lucas","lat":-20.1022026,"lon":-65.1338035,"type":"village"},{"id":"1802775722","name":"Tres Cruces Garnica","lat":-19.8695115,"lon":-65.5466579,"type":"village"},{"id":"1802775726","name":"Puna","lat":-19.794815,"lon":-65.5060623,"type":"village"},{"id":"1803111606","name":"Sotomayor","lat":-19.3417764,"lon":-64.9958421,"type":"village"},{"id":"1804130341","name":"Santiago de Chiquitos","lat":-18.3397425,"lon":-59.5983134,"type":"village"},{"id":"1808430609","name":"Espiritu","lat":-16.1862862,"lon":-60.5282959,"type":"village"},{"id":"1808497816","name":"El Tuná","lat":-16.6279436,"lon":-59.6980863,"type":"village"},{"id":"1808497823","name":"San Vicente de la Frontera","lat":-16.2713192,"lon":-60.0756409,"type":"village"},{"id":"1808701374","name":"Comunidad San Josema","lat":-16.2636471,"lon":-61.0368768,"type":"village"},{"id":"1808701375","name":"Comunidad Carmencita","lat":-16.2975808,"lon":-61.0316368,"type":"village"},{"id":"1808701376","name":"San Javierito","lat":-16.1637892,"lon":-61.001845,"type":"village"},{"id":"1808790270","name":"Medio Monte Colorado","lat":-16.4383953,"lon":-60.9613309,"type":"village"},{"id":"1808790271","name":"Santa Teresa","lat":-16.4657853,"lon":-61.0009381,"type":"village"},{"id":"1809259704","name":"Campo Pajoso","lat":-21.9065395,"lon":-63.6298378,"type":"village"},{"id":"1809567816","name":"Campo Largo Hito 22","lat":-22.022387,"lon":-63.9551353,"type":"village"},{"id":"1809584967","name":"Cañas","lat":-21.8984274,"lon":-64.8501773,"type":"village"},{"id":"1809584968","name":"Chocloca","lat":-21.750556,"lon":-64.735556,"type":"village"},{"id":"1809584969","name":"Juntas","lat":-21.8101765,"lon":-64.7974474,"type":"village"},{"id":"1809584970","name":"Mecoya","lat":-22.1029778,"lon":-64.8957199,"type":"village"},{"id":"1809605410","name":"Yunchará","lat":-21.824216,"lon":-65.2285484,"type":"village"},{"id":"1809706260","name":"Culpina","lat":-20.8233069,"lon":-64.9442886,"type":"village"},{"id":"1809706261","name":"Incahuasi","lat":-20.7815805,"lon":-64.8686301,"type":"village"},{"id":"1809751973","name":"Las Carreras","lat":-21.2077902,"lon":-65.2103863,"type":"village"},{"id":"1810417966","name":"San Juan","lat":-20.901078,"lon":-67.7656052,"type":"village"},{"id":"1811443112","name":"Paurito","lat":-17.880278,"lon":-62.9416191,"type":"village"},{"id":"1812998266","name":"Salinas de Garci Mendoza","lat":-19.6376711,"lon":-67.6750664,"type":"village"},{"id":"1812998267","name":"Santuario de Quillacas","lat":-19.2322204,"lon":-66.9422089,"type":"village"},{"id":"1813460432","name":"Soroma","lat":-19.5087053,"lon":-64.8197554,"type":"village"},{"id":"1813460442","name":"Oronckota","lat":-19.5958701,"lon":-64.8495502,"type":"village"},{"id":"1813460444","name":"Mojona","lat":-19.8448167,"lon":-65.5606991,"type":"village"},{"id":"1813460445","name":"Inchasi","lat":-19.7253708,"lon":-65.4701376,"type":"village"},{"id":"1813460447","name":"Pacasi","lat":-19.7168498,"lon":-65.5149816,"type":"village"},{"id":"1813460630","name":"Sepulturas","lat":-19.8615357,"lon":-65.5941504,"type":"village"},{"id":"1813460632","name":"Uruchini","lat":-19.879112,"lon":-64.9905318,"type":"village"},{"id":"1813474405","name":"Chaquí Baños","lat":-19.6248696,"lon":-65.5705801,"type":"village"},{"id":"1813474406","name":"Chaqui","lat":-19.5882327,"lon":-65.5615702,"type":"village"},{"id":"1813864467","name":"Arapata","lat":-16.2704825,"lon":-67.6438252,"type":"village"},{"id":"1813864470","name":"Coripata","lat":-16.3131836,"lon":-67.6036228,"type":"village"},{"id":"1816645558","name":"Carmen Pampa","lat":-16.2629516,"lon":-67.6975711,"type":"village"},{"id":"1819736065","name":"Caiza D","lat":-20.0070996,"lon":-65.6540088,"type":"village"},{"id":"1827817611","name":"Chaguara","lat":-16.398634,"lon":-67.7298205,"type":"village"},{"id":"1827817625","name":"La Florida","lat":-16.3633176,"lon":-67.7532186,"type":"village"},{"id":"1831393587","name":"San Antonio de Esmoruco","lat":-21.9490036,"lon":-66.5175049,"type":"village"},{"id":"1831393588","name":"Tatasi","lat":-21.1688046,"lon":-66.1461013,"type":"village"},{"id":"1834728796","name":"Santa Fe de los Junos","lat":-17.914071,"lon":-63.0259051,"type":"village"},{"id":"1834729869","name":"Jorori","lat":-17.8865083,"lon":-63.0291579,"type":"village"},{"id":"1860588068","name":"Argelia","lat":-16.3605652,"lon":-60.9953284,"type":"village"},{"id":"1860588087","name":"San Antonio del Cerro","lat":-16.4117434,"lon":-60.9690965,"type":"village"},{"id":"1860588108","name":"San Luisito","lat":-16.3972638,"lon":-60.935294,"type":"village"},{"id":"1860588109","name":"San Rafaelito de Sutuniquiña","lat":-16.4035576,"lon":-60.9558426,"type":"village"},{"id":"1860588110","name":"Sañonama","lat":-16.3894501,"lon":-61.0155694,"type":"village"},{"id":"1871814250","name":"Chipiriri","lat":-16.9147761,"lon":-65.4000243,"type":"village"},{"id":"1884239096","name":"Boycobo","lat":-20.6989693,"lon":-63.6572596,"type":"village"},{"id":"1884239102","name":"Huacaya","lat":-20.7441905,"lon":-63.6646816,"type":"village"},{"id":"1898049487","name":"San Isidro","lat":-21.9734258,"lon":-63.6653185,"type":"village"},{"id":"1901203848","name":"Santa Rosa Ibuelo","lat":-16.8964747,"lon":-65.2232956,"type":"village"},{"id":"1901204246","name":"Nueva Esperanza","lat":-16.8790488,"lon":-65.2301618,"type":"village"},{"id":"1902933560","name":"Puerto Aurora","lat":-16.8477017,"lon":-65.1871281,"type":"village"},{"id":"1910203196","name":"Laja","lat":-16.5365628,"lon":-68.3851786,"type":"village"},{"id":"1910473341","name":"Mapiri","lat":-15.3095516,"lon":-68.2148428,"type":"village"},{"id":"1910473345","name":"Santa Rosa de Mapiri","lat":-15.317099,"lon":-68.3259343,"type":"village"},{"id":"1913734214","name":"Camacho","lat":-21.8922456,"lon":-64.9116062,"type":"village"},{"id":"1913734215","name":"Copacabana","lat":-21.8302542,"lon":-65.0908437,"type":"village"},{"id":"1914731526","name":"Tomave","lat":-20.0655889,"lon":-66.5324157,"type":"village"},{"id":"1914731527","name":"Yura","lat":-20.0732163,"lon":-66.125051,"type":"village"},{"id":"1915224298","name":"La Cueva","lat":-20.9328638,"lon":-64.8835332,"type":"village"},{"id":"1915224324","name":"Santa Elena","lat":-20.5832967,"lon":-64.7764951,"type":"village"},{"id":"1915256052","name":"Villa Charcas","lat":-20.7236879,"lon":-64.8852758,"type":"village"},{"id":"1915256054","name":"Pucará","lat":-20.6639452,"lon":-64.8577691,"type":"village"},{"id":"1915256055","name":"Jolencia","lat":-20.7145061,"lon":-64.8622248,"type":"village"},{"id":"1915301247","name":"Charazani","lat":-15.1762293,"lon":-68.995189,"type":"village"},{"id":"1915301399","name":"Tumupasa","lat":-14.1474811,"lon":-67.8899453,"type":"village"},{"id":"1938004015","name":"Florida","lat":-14.6088029,"lon":-61.1936022,"type":"village"},{"id":"1939377886","name":"San Antonio de Lomerio","lat":-16.7684973,"lon":-61.8102698,"type":"village"},{"id":"1939585091","name":"Ascensión de la Frontera","lat":-16.3166762,"lon":-59.4496757,"type":"village"},{"id":"1939585095","name":"San Bartolo de la Frontera","lat":-16.2969876,"lon":-59.898793,"type":"village"},{"id":"1939585101","name":"Las Petas","lat":-16.3761828,"lon":-59.1792436,"type":"village"},{"id":"1940560724","name":"Chochís","lat":-18.1494279,"lon":-60.0307543,"type":"village"},{"id":"1942407668","name":"Pongo","lat":-16.3313449,"lon":-67.957945,"type":"village"},{"id":"1950362581","name":"Comunidad Campamento","lat":-15.1783934,"lon":-61.0171857,"type":"village"},{"id":"1950362583","name":"San Simon Alto Paraguá","lat":-15.4613636,"lon":-60.8930678,"type":"village"},{"id":"1952949746","name":"Candelaria de Noza","lat":-16.3797015,"lon":-61.0432098,"type":"village"},{"id":"1954507851","name":"Pongo Kasa","lat":-17.7119931,"lon":-66.5518119,"type":"village"},{"id":"1954789561","name":"Ichoca","lat":-17.141786,"lon":-67.1810316,"type":"village"},{"id":"1975648720","name":"La Paz","lat":-16.4955455,"lon":-68.1336229,"type":"city"},{"id":"1981589074","name":"Santa Ana de Mosetenes","lat":-15.5133356,"lon":-67.4271508,"type":"village"},{"id":"1985558072","name":"Chivé","lat":-12.3930405,"lon":-68.5869923,"type":"village"},{"id":"2029526380","name":"El Carmen","lat":-16.4458463,"lon":-62.019189,"type":"village"},{"id":"2029766517","name":"Medio Monte","lat":-16.5485023,"lon":-62.072944,"type":"village"},{"id":"2029768357","name":"San Simon","lat":-16.6401813,"lon":-61.944841,"type":"village"},{"id":"2029769683","name":"San Pedro","lat":-16.6724606,"lon":-62.2492654,"type":"village"},{"id":"2029770195","name":"Monterito de Lomerio","lat":-16.7062422,"lon":-61.9685099,"type":"village"},{"id":"2029770237","name":"San Lorenzo de Lomerio","lat":-16.7076663,"lon":-61.8718,"type":"village"},{"id":"2029770359","name":"Surusubi de Lomerio","lat":-16.7176019,"lon":-61.961955,"type":"village"},{"id":"2029770429","name":"Coloradillo","lat":-16.7205493,"lon":-61.873793,"type":"village"},{"id":"2029770903","name":"El Puquio Cristo Rey","lat":-16.7316839,"lon":-61.9130782,"type":"village"},{"id":"2029771105","name":"Palmira de Lomerio","lat":-16.7525666,"lon":-61.9337552,"type":"village"},{"id":"2030089312","name":"San Juan de La Roca","lat":-16.2339323,"lon":-62.070733,"type":"village"},{"id":"2030089606","name":"San Pablo Sur","lat":-16.3390708,"lon":-62.1378308,"type":"village"},{"id":"2030149635","name":"Candelaria","lat":-16.2472066,"lon":-62.1205897,"type":"village"},{"id":"2046007920","name":"Guapomocito","lat":-16.5511472,"lon":-61.0476618,"type":"village"},{"id":"2046008227","name":"Altamira","lat":-16.7148522,"lon":-61.0466836,"type":"village"},{"id":"2046008231","name":"Cotoca","lat":-16.7205835,"lon":-61.0033609,"type":"village"},{"id":"2046008235","name":"Potrero Aguilar","lat":-16.7640604,"lon":-61.0440475,"type":"village"},{"id":"2051903557","name":"Cumaná","lat":-16.3467726,"lon":-68.6395512,"type":"village"},{"id":"2071731115","name":"San Juan del Rosario","lat":-18.3047019,"lon":-63.8090016,"type":"village"},{"id":"2087512344","name":"Santiago del Valle","lat":-18.2211387,"lon":-63.9185255,"type":"village"},{"id":"2087563911","name":"Paredones","lat":-18.1391348,"lon":-63.818082,"type":"village"},{"id":"2128129417","name":"Tablas Monte","lat":-17.0825392,"lon":-65.998821,"type":"village"},{"id":"2184436198","name":"Calamarca","lat":-16.9058093,"lon":-68.1154879,"type":"village"},{"id":"2188435450","name":"Santa Rosa de Kilo Kilo","lat":-16.0377117,"lon":-67.8175866,"type":"village"},{"id":"2188435451","name":"Mururata","lat":-16.1442253,"lon":-67.7382834,"type":"village"},{"id":"2188805877","name":"Punutuma","lat":-20.0470559,"lon":-66.1348918,"type":"village"},{"id":"2188944049","name":"Telamayu","lat":-20.9480302,"lon":-66.2244465,"type":"village"},{"id":"2195729028","name":"Sanipaya","lat":-17.0333926,"lon":-66.9448563,"type":"village"},{"id":"2198144458","name":"Guaqui","lat":-16.5973854,"lon":-68.8368517,"type":"village"},{"id":"2199169712","name":"Porcelana","lat":-22.772294,"lon":-64.2986615,"type":"village"},{"id":"2199179106","name":"Candado Grande","lat":-22.6775278,"lon":-64.409988,"type":"village"},{"id":"2199217281","name":"Emborozu","lat":-22.2663352,"lon":-64.5376903,"type":"village"},{"id":"2199224664","name":"San Telmo Rio Bermejo","lat":-22.5347335,"lon":-64.410548,"type":"village"},{"id":"2199268661","name":"Rio Negro","lat":-22.1021133,"lon":-64.6724421,"type":"village"},{"id":"2201183199","name":"Manzanani","lat":-17.0572866,"lon":-66.7999281,"type":"village"},{"id":"2203251604","name":"Chacowillque","lat":-17.1629041,"lon":-66.8282836,"type":"village"},{"id":"2203268731","name":"Tamiñani Alto","lat":-17.3011026,"lon":-66.8610018,"type":"village"},{"id":"2203859733","name":"Chullapampa","lat":-17.3032325,"lon":-66.7763681,"type":"village"},{"id":"2204260663","name":"Chullpani","lat":-17.0946538,"lon":-66.7818844,"type":"village"},{"id":"2205646523","name":"Chiltuhaya","lat":-16.621554,"lon":-67.6812607,"type":"village"},{"id":"2205646540","name":"Lambate","lat":-16.6043363,"lon":-67.7043465,"type":"village"},{"id":"2205646556","name":"Chirucachi","lat":-16.6240377,"lon":-67.6564606,"type":"village"},{"id":"2205699427","name":"Chuñavi","lat":-16.580294,"lon":-67.6940781,"type":"village"},{"id":"2205699456","name":"Pariguaya","lat":-16.6520997,"lon":-67.6363372,"type":"village"},{"id":"2205699473","name":"Santa Rosa","lat":-16.5801223,"lon":-67.7053555,"type":"village"},{"id":"2205699484","name":"Totoral","lat":-16.5947821,"lon":-67.7416636,"type":"village"},{"id":"2205740120","name":"Tres Rios","lat":-16.5699835,"lon":-67.7935313,"type":"village"},{"id":"2205745788","name":"Totora Pampa","lat":-16.5741216,"lon":-67.8110457,"type":"village"},{"id":"2205766584","name":"Pinaya","lat":-16.6382633,"lon":-67.8577716,"type":"village"},{"id":"2205771195","name":"Paruña","lat":-16.6522952,"lon":-67.8917741,"type":"village"},{"id":"2205772176","name":"Llujo","lat":-16.6692293,"lon":-67.8734292,"type":"village"},{"id":"2205877724","name":"Pichu","lat":-16.3636498,"lon":-67.802059,"type":"village"},{"id":"2205884811","name":"Khapi","lat":-16.6816616,"lon":-67.8523264,"type":"village"},{"id":"2205897230","name":"Taninpata","lat":-16.696788,"lon":-67.7938464,"type":"village"},{"id":"2205903071","name":"Atahuallani","lat":-16.7041209,"lon":-67.7649351,"type":"village"},{"id":"2205903073","name":"Cayimbaya","lat":-16.7137295,"lon":-67.753767,"type":"village"},{"id":"2223002867","name":"Puina","lat":-14.6117948,"lon":-69.1375131,"type":"village"},{"id":"2223128115","name":"Chuñavi","lat":-16.344857,"lon":-68.3742068,"type":"village"},{"id":"2223128145","name":"Cucuta","lat":-16.4658505,"lon":-68.3053635,"type":"village"},{"id":"2223128146","name":"Patamanta","lat":-16.3773945,"lon":-68.3785654,"type":"village"},{"id":"2223128734","name":"Villa Vilaque","lat":-16.4282127,"lon":-68.3323596,"type":"village"},{"id":"2225985795","name":"Chicharro","lat":-16.2496094,"lon":-68.8402711,"type":"village"},{"id":"2225985798","name":"Camacachi","lat":-16.2368129,"lon":-68.8348777,"type":"village"},{"id":"2225985799","name":"Huayllani","lat":-16.2317242,"lon":-68.875423,"type":"village"},{"id":"2225985800","name":"Villa Amacari","lat":-16.2540235,"lon":-68.8613044,"type":"village"},{"id":"2225988293","name":"San Pablo de Tiquina","lat":-16.215062,"lon":-68.84858,"type":"village"},{"id":"2225988302","name":"San Pedro de Tiquina","lat":-16.2216608,"lon":-68.8529647,"type":"village"},{"id":"2225988312","name":"Suriqui","lat":-16.3053545,"lon":-68.7586655,"type":"village"},{"id":"2225988334","name":"Taquiri","lat":-16.2892697,"lon":-68.8041057,"type":"village"},{"id":"2248835551","name":"San Pedro de Sapoco","lat":-16.6002319,"lon":-60.9736937,"type":"village"},{"id":"2259985797","name":"Totorani","lat":-17.5378482,"lon":-66.7770937,"type":"village"},{"id":"2260038329","name":"Machacamarca","lat":-17.5600633,"lon":-66.8183276,"type":"village"},{"id":"2260038330","name":"Pauca","lat":-17.5309358,"lon":-66.8422838,"type":"village"},{"id":"2260041228","name":"Tajillo","lat":-17.542754,"lon":-66.8306274,"type":"village"},{"id":"2260061459","name":"Yarwi Totora","lat":-17.6319889,"lon":-66.8245158,"type":"village"},{"id":"2260072262","name":"Laca Lacani","lat":-17.5418051,"lon":-66.9592067,"type":"village"},{"id":"2260563625","name":"Franz Tamayo","lat":-17.1842066,"lon":-67.259479,"type":"village"},{"id":"2260563626","name":"Iquilluyo","lat":-17.2373759,"lon":-67.3461947,"type":"village"},{"id":"2260563629","name":"Llipi Llipi","lat":-17.1835431,"lon":-67.3759588,"type":"village"},{"id":"2260563630","name":"Mecaña","lat":-17.2163068,"lon":-67.3862673,"type":"village"},{"id":"2260563632","name":"German Busch","lat":-17.2551753,"lon":-67.3054242,"type":"village"},{"id":"2260563634","name":"Villa Puchuni","lat":-17.2733232,"lon":-67.3351589,"type":"village"},{"id":"2260564356","name":"Tablachaca","lat":-17.1762095,"lon":-67.3376327,"type":"village"},{"id":"2260729428","name":"Calluchani","lat":-17.0620121,"lon":-67.4204517,"type":"village"},{"id":"2262027919","name":"Asiento Araca","lat":-16.8206806,"lon":-67.560788,"type":"village"},{"id":"2262027921","name":"Cotaña","lat":-16.7237928,"lon":-67.7184274,"type":"village"},{"id":"2262027922","name":"La Lloja","lat":-16.7450828,"lon":-67.5736015,"type":"village"},{"id":"2262027923","name":"Mutuhuaya","lat":-16.742059,"lon":-67.7488698,"type":"village"},{"id":"2262553042","name":"Confital","lat":-17.6787618,"lon":-66.7302481,"type":"village"},{"id":"2269291497","name":"Quiroga","lat":-18.4242543,"lon":-65.2174714,"type":"village"},{"id":"2269293035","name":"Chinguri","lat":-18.3840813,"lon":-65.2244488,"type":"village"},{"id":"2276053133","name":"Trinidad Pampa","lat":-16.2813189,"lon":-67.6673921,"type":"village"},{"id":"2285703609","name":"Collpani","lat":-17.1086176,"lon":-67.6094907,"type":"village"},{"id":"2285703611","name":"Cachualla","lat":-17.1168493,"lon":-67.6016486,"type":"village"},{"id":"2285703612","name":"Carayapu","lat":-17.1328482,"lon":-67.595366,"type":"village"},{"id":"2285703613","name":"Cutty","lat":-17.0874819,"lon":-67.6229226,"type":"village"},{"id":"2285703615","name":"Pucuma","lat":-17.1214013,"lon":-67.5969704,"type":"village"},{"id":"2285718005","name":"Condado","lat":-17.1619486,"lon":-67.5471642,"type":"village"},{"id":"2293546600","name":"Animas","lat":-20.9605893,"lon":-66.3072984,"type":"village"},{"id":"2293546601","name":"Cerdas","lat":-20.81692,"lon":-66.3855179,"type":"village"},{"id":"2293550019","name":"Sarcari","lat":-21.9105946,"lon":-66.0213943,"type":"village"},{"id":"2293550032","name":"Siete Suyos","lat":-20.9487154,"lon":-66.2964036,"type":"village"},{"id":"2293550059","name":"Tauro","lat":-20.0818258,"lon":-66.0459729,"type":"village"},{"id":"2316550164","name":"Chaguaya Centro","lat":-15.7933257,"lon":-69.0403234,"type":"village"},{"id":"2316553146","name":"Escoma","lat":-15.6613873,"lon":-69.128994,"type":"village"},{"id":"2316553149","name":"Ollajsantia","lat":-15.7132846,"lon":-69.0979876,"type":"village"},{"id":"2326091786","name":"Tutimayu","lat":-17.4186233,"lon":-65.9550669,"type":"village"},{"id":"2326091798","name":"Ucuchi","lat":-17.4147043,"lon":-65.9201178,"type":"village"},{"id":"2326222767","name":"Collpana","lat":-17.4269687,"lon":-65.9146253,"type":"village"},{"id":"2326222774","name":"Chaupi Melga","lat":-17.4328857,"lon":-65.9056885,"type":"village"},{"id":"2326258489","name":"Kholuyo","lat":-17.3529585,"lon":-65.9896256,"type":"village"},{"id":"2326258503","name":"Lopez Rancho","lat":-17.4254293,"lon":-65.989284,"type":"village"},{"id":"2331619794","name":"Choco Grande","lat":-18.6575634,"lon":-66.5627559,"type":"village"},{"id":"2351502034","name":"Humaca","lat":-19.0890642,"lon":-65.4760971,"type":"village"},{"id":"2356375644","name":"Soberania","lat":-11.8779859,"lon":-68.985349,"type":"village"},{"id":"2367964987","name":"San Pablo del Isiboro","lat":-15.7144387,"lon":-65.1356327,"type":"village"},{"id":"2380355546","name":"Gundonovia","lat":-15.5142266,"lon":-65.1149422,"type":"village"},{"id":"2381443809","name":"Las Palmeras","lat":-16.2964766,"lon":-67.1023564,"type":"village"},{"id":"2381444432","name":"Kanamarca","lat":-16.3282738,"lon":-67.0841821,"type":"village"},{"id":"2381471787","name":"Nueva Florida","lat":-16.2670159,"lon":-67.0607115,"type":"village"},{"id":"2382634673","name":"Inicua","lat":-15.4954738,"lon":-67.2156666,"type":"village"},{"id":"2382753826","name":"El Sillar","lat":-15.432475,"lon":-67.1558485,"type":"village"},{"id":"2384416485","name":"Villa Concepcion","lat":-15.829288,"lon":-66.951459,"type":"village"},{"id":"2384433719","name":"San Jose","lat":-16.0267829,"lon":-67.168122,"type":"village"},{"id":"2384433770","name":"Siguani Grande","lat":-16.0209994,"lon":-67.1503965,"type":"village"},{"id":"2384433784","name":"San Felipe","lat":-15.990995,"lon":-67.1947862,"type":"village"},{"id":"2384433799","name":"Charia","lat":-16.0616475,"lon":-67.1707974,"type":"village"},{"id":"2384433809","name":"El Palmar","lat":-16.2062638,"lon":-67.2184891,"type":"village"},{"id":"2384434046","name":"Cotapata","lat":-15.9952581,"lon":-67.173564,"type":"village"},{"id":"2384434152","name":"Copalani","lat":-16.1771962,"lon":-67.2299012,"type":"village"},{"id":"2384638906","name":"Siguani Chico","lat":-15.9873609,"lon":-67.1629719,"type":"village"},{"id":"2384652954","name":"Palestina","lat":-16.1626862,"lon":-67.1376532,"type":"village"},{"id":"2385251153","name":"Centro Tocoroni","lat":-16.302084,"lon":-67.4252848,"type":"village"},{"id":"2385251240","name":"Llojeta","lat":-16.3993453,"lon":-67.4312562,"type":"village"},{"id":"2385251318","name":"Centro Conchitas","lat":-16.2859575,"lon":-67.3954827,"type":"village"},{"id":"2385704601","name":"Villa Carmen del Remanzo","lat":-15.259555,"lon":-65.0018143,"type":"village"},{"id":"2386737124","name":"27 de Mayo","lat":-15.2411232,"lon":-64.9897938,"type":"village"},{"id":"2387585215","name":"La Plazuela","lat":-16.5267303,"lon":-67.404135,"type":"village"},{"id":"2390498710","name":"Taca","lat":-16.6724541,"lon":-67.5898803,"type":"village"},{"id":"2390952665","name":"Santiago de Taca","lat":-16.6699938,"lon":-67.6216101,"type":"village"},{"id":"2391287412","name":"San Agustín","lat":-16.2582013,"lon":-67.6408205,"type":"village"},{"id":"2391317729","name":"Milluhuaya","lat":-16.3803488,"lon":-67.6151294,"type":"village"},{"id":"2391318257","name":"Anaco","lat":-16.3983305,"lon":-67.649966,"type":"village"},{"id":"2391318349","name":"Santa Rosa de Lima","lat":-16.4000363,"lon":-67.7194554,"type":"village"},{"id":"2391343348","name":"Iquiko","lat":-16.581653,"lon":-67.7422633,"type":"village"},{"id":"2391490296","name":"Centro Huara","lat":-16.6168329,"lon":-67.4541863,"type":"village"},{"id":"2391601914","name":"Villa Khora","lat":-16.5990562,"lon":-67.2891688,"type":"village"},{"id":"2391611315","name":"Cañamina","lat":-16.6376986,"lon":-67.2527311,"type":"village"},{"id":"2391611374","name":"Villa Barrientos","lat":-16.6292358,"lon":-67.2671799,"type":"village"},{"id":"2393284677","name":"Turculi","lat":-16.6638867,"lon":-67.1559437,"type":"village"},{"id":"2394041271","name":"Pacollo","lat":-16.2043037,"lon":-67.7919135,"type":"village"},{"id":"2394063221","name":"Nogalani","lat":-16.3081074,"lon":-67.6447189,"type":"village"},{"id":"2401479388","name":"Santa Elena del Caripo","lat":-14.5795656,"lon":-66.8236695,"type":"village"},{"id":"2402155208","name":"Rosario del Tacuaral","lat":-15.3132006,"lon":-66.1064019,"type":"village"},{"id":"2402777517","name":"San José del Cavitu","lat":-15.2632999,"lon":-65.9754737,"type":"village"},{"id":"2402809872","name":"San Miguel del Apere","lat":-15.1559191,"lon":-65.8832306,"type":"village"},{"id":"2402828444","name":"Mercedes del Cavitu","lat":-15.4326241,"lon":-65.9902711,"type":"village"},{"id":"2403150565","name":"Maraca'tsunsi / Naranjal","lat":-15.7666513,"lon":-66.0770292,"type":"village"},{"id":"2403849561","name":"San Salvador del Apere","lat":-15.7883047,"lon":-65.9847821,"type":"village"},{"id":"2404982913","name":"Carmen del Matos","lat":-14.7320561,"lon":-66.0755229,"type":"village"},{"id":"2405057025","name":"Puerto San Borja","lat":-14.9828626,"lon":-65.799406,"type":"village"},{"id":"2408647156","name":"Toro Toro","lat":-18.1333834,"lon":-65.7629884,"type":"village"},{"id":"2409033355","name":"Ratije","lat":-14.1327804,"lon":-67.1810397,"type":"village"},{"id":"2409155485","name":"Carmen Alto de Geneshuaya","lat":-11.7096843,"lon":-66.3628503,"type":"village"},{"id":"2410069934","name":"Santiago de Agencha","lat":-20.5886406,"lon":-67.6818195,"type":"village"},{"id":"2410078881","name":"Caquena","lat":-19.8407295,"lon":-67.7707409,"type":"village"},{"id":"2410078882","name":"Tahua","lat":-19.8908485,"lon":-67.6961839,"type":"village"},{"id":"2410097781","name":"La Esmeralda","lat":-14.1748867,"lon":-67.7904981,"type":"village"},{"id":"2410111725","name":"7 de Diciembre","lat":-14.1981131,"lon":-67.7492139,"type":"village"},{"id":"2410606929","name":"Buena Vista","lat":-14.3689391,"lon":-67.5688569,"type":"village"},{"id":"2411051159","name":"Amancaya","lat":-19.3253997,"lon":-64.5582027,"type":"village"},{"id":"2412559464","name":"Alto Chucura","lat":-16.2759053,"lon":-68.0158105,"type":"village"},{"id":"2419707924","name":"Pipini","lat":-17.4859557,"lon":-66.9265915,"type":"village"},{"id":"2444640477","name":"Ichoa","lat":-16.435797,"lon":-65.8863393,"type":"village"},{"id":"2454571086","name":"Uypaca","lat":-16.6051187,"lon":-68.1397142,"type":"village"},{"id":"2514957204","name":"Puente San Pablo","lat":-15.2459777,"lon":-63.8669071,"type":"village"},{"id":"2517901103","name":"Cachimayu","lat":-19.1496368,"lon":-65.2926428,"type":"village"},{"id":"2523338443","name":"Caiza J","lat":-21.7996842,"lon":-63.5566111,"type":"village"},{"id":"2563203072","name":"Villa Rojas","lat":-11.2166692,"lon":-68.7268733,"type":"village"},{"id":"2564437645","name":"San Miguel de Huachi","lat":-15.6772556,"lon":-67.1282051,"type":"village"},{"id":"2565886723","name":"El Puente","lat":-21.2336405,"lon":-65.2062754,"type":"village"},{"id":"2566243715","name":"Surichata","lat":-19.079823,"lon":-66.0597478,"type":"village"},{"id":"2566243716","name":"Tusqui","lat":-19.3848975,"lon":-67.0243555,"type":"village"},{"id":"2566447754","name":"Pucara","lat":-17.89392,"lon":-66.7905308,"type":"village"},{"id":"2566808106","name":"Puerto Pirana","lat":-13.3933024,"lon":-62.9279838,"type":"village"},{"id":"2567943429","name":"Santa Ana de Chiquitos","lat":-18.7080156,"lon":-58.7847599,"type":"village"},{"id":"2568185130","name":"San Juan del Cuverene","lat":-15.0171618,"lon":-65.9558333,"type":"village"},{"id":"2568185132","name":"San Pablo del Cuverene","lat":-15.0239565,"lon":-65.9090885,"type":"village"},{"id":"2568303917","name":"El Desengaño","lat":-14.2736083,"lon":-65.446174,"type":"village"},{"id":"2568303921","name":"Mercedes del Apere","lat":-14.7366877,"lon":-65.7493161,"type":"village"},{"id":"2568657910","name":"Rosario del Apere","lat":-14.6037688,"lon":-65.6282329,"type":"village"},{"id":"2569772667","name":"Rio Blanco","lat":-17.2229297,"lon":-64.4568623,"type":"village"},{"id":"2570124596","name":"Rosario del Yata","lat":-10.9931002,"lon":-65.5788258,"type":"village"},{"id":"2571020256","name":"Ibibobo","lat":-21.5434963,"lon":-62.9944004,"type":"village"},{"id":"2571458554","name":"Santa Elena","lat":-11.7862687,"lon":-67.4844182,"type":"village"},{"id":"2572601074","name":"Loma Alta","lat":-10.7916472,"lon":-65.967223,"type":"village"},{"id":"2572601076","name":"Loma Velarde","lat":-10.82638,"lon":-66.1860384,"type":"village"},{"id":"2572601079","name":"Reserva","lat":-10.5222262,"lon":-66.1584907,"type":"village"},{"id":"2572601083","name":"Santa Crucito","lat":-10.7326414,"lon":-65.9098327,"type":"village"},{"id":"2572601098","name":"Fortaleza","lat":-10.8453958,"lon":-66.333711,"type":"village"},{"id":"2573378792","name":"Santa Rosa del Abuna","lat":-10.6070391,"lon":-67.4534825,"type":"village"},{"id":"2574808446","name":"Masicuri","lat":-18.830109,"lon":-63.7822911,"type":"village"},{"id":"2578050210","name":"Jatun Mayu","lat":-19.4065643,"lon":-64.722946,"type":"village"},{"id":"2579041896","name":"San Pedro de Terebinto","lat":-17.7212023,"lon":-63.4313273,"type":"village"},{"id":"2579041899","name":"Las Cruces","lat":-17.7690152,"lon":-63.3557015,"type":"village"},{"id":"2579041900","name":"Terebinto","lat":-17.7208709,"lon":-63.3808434,"type":"village"},{"id":"2582015777","name":"Palacios","lat":-17.3602594,"lon":-63.6085211,"type":"village"},{"id":"2582015779","name":"San Isidro","lat":-17.4613276,"lon":-63.540906,"type":"village"},{"id":"2582015789","name":"Huaytu","lat":-17.5578238,"lon":-63.6386521,"type":"village"},{"id":"2582332660","name":"San Pablo","lat":-15.8989746,"lon":-63.3040518,"type":"village"},{"id":"2582332665","name":"Santa Maria","lat":-15.7306208,"lon":-63.458571,"type":"village"},{"id":"2582368216","name":"La Senda","lat":-16.4906991,"lon":-62.6767113,"type":"village"},{"id":"2616815517","name":"Puerto Carabuco","lat":-15.7582907,"lon":-69.0643809,"type":"village"},{"id":"2628233356","name":"Kajchiri","lat":-16.6946499,"lon":-68.1277279,"type":"village"},{"id":"2628233357","name":"Tuni","lat":-16.6679368,"lon":-68.1412484,"type":"village"},{"id":"2630107872","name":"Sillota Ancasi","lat":-17.8499106,"lon":-67.3850324,"type":"village"},{"id":"2630118437","name":"Sillota Vito Urinsaya","lat":-17.8289999,"lon":-67.29109,"type":"village"},{"id":"2630216726","name":"Villa Icoya","lat":-18.044962,"lon":-67.3061063,"type":"village"},{"id":"2630312034","name":"Iruma","lat":-17.8261657,"lon":-66.9555181,"type":"village"},{"id":"2630339486","name":"Lekhe Lekheni","lat":-17.9322203,"lon":-66.9322077,"type":"village"},{"id":"2635514411","name":"Agua Dulce","lat":-11.009137,"lon":-66.2085341,"type":"village"},{"id":"2635514420","name":"Frontera","lat":-11.1258494,"lon":-66.2207646,"type":"village"},{"id":"2635514427","name":"Las Piedras","lat":-11.03821,"lon":-66.1332794,"type":"village"},{"id":"2635514433","name":"Candelaria","lat":-11.0489239,"lon":-66.2840754,"type":"village"},{"id":"2635514437","name":"Gonzalo Moreno","lat":-11.082336,"lon":-66.1743252,"type":"village"},{"id":"2635577811","name":"Contravaricia","lat":-11.3690489,"lon":-66.4161592,"type":"village"},{"id":"2635577812","name":"Exaltación","lat":-11.3306577,"lon":-66.6811945,"type":"village"},{"id":"2635577813","name":"Genechiquia","lat":-11.2828341,"lon":-66.8178213,"type":"village"},{"id":"2635577814","name":"Miraflores","lat":-11.104699,"lon":-66.4024682,"type":"village"},{"id":"2635577816","name":"Portachuelo Bajo","lat":-11.2616299,"lon":-66.2863889,"type":"village"},{"id":"2635577817","name":"San Luis","lat":-11.1561265,"lon":-66.5151337,"type":"village"},{"id":"2635577818","name":"Santa Elena","lat":-11.3995009,"lon":-66.5736266,"type":"village"},{"id":"2635577819","name":"Trinidacito","lat":-11.1674283,"lon":-66.5776326,"type":"village"},{"id":"2641508127","name":"Colquiri","lat":-17.3918791,"lon":-67.1249034,"type":"town"},{"id":"2643973359","name":"Nuevo Mundo","lat":-18.9941676,"lon":-64.2931462,"type":"village"},{"id":"2658102807","name":"San Jose de Uchupiamonas","lat":-14.2128964,"lon":-68.0547699,"type":"village"},{"id":"2659560317","name":"Tolacollo","lat":-17.2340489,"lon":-69.5557515,"type":"village"},{"id":"2659601907","name":"Pairumani Grande","lat":-17.3267924,"lon":-69.4278262,"type":"village"},{"id":"2660172248","name":"Tapacarí","lat":-17.5163607,"lon":-66.6202383,"type":"village"},{"id":"2660295660","name":"Chillca Grande","lat":-17.5961041,"lon":-66.630953,"type":"village"},{"id":"2660295740","name":"Kullkhu Pampa","lat":-17.8127171,"lon":-66.8453983,"type":"village"},{"id":"2660296759","name":"Laguna Jankho Kkota","lat":-17.7759832,"lon":-66.8157018,"type":"village"},{"id":"2660589071","name":"Bautista Saavedra","lat":-17.2091507,"lon":-69.257334,"type":"village"},{"id":"2660589073","name":"José Ballivián","lat":-17.1417072,"lon":-69.1919821,"type":"village"},{"id":"2660667910","name":"Santiago de Huari Pujio","lat":-17.1370786,"lon":-69.0480726,"type":"village"},{"id":"2660732174","name":"Parachi","lat":-17.2960451,"lon":-69.4684797,"type":"village"},{"id":"2666918232","name":"San Miguel del Bala","lat":-14.5060694,"lon":-67.4851126,"type":"village"},{"id":"2675563081","name":"Chumuquipa","lat":-17.4137809,"lon":-69.2560541,"type":"village"},{"id":"2675563095","name":"Kollpa","lat":-17.0613633,"lon":-69.2992757,"type":"village"},{"id":"2675591221","name":"Limani","lat":-17.0540142,"lon":-69.2267762,"type":"village"},{"id":"2675591222","name":"Machacuyo","lat":-17.0421721,"lon":-69.2163416,"type":"village"},{"id":"2675591223","name":"Mamani","lat":-17.0292533,"lon":-69.241588,"type":"village"},{"id":"2675591225","name":"Seca Amaya","lat":-17.0394911,"lon":-69.2441069,"type":"village"},{"id":"2675646099","name":"Calasaya Villalobos","lat":-17.155449,"lon":-69.1759546,"type":"village"},{"id":"2675646100","name":"Jankho Amaya","lat":-17.0741316,"lon":-69.1786919,"type":"village"},{"id":"2675646101","name":"Winto","lat":-17.0832079,"lon":-69.1645405,"type":"village"},{"id":"2677101756","name":"Pahaza","lat":-17.4710264,"lon":-68.9134496,"type":"village"},{"id":"2677101757","name":"Rosario","lat":-17.4235796,"lon":-68.8168069,"type":"village"},{"id":"2677272991","name":"Chocorosi","lat":-17.1401869,"lon":-68.8492374,"type":"village"},{"id":"2677272993","name":"Vichaya","lat":-17.1172414,"lon":-68.7809689,"type":"village"},{"id":"2677290737","name":"Artasivi","lat":-17.0277078,"lon":-68.9506051,"type":"village"},{"id":"2677332080","name":"Villa Pusuma Alto machaca","lat":-16.8029581,"lon":-69.1650187,"type":"village"},{"id":"2677356010","name":"Conchacollo","lat":-16.7352764,"lon":-68.9976891,"type":"village"},{"id":"2677555714","name":"Chuncar Khota","lat":-16.7915147,"lon":-69.0213917,"type":"village"},{"id":"2678881611","name":"Jalantani","lat":-16.8396743,"lon":-68.5045152,"type":"village"},{"id":"2679045273","name":"Laguna Blanca","lat":-17.6077086,"lon":-68.6176887,"type":"village"},{"id":"2679045274","name":"Max Toledo","lat":-17.2432302,"lon":-68.6754399,"type":"village"},{"id":"2679045276","name":"Okoruro","lat":-17.8672171,"lon":-68.760767,"type":"village"},{"id":"2679045279","name":"Ulloma","lat":-17.4910579,"lon":-68.4908609,"type":"village"},{"id":"2679060572","name":"Antaquira","lat":-17.0862816,"lon":-68.6694334,"type":"village"},{"id":"2679060577","name":"Chojna","lat":-17.1251786,"lon":-68.7108781,"type":"village"},{"id":"2679079929","name":"Collana","lat":-16.8588182,"lon":-68.6645204,"type":"village"},{"id":"2679079930","name":"Kasillunca","lat":-17.0378538,"lon":-68.7550683,"type":"village"},{"id":"2679096483","name":"Caquingora","lat":-17.2461101,"lon":-68.4945868,"type":"village"},{"id":"2679096488","name":"General Pando","lat":-17.2129457,"lon":-68.4912039,"type":"village"},{"id":"2679168503","name":"Calteca","lat":-17.3681349,"lon":-68.1841844,"type":"village"},{"id":"2679168510","name":"Romero Pampa","lat":-17.3604356,"lon":-68.2354414,"type":"village"},{"id":"2679168522","name":"Pujrata","lat":-17.2838028,"lon":-68.3191947,"type":"village"},{"id":"2679307193","name":"Chacarilla","lat":-17.5808633,"lon":-68.2045888,"type":"village"},{"id":"2679307198","name":"Puerto Aroma","lat":-17.4623424,"lon":-68.1607727,"type":"village"},{"id":"2698048944","name":"Avircato","lat":-16.6777019,"lon":-68.0237588,"type":"village"},{"id":"2706907500","name":"Piso Firme","lat":-13.629483,"lon":-61.739152,"type":"village"},{"id":"2708718412","name":"Remanso","lat":-13.5253759,"lon":-61.87357,"type":"village"},{"id":"2715024726","name":"Mukden","lat":-11.187304,"lon":-69.0287997,"type":"village"},{"id":"2715024727","name":"San Jose","lat":-11.2078386,"lon":-68.9411135,"type":"village"},{"id":"2765922959","name":"Samuzabety","lat":-16.8158808,"lon":-65.5725888,"type":"village"},{"id":"2765922964","name":"Isinuta","lat":-16.7319546,"lon":-65.6409743,"type":"village"},{"id":"2765922980","name":"Eterazama","lat":-16.8323501,"lon":-65.5209309,"type":"village"},{"id":"2783192311","name":"Huancane","lat":-16.3777751,"lon":-67.5356237,"type":"village"},{"id":"2794716627","name":"Tajma","lat":-16.3758278,"lon":-67.4787346,"type":"village"},{"id":"2795771633","name":"Colpar","lat":-16.3385483,"lon":-67.566398,"type":"village"},{"id":"2795772925","name":"Rio Blanco","lat":-16.336983,"lon":-67.5533115,"type":"village"},{"id":"2796612411","name":"Montequilla","lat":-16.4646713,"lon":-67.5257694,"type":"village"},{"id":"2813346173","name":"Belen de Challamayo","lat":-19.225271,"lon":-66.3962243,"type":"village"},{"id":"2815477166","name":"Jupichaque","lat":-20.1407904,"lon":-65.8278529,"type":"village"},{"id":"2816913942","name":"Challa Cruz","lat":-18.5030228,"lon":-67.4051533,"type":"village"},{"id":"2835088522","name":"Cedro Mayo","lat":-16.2216894,"lon":-67.746821,"type":"village"},{"id":"2835718433","name":"Pillina Vilama","lat":-21.4061367,"lon":-67.3057068,"type":"village"},{"id":"2835719338","name":"Cerro Gordo","lat":-21.5204797,"lon":-67.3581097,"type":"village"},{"id":"2860834864","name":"Moro Moro","lat":-18.3663622,"lon":-64.3236374,"type":"village"},{"id":"2860853476","name":"Quinori","lat":-18.5040314,"lon":-64.3983748,"type":"village"},{"id":"2862097815","name":"El Trigal","lat":-18.306043,"lon":-64.1492826,"type":"village"},{"id":"2862099883","name":"San Juan del Chaco","lat":-18.3375231,"lon":-64.2029318,"type":"village"},{"id":"2863295953","name":"Joya Charal","lat":-18.6142618,"lon":-64.8331931,"type":"village"},{"id":"2868436585","name":"Quirusillas","lat":-18.3348864,"lon":-63.9461345,"type":"village"},{"id":"2868641898","name":"Monte Grande de Villa Serrano","lat":-18.8884824,"lon":-64.3474915,"type":"village"},{"id":"2868810681","name":"Pampas del Tigre","lat":-19.1161981,"lon":-64.1927899,"type":"village"},{"id":"2869404965","name":"Nohata","lat":-20.0243634,"lon":-65.4642009,"type":"village"},{"id":"2872882368","name":"Huayllajara","lat":-19.6191096,"lon":-64.9208334,"type":"village"},{"id":"2874295249","name":"La Sillada","lat":-19.8027335,"lon":-64.6017405,"type":"village"},{"id":"2874298088","name":"San Isidro de Marcavi","lat":-19.9193998,"lon":-64.5976888,"type":"village"},{"id":"2874544254","name":"Tablani","lat":-20.0598706,"lon":-64.5642023,"type":"village"},{"id":"2874630606","name":"Torre de Linares","lat":-19.9019317,"lon":-64.7760268,"type":"village"},{"id":"2874632143","name":"Pasla","lat":-19.9476519,"lon":-64.7820951,"type":"village"},{"id":"2876389811","name":"Entre Rios","lat":-20.0843324,"lon":-65.0119292,"type":"village"},{"id":"2878321269","name":"Huaraya","lat":-18.0335273,"lon":-66.4896749,"type":"village"},{"id":"2878323139","name":"Cachari","lat":-18.0560017,"lon":-66.3362015,"type":"village"},{"id":"2881394166","name":"Achuma","lat":-20.9143163,"lon":-65.3413427,"type":"village"},{"id":"2881787523","name":"Vichacla","lat":-20.6328849,"lon":-65.5884338,"type":"village"},{"id":"2883475898","name":"Yuticancha","lat":-21.915488,"lon":-65.0653646,"type":"village"},{"id":"2884340529","name":"Cosorio","lat":-17.6706766,"lon":-63.0111366,"type":"village"},{"id":"2884368560","name":"Zafranilla","lat":-17.6175623,"lon":-62.989635,"type":"village"},{"id":"2884397602","name":"Catavi de Sica Sica","lat":-17.4288262,"lon":-67.4503304,"type":"village"},{"id":"2885304460","name":"Potreros","lat":-19.0756454,"lon":-64.0909835,"type":"village"},{"id":"2885886273","name":"Cayara","lat":-19.5507409,"lon":-65.8799313,"type":"village"},{"id":"2889459296","name":"Tholapampa","lat":-20.2138662,"lon":-66.5686169,"type":"village"},{"id":"2897219379","name":"Jatun Wasi","lat":-19.494569,"lon":-64.7232935,"type":"village"},{"id":"2901420361","name":"Pihipini","lat":-18.337556,"lon":-65.9458874,"type":"village"},{"id":"2901465371","name":"Siquimira","lat":-18.0188028,"lon":-65.7334786,"type":"village"},{"id":"2903165264","name":"Achacota","lat":-17.7307377,"lon":-66.5728196,"type":"village"},{"id":"2903168244","name":"Aquerana","lat":-17.770369,"lon":-66.5962979,"type":"village"},{"id":"2958104846","name":"Buena Vista","lat":-12.4553798,"lon":-64.2305822,"type":"village"},{"id":"2966033903","name":"Cahualli Maga","lat":-19.1185041,"lon":-66.7692543,"type":"village"},{"id":"2982840267","name":"Eje Pampa","lat":-18.5384513,"lon":-65.1708885,"type":"village"},{"id":"2982961182","name":"Chawarmayu","lat":-18.2600509,"lon":-65.1493087,"type":"village"},{"id":"2983023989","name":"Villa Granado","lat":-18.2067634,"lon":-65.036882,"type":"village"},{"id":"3043530295","name":"Chapiri","lat":-17.9605205,"lon":-68.413005,"type":"village"},{"id":"3043530331","name":"Para Parani","lat":-18.0265821,"lon":-68.4691001,"type":"village"},{"id":"3043568582","name":"Tomarapi","lat":-18.0236038,"lon":-68.8693246,"type":"village"},{"id":"3044538738","name":"Antajarata","lat":-18.3448614,"lon":-68.4932379,"type":"village"},{"id":"3044538742","name":"Callcu Uma","lat":-18.3628519,"lon":-68.494277,"type":"village"},{"id":"3044538750","name":"Capusiri","lat":-18.1386177,"lon":-68.2340035,"type":"village"},{"id":"3044538757","name":"Chachacomani","lat":-18.3552035,"lon":-68.9466136,"type":"village"},{"id":"3044538760","name":"Challuta","lat":-18.3408697,"lon":-68.4782685,"type":"village"},{"id":"3044538768","name":"Entre Rios","lat":-18.1842809,"lon":-68.6577965,"type":"village"},{"id":"3044538779","name":"Itizani","lat":-18.3192684,"lon":-68.0649298,"type":"village"},{"id":"3044538782","name":"Jalsuri","lat":-18.0424548,"lon":-68.2702188,"type":"village"},{"id":"3044538801","name":"Macaya","lat":-18.5377619,"lon":-68.9450481,"type":"village"},{"id":"3044538817","name":"Ayllu Originario Jacha Salli","lat":-18.2139975,"lon":-68.3030239,"type":"village"},{"id":"3044538821","name":"Quisi Kkollu","lat":-18.1444204,"lon":-68.1499373,"type":"village"},{"id":"3044538827","name":"Sahucine","lat":-18.4544716,"lon":-68.1574174,"type":"village"},{"id":"3044538936","name":"Thola Sirca","lat":-18.1761124,"lon":-68.6368505,"type":"village"},{"id":"3044538941","name":"Titiri","lat":-18.3886689,"lon":-68.3322598,"type":"village"},{"id":"3044538943","name":"Toraquiri","lat":-18.0813501,"lon":-68.4051535,"type":"village"},{"id":"3044538947","name":"Sullca Jilanaca","lat":-18.182262,"lon":-68.7597283,"type":"village"},{"id":"3045489792","name":"Calazaya","lat":-17.662653,"lon":-68.2978498,"type":"village"},{"id":"3045489798","name":"Crucero","lat":-17.7911471,"lon":-68.2864227,"type":"village"},{"id":"3045489802","name":"Iruma","lat":-17.7461951,"lon":-68.3189385,"type":"village"},{"id":"3045489811","name":"Pairani","lat":-17.7393796,"lon":-68.2304339,"type":"village"},{"id":"3045489817","name":"Viscachani","lat":-17.76521,"lon":-68.3277141,"type":"village"},{"id":"3045489818","name":"Vituyo","lat":-17.6890754,"lon":-68.2583266,"type":"village"},{"id":"3045489819","name":"Wila Apacheta","lat":-17.7721697,"lon":-68.2012719,"type":"village"},{"id":"3049839352","name":"Sacabaya","lat":-18.5719715,"lon":-68.7878278,"type":"village"},{"id":"3049839353","name":"Sullka Pumiri","lat":-18.2829143,"lon":-68.402915,"type":"village"},{"id":"3050149502","name":"Mitma","lat":-18.0735113,"lon":-68.107271,"type":"village"},{"id":"3050149507","name":"Jajta","lat":-18.077453,"lon":-68.2272285,"type":"village"},{"id":"3050149512","name":"Pacachoco","lat":-18.0314461,"lon":-68.0117298,"type":"village"},{"id":"3050149525","name":"Yauri Chambi","lat":-18.0202901,"lon":-68.1477825,"type":"village"},{"id":"3050213880","name":"Taipi Collu","lat":-18.1534193,"lon":-68.0444214,"type":"village"},{"id":"3050213886","name":"Yauriri","lat":-18.1270404,"lon":-68.2403455,"type":"village"},{"id":"3050332552","name":"Chiscalla","lat":-18.2183422,"lon":-68.2368605,"type":"village"},{"id":"3050332558","name":"Huañoco","lat":-18.4075082,"lon":-68.2159689,"type":"village"},{"id":"3050332562","name":"Huiti Anta","lat":-18.2476479,"lon":-68.2430551,"type":"village"},{"id":"3050332571","name":"Quia Quiani","lat":-18.3693278,"lon":-68.4758472,"type":"village"},{"id":"3050332580","name":"Yakha Yakhio","lat":-18.2309016,"lon":-68.1209115,"type":"village"},{"id":"3050480688","name":"Centro Berlin","lat":-18.5887144,"lon":-68.239724,"type":"village"},{"id":"3050480703","name":"Centro Capi Payrumani","lat":-18.616716,"lon":-68.0903038,"type":"village"},{"id":"3051107850","name":"Sulka Mallku","lat":-18.2486689,"lon":-67.9805816,"type":"village"},{"id":"3051107854","name":"Suyca Tunka","lat":-18.007655,"lon":-67.6235863,"type":"village"},{"id":"3051107856","name":"Challavito","lat":-18.0288923,"lon":-67.5975893,"type":"village"},{"id":"3051107860","name":"Choquecota","lat":-18.1947868,"lon":-68.0035998,"type":"village"},{"id":"3051107863","name":"Julo","lat":-18.1142538,"lon":-67.8282751,"type":"village"},{"id":"3051107867","name":"Sayjasi Jacha Villque","lat":-18.0997769,"lon":-67.7841317,"type":"village"},{"id":"3051107885","name":"Tacagua","lat":-18.0350733,"lon":-67.6578401,"type":"village"},{"id":"3051107887","name":"Tojire","lat":-18.0197921,"lon":-67.6694071,"type":"village"},{"id":"3067314192","name":"Avaroa","lat":-11.0830941,"lon":-68.7987715,"type":"village"},{"id":"3067314201","name":"Buena Vista","lat":-11.2232983,"lon":-68.9042812,"type":"village"},{"id":"3067314218","name":"Castaňera","lat":-11.2746462,"lon":-68.9173155,"type":"village"},{"id":"3067317043","name":"Filadelfia","lat":-11.3466248,"lon":-68.7571097,"type":"village"},{"id":"3067317045","name":"Fortaleza","lat":-11.4469135,"lon":-68.5700287,"type":"village"},{"id":"3067317127","name":"Villa Marieta","lat":-11.2132645,"lon":-68.977012,"type":"village"},{"id":"3067976099","name":"Reserva","lat":-11.1591001,"lon":-68.6542312,"type":"village"},{"id":"3068656701","name":"Nareuda","lat":-11.2796286,"lon":-69.0695933,"type":"village"},{"id":"3068943797","name":"Alianza","lat":-11.4894492,"lon":-67.9776638,"type":"village"},{"id":"3069109751","name":"Batraja","lat":-11.2973143,"lon":-67.3234722,"type":"village"},{"id":"3069109760","name":"Conquista","lat":-11.308516,"lon":-67.1799056,"type":"village"},{"id":"3072382873","name":"Puerto Consuelo II","lat":-10.5317335,"lon":-65.5981591,"type":"village"},{"id":"3072382874","name":"Nueva Esperanza","lat":-10.0581118,"lon":-65.3413493,"type":"village"},{"id":"3072382877","name":"Perceverancia","lat":-10.561585,"lon":-65.7097762,"type":"village"},{"id":"3076949635","name":"Puerto Manu","lat":-9.88828,"lon":-66.3814096,"type":"village"},{"id":"3077006902","name":"19 de Septiembre","lat":-10.4962194,"lon":-66.0385437,"type":"village"},{"id":"3077190115","name":"Mangalito","lat":-10.8492291,"lon":-66.1399972,"type":"village"},{"id":"3077227368","name":"Tin Tin","lat":-18.0299566,"lon":-65.4559218,"type":"village"},{"id":"3077266541","name":"Pallar","lat":-10.8412233,"lon":-66.2275084,"type":"village"},{"id":"3077266543","name":"Valparaiso","lat":-10.9373526,"lon":-66.0966151,"type":"village"},{"id":"3077760734","name":"Derrepente","lat":-10.9373488,"lon":-66.9406022,"type":"village"},{"id":"3077760735","name":"Humaita","lat":-10.8194591,"lon":-66.447351,"type":"village"},{"id":"3077760736","name":"Ingavi","lat":-10.9539964,"lon":-66.8290114,"type":"village"},{"id":"3077786167","name":"Puerto Evo Morales","lat":-10.3378985,"lon":-67.1944374,"type":"village"},{"id":"3081302771","name":"San German","lat":-17.3488544,"lon":-64.0920717,"type":"village"},{"id":"3081983794","name":"Kayarani","lat":-17.4764043,"lon":-65.5228739,"type":"village"},{"id":"3089046362","name":"Chua Cocani","lat":-16.1925251,"lon":-68.744693,"type":"village"},{"id":"3092432675","name":"Belen Sora Chico","lat":-18.0386702,"lon":-67.1917256,"type":"village"},{"id":"3092432676","name":"Belen","lat":-18.2139392,"lon":-67.3348397,"type":"village"},{"id":"3092432677","name":"Bella Vista","lat":-18.0540764,"lon":-67.638356,"type":"village"},{"id":"3092432684","name":"Chanes Ayma","lat":-18.1658533,"lon":-67.5638042,"type":"village"},{"id":"3092432693","name":"Chiuna Saucari","lat":-18.1556445,"lon":-67.6377064,"type":"village"},{"id":"3092432694","name":"Choquecota","lat":-18.0981677,"lon":-67.8956174,"type":"village"},{"id":"3092432698","name":"Churo Pakho Pampa","lat":-18.0814267,"lon":-67.0177619,"type":"village"},{"id":"3092432699","name":"Churu Esquiña","lat":-18.1297822,"lon":-67.0334945,"type":"village"},{"id":"3092432702","name":"Colpas","lat":-18.2181638,"lon":-67.5392833,"type":"village"},{"id":"3092432703","name":"Collpa Huma","lat":-18.2046659,"lon":-67.5882622,"type":"village"},{"id":"3092432709","name":"Cotaña","lat":-18.1036019,"lon":-67.6270861,"type":"village"},{"id":"3092432716","name":"Rancho Juaniquina","lat":-18.2262806,"lon":-67.1938872,"type":"village"},{"id":"3092432717","name":"Huayllapacha","lat":-18.2079149,"lon":-67.7842148,"type":"village"},{"id":"3092432724","name":"Husay Pijña","lat":-18.0653291,"lon":-67.0242179,"type":"village"},{"id":"3092432726","name":"Iquitaya","lat":-18.0162069,"lon":-67.1008137,"type":"village"},{"id":"3092434930","name":"Irumita","lat":-18.0154362,"lon":-67.0173504,"type":"village"},{"id":"3092434946","name":"Pampa Anaco","lat":-18.2139278,"lon":-67.522101,"type":"village"},{"id":"3092434948","name":"Pilco Pampa","lat":-18.1210662,"lon":-67.0140078,"type":"village"},{"id":"3092434953","name":"Rasuta","lat":-18.2452173,"lon":-67.8213621,"type":"village"},{"id":"3092434954","name":"Rodeo Guaygua","lat":-18.1270157,"lon":-67.5862541,"type":"village"},{"id":"3092434962","name":"Sirapata","lat":-18.1138725,"lon":-67.0201332,"type":"village"},{"id":"3092434967","name":"Villa Tarucachi","lat":-18.1721945,"lon":-67.6962842,"type":"village"},{"id":"3092434970","name":"Thola Pucara","lat":-18.2552629,"lon":-67.840467,"type":"village"},{"id":"3092849234","name":"Culluri","lat":-18.2663056,"lon":-67.5420311,"type":"village"},{"id":"3096563015","name":"La Tranca","lat":-18.1780443,"lon":-64.4268967,"type":"village"},{"id":"3098096977","name":"La Palizada","lat":-18.0613784,"lon":-64.4322027,"type":"village"},{"id":"3098096978","name":"La Tranca","lat":-18.1780443,"lon":-64.4268967,"type":"village"},{"id":"3098096982","name":"Pulquina Arriba","lat":-17.9498789,"lon":-64.429293,"type":"village"},{"id":"3098096984","name":"San Isidro","lat":-18.0419355,"lon":-64.4323375,"type":"village"},{"id":"3098096985","name":"San Jose de la Capilla","lat":-18.0998947,"lon":-64.437821,"type":"village"},{"id":"3103230273","name":"Chojňoco","lat":-17.2500915,"lon":-69.5068753,"type":"village"},{"id":"3103230281","name":"Jutuni Alto","lat":-17.2836583,"lon":-69.5462146,"type":"village"},{"id":"3103230282","name":"Jutuni Bajo","lat":-17.2985229,"lon":-69.5306298,"type":"village"},{"id":"3103236610","name":"Challajace","lat":-17.4163931,"lon":-69.1495295,"type":"village"},{"id":"3103236622","name":"Pampa Tarqui","lat":-17.3441671,"lon":-69.073111,"type":"village"},{"id":"3103236625","name":"Pulltoco","lat":-17.3635785,"lon":-69.0813864,"type":"village"},{"id":"3103236626","name":"Sancayuni","lat":-17.4137656,"lon":-69.1557336,"type":"village"},{"id":"3103239030","name":"Tancani","lat":-17.4203891,"lon":-69.1637159,"type":"village"},{"id":"3129420569","name":"Pucarani","lat":-16.3998414,"lon":-68.4778181,"type":"village"},{"id":"3139139192","name":"Tiquipaya","lat":-17.3381676,"lon":-66.2188861,"type":"city"},{"id":"3139434714","name":"Pampa Colorada","lat":-18.8579202,"lon":-66.1050995,"type":"village"},{"id":"3140315498","name":"Carcaje","lat":-17.5429531,"lon":-66.0567764,"type":"village"},{"id":"3140315500","name":"Challviri","lat":-17.1328369,"lon":-66.1059531,"type":"village"},{"id":"3140315502","name":"Llave Mayu","lat":-17.6025148,"lon":-66.0000069,"type":"village"},{"id":"3140315511","name":"Sindicato Agrario de la Comunidad de Huerta Mayu","lat":-17.6375878,"lon":-66.1138492,"type":"village"},{"id":"3140315517","name":"Layupampa","lat":-17.9990727,"lon":-66.4473518,"type":"village"},{"id":"3140315518","name":"Mamanaca","lat":-17.5845658,"lon":-66.0539633,"type":"village"},{"id":"3140315525","name":"Ovejeria Larama","lat":-17.9497164,"lon":-66.2900746,"type":"village"},{"id":"3140316936","name":"Tuscapujio","lat":-17.9853925,"lon":-66.1238985,"type":"village"},{"id":"3140316938","name":"Rayo Pampa","lat":-17.5468783,"lon":-66.1006222,"type":"village"},{"id":"3140316939","name":"Villa Copacabana","lat":-17.5370933,"lon":-66.0728735,"type":"village"},{"id":"3140316942","name":"Villa Mercedes","lat":-17.5738544,"lon":-66.0386162,"type":"village"},{"id":"3140316943","name":"Villa San Jose","lat":-17.6404735,"lon":-66.0317419,"type":"village"},{"id":"3140674767","name":"Piriquina","lat":-18.0783594,"lon":-66.0172719,"type":"village"},{"id":"3141855738","name":"Carasi","lat":-18.3188857,"lon":-65.6891184,"type":"village"},{"id":"3141855743","name":"Churitaca","lat":-18.1064422,"lon":-65.9902937,"type":"village"},{"id":"3141855744","name":"Condor Cuchu","lat":-18.1548189,"lon":-66.040324,"type":"village"},{"id":"3141855751","name":"Viojo","lat":-18.1332226,"lon":-65.9531843,"type":"village"},{"id":"3141855760","name":"Jatun Cancha","lat":-18.8594965,"lon":-65.7096774,"type":"village"},{"id":"3141855763","name":"Julo Grande","lat":-18.0340719,"lon":-65.7881038,"type":"village"},{"id":"3141855764","name":"Kayorani","lat":-18.4902415,"lon":-65.8062087,"type":"village"},{"id":"3141855766","name":"Khaspi Cancha","lat":-18.5802818,"lon":-65.7070556,"type":"village"},{"id":"3141855768","name":"Comunidad Ayllo Pumiri","lat":-18.1170382,"lon":-66.0742374,"type":"village"},{"id":"3141855769","name":"Cotani Hacienda","lat":-18.1317016,"lon":-65.97374,"type":"village"},{"id":"3141855771","name":"Yambata","lat":-18.0471589,"lon":-65.9490969,"type":"village"},{"id":"3141855772","name":"Llucho","lat":-18.8764082,"lon":-65.8379293,"type":"village"},{"id":"3141855773","name":"Lurucachi","lat":-18.7261633,"lon":-65.9186,"type":"village"},{"id":"3141855775","name":"Milluni","lat":-18.8049261,"lon":-65.8788548,"type":"village"},{"id":"3141855777","name":"Ocurí","lat":-18.8424637,"lon":-65.7960982,"type":"village"},{"id":"3141855778","name":"Fichicachi","lat":-18.8230424,"lon":-65.8828901,"type":"village"},{"id":"3141855780","name":"Pocosima","lat":-18.3809829,"lon":-65.7131398,"type":"village"},{"id":"3141855783","name":"Pocosuco","lat":-18.2563075,"lon":-65.7359669,"type":"village"},{"id":"3141855784","name":"Chiñata","lat":-18.2778578,"lon":-65.8263955,"type":"village"},{"id":"3141855787","name":"Sumuri","lat":-18.4986544,"lon":-65.6687202,"type":"village"},{"id":"3141855791","name":"Toracari","lat":-18.1311345,"lon":-66.1368082,"type":"village"},{"id":"3141855792","name":"Thurumani","lat":-18.6662451,"lon":-65.6622725,"type":"village"},