[{"id":"26151301","name":"Гомель","lat":52.4238936,"lon":31.0131698,"type":"city"},{"id":"26162465","name":"Мінск","lat":53.9024716,"lon":27.5618225,"type":"city"},{"id":"27171628","name":"Брэст","lat":52.093751,"lon":23.6851851,"type":"city"},{"id":"27251066","name":"Любань","lat":52.7919112,"lon":27.9994587,"type":"town"},{"id":"27253144","name":"Слуцк","lat":53.0277354,"lon":27.5519747,"type":"town"},{"id":"119292055","name":"Бігосава","lat":55.8366784,"lon":27.7392986,"type":"village"},{"id":"119306277","name":"Верхнядзвінск","lat":55.7829656,"lon":27.9355555,"type":"town"},{"id":"119306895","name":"Наваполацк","lat":55.5348855,"lon":28.64519,"type":"town"},{"id":"119310785","name":"Полацк","lat":55.4854656,"lon":28.7682339,"type":"town"},{"id":"119357582","name":"Браслаў","lat":55.639469,"lon":27.031643,"type":"town"},{"id":"130200330","name":"Друя","lat":55.7869548,"lon":27.464213,"type":"village"},{"id":"130200396","name":"Слабодка","lat":55.685925,"lon":27.181654,"type":"village"},{"id":"130200848","name":"Мёры","lat":55.622227,"lon":27.615358,"type":"town"},{"id":"130206091","name":"Дзісна","lat":55.567233,"lon":28.21365,"type":"town"},{"id":"132174058","name":"Шуміліна","lat":55.298943,"lon":29.617481,"type":"town"},{"id":"132241966","name":"Росіца","lat":55.9190455,"lon":27.7585382,"type":"village"},{"id":"132246871","name":"Асвея","lat":56.016373,"lon":28.107273,"type":"town"},{"id":"193823659","name":"Бабруйск","lat":53.1449683,"lon":29.2281209,"type":"city"},{"id":"193824312","name":"Жлобін","lat":52.8909181,"lon":30.0368186,"type":"town"},{"id":"242978887","name":"Віцебск","lat":55.1930197,"lon":30.2070437,"type":"city"},{"id":"242978889","name":"Камянец","lat":52.401864,"lon":23.8218253,"type":"town"},{"id":"242978890","name":"Жабінка","lat":52.1941201,"lon":24.0199973,"type":"town"},{"id":"242978891","name":"Вялікая Бераставіца","lat":53.1930575,"lon":24.017197,"type":"town"},{"id":"242978892","name":"Маларыта","lat":51.7919347,"lon":24.0835253,"type":"town"},{"id":"242978893","name":"Свіслач","lat":53.036549,"lon":24.094183,"type":"town"},{"id":"242978894","name":"Кобрын","lat":52.2085858,"lon":24.3542923,"type":"town"},{"id":"242978895","name":"Пружаны","lat":52.5581924,"lon":24.456711,"type":"town"},{"id":"242978897","name":"Масты","lat":53.4134113,"lon":24.5428406,"type":"town"},{"id":"242978898","name":"Зэльва","lat":53.1494882,"lon":24.8171039,"type":"town"},{"id":"242978899","name":"Шчучын","lat":53.6045037,"lon":24.7420522,"type":"town"},{"id":"242978900","name":"Драгічын","lat":52.1855013,"lon":25.1602598,"type":"town"},{"id":"242978901","name":"Бяроза","lat":52.5345683,"lon":24.9844968,"type":"town"},{"id":"242978903","name":"Ліда","lat":53.891636,"lon":25.3022894,"type":"city"},{"id":"242978904","name":"Слонім","lat":53.0927071,"lon":25.3193209,"type":"town"},{"id":"242978905","name":"Івацэвічы","lat":52.7090639,"lon":25.3386297,"type":"town"},{"id":"242978906","name":"Іванава","lat":52.1459395,"lon":25.5326538,"type":"town"},{"id":"242978907","name":"Дзятлава","lat":53.4656997,"lon":25.4053485,"type":"town"},{"id":"242978908","name":"Іўе","lat":53.9297106,"lon":25.7703798,"type":"town"},{"id":"242978909","name":"Навагрудак","lat":53.5942493,"lon":25.8216337,"type":"town"},{"id":"242978910","name":"Ашмяны","lat":54.4252347,"lon":25.9374195,"type":"town"},{"id":"242978911","name":"Баранавічы","lat":53.1322925,"lon":26.0184156,"type":"city"},{"id":"242978912","name":"Пінск","lat":52.1113862,"lon":26.1025274,"type":"city"},{"id":"242978913","name":"Астравец","lat":54.6149379,"lon":25.9565998,"type":"town"},{"id":"242978914","name":"Смаргонь","lat":54.4817816,"lon":26.4012822,"type":"town"},{"id":"242978916","name":"Карэлічы","lat":53.5706336,"lon":26.1391995,"type":"town"},{"id":"242978917","name":"Ляхавічы","lat":53.0373838,"lon":26.2660234,"type":"town"},{"id":"242978918","name":"Нясвіж","lat":53.218899,"lon":26.681732,"type":"town"},{"id":"242978919","name":"Стоўбцы","lat":53.4805863,"lon":26.7373366,"type":"town"},{"id":"242978920","name":"Валожын","lat":54.0888494,"lon":26.5257275,"type":"town"},{"id":"242978921","name":"Клецк","lat":53.0661204,"lon":26.632966,"type":"town"},{"id":"242978923","name":"Вілейка","lat":54.4880686,"lon":26.9145229,"type":"town"},{"id":"242978924","name":"Столін","lat":51.889572,"lon":26.849598,"type":"town"},{"id":"242978925","name":"Лунінец","lat":52.245228,"lon":26.797758,"type":"town"},{"id":"242978926","name":"Капыль","lat":53.1514024,"lon":27.0906929,"type":"town"},{"id":"242978928","name":"Мядзел","lat":54.8707533,"lon":26.9299904,"type":"town"},{"id":"242978929","name":"Паставы","lat":55.1129217,"lon":26.83992,"type":"town"},{"id":"242978930","name":"Салігорск","lat":52.7840567,"lon":27.5420336,"type":"city"},{"id":"242978931","name":"Шаркаўшчына","lat":55.3657233,"lon":27.46663,"type":"town"},{"id":"242978932","name":"Дзяржынск","lat":53.6852149,"lon":27.1314539,"type":"town"},{"id":"242978934","name":"Глыбокае","lat":55.139235,"lon":27.6845787,"type":"town"},{"id":"242978935","name":"Докшыцы","lat":54.8945582,"lon":27.7603777,"type":"town"},{"id":"242978939","name":"Лагойск","lat":54.2005054,"lon":27.8475204,"type":"town"},{"id":"242978941","name":"Жыткавічы","lat":52.2168809,"lon":27.8548239,"type":"town"},{"id":"242978942","name":"Пухавічы","lat":53.5283797,"lon":28.2527017,"type":"village"},{"id":"242978943","name":"Старыя Дарогі","lat":53.0393068,"lon":28.265286,"type":"town"},{"id":"242978944","name":"Лельчыцы","lat":51.7861783,"lon":28.3289657,"type":"town"},{"id":"242978945","name":"Смалявічы","lat":54.0299337,"lon":28.089752,"type":"town"},{"id":"242978947","name":"Лепель","lat":54.8866187,"lon":28.6936245,"type":"town"},{"id":"242978948","name":"Ушачы","lat":55.1790267,"lon":28.617221,"type":"town"},{"id":"242978949","name":"Акцябрскі","lat":52.6470794,"lon":28.8831413,"type":"town"},{"id":"242978951","name":"Чэрвень","lat":53.7141823,"lon":28.4181408,"type":"town"},{"id":"242978952","name":"Барысаў","lat":54.2240665,"lon":28.5117849,"type":"city"},{"id":"242978953","name":"Глуск","lat":52.8990282,"lon":28.6855599,"type":"town"},{"id":"242978955","name":"Крупкі","lat":54.317196,"lon":29.139851,"type":"town"},{"id":"242978956","name":"Чашнікі","lat":54.8569819,"lon":29.1598825,"type":"town"},{"id":"242978959","name":"Расоны","lat":55.9035794,"lon":28.8138759,"type":"town"},{"id":"242978960","name":"Беразіно","lat":53.8346711,"lon":28.9938174,"type":"town"},{"id":"242978961","name":"Ельск","lat":51.8062942,"lon":29.1519559,"type":"town"},{"id":"242978964","name":"Круглае","lat":54.2484021,"lon":29.7971582,"type":"town"},{"id":"242978965","name":"Бялынічы","lat":53.9982176,"lon":29.7099785,"type":"town"},{"id":"242978966","name":"Нароўля","lat":51.7975734,"lon":29.5068919,"type":"town"},{"id":"242978967","name":"Клічаў","lat":53.489614,"lon":29.3420691,"type":"town"},{"id":"242978968","name":"Бешанковічы","lat":55.0457981,"lon":29.4578212,"type":"town"},{"id":"242978969","name":"Кіраўск","lat":53.2733089,"lon":29.4685755,"type":"town"},{"id":"242978970","name":"Гарадок","lat":55.4614306,"lon":29.9872766,"type":"town"},{"id":"242978971","name":"Рагачоў","lat":53.0820031,"lon":30.0531983,"type":"town"},{"id":"242978972","name":"Быхаў","lat":53.518013,"lon":30.244291,"type":"town"},{"id":"242978973","name":"Брагін","lat":51.7807462,"lon":30.2750015,"type":"town"},{"id":"242978974","name":"Сянно","lat":54.814182,"lon":29.707695,"type":"town"},{"id":"242978975","name":"Талачын","lat":54.4097573,"lon":29.6938169,"type":"town"},{"id":"242978977","name":"Хойнікі","lat":51.8875635,"lon":29.9650078,"type":"town"},{"id":"242978978","name":"Карма","lat":53.1328798,"lon":30.7977554,"type":"town"},{"id":"242978979","name":"Лёзна","lat":55.0232146,"lon":30.7956654,"type":"town"},{"id":"242978980","name":"Дуброўна","lat":54.5721785,"lon":30.6901469,"type":"town"},{"id":"242978981","name":"Лоеў","lat":51.9358234,"lon":30.7997902,"type":"town"},{"id":"242978983","name":"Буда-Кашалёва","lat":52.7163311,"lon":30.5650702,"type":"town"},{"id":"242978984","name":"Шклоў","lat":54.2021736,"lon":30.2964015,"type":"town"},{"id":"242978985","name":"Рэчыца","lat":52.3717518,"lon":30.3860239,"type":"town"},{"id":"242978986","name":"Добруш","lat":52.4207804,"lon":31.3159369,"type":"town"},{"id":"242978987","name":"Краснаполле","lat":53.3357116,"lon":31.4007097,"type":"town"},{"id":"242978988","name":"Ветка","lat":52.5590289,"lon":31.1713502,"type":"town"},{"id":"242978989","name":"Дрыбін","lat":54.1182948,"lon":31.0931587,"type":"town"},{"id":"242978990","name":"Чавусы","lat":53.8071477,"lon":30.9732332,"type":"town"},{"id":"242978991","name":"Горкі","lat":54.289463,"lon":30.9810782,"type":"town"},{"id":"242978992","name":"Чачэрск","lat":52.9193134,"lon":30.9170879,"type":"town"},{"id":"242978993","name":"Слаўгарад","lat":53.44622,"lon":31.0054891,"type":"town"},{"id":"242978994","name":"Дамачава","lat":51.7473452,"lon":23.5929791,"type":"town"},{"id":"242978995","name":"Высокае","lat":52.3669008,"lon":23.3783112,"type":"town"},{"id":"242978996","name":"Хоцімск","lat":53.4080119,"lon":32.5793117,"type":"town"},{"id":"242978997","name":"Касцюковічы","lat":53.3514833,"lon":32.0582765,"type":"town"},{"id":"242978998","name":"Клімавічы","lat":53.6102643,"lon":31.9612094,"type":"town"},{"id":"242978999","name":"Мсціслаў","lat":54.0199107,"lon":31.7257763,"type":"town"},{"id":"242979000","name":"Крычаў","lat":53.6952273,"lon":31.7066028,"type":"town"},{"id":"242979002","name":"Астрына","lat":53.7309393,"lon":24.5313527,"type":"town"},{"id":"242979004","name":"Рось","lat":53.284083,"lon":24.4084468,"type":"town"},{"id":"242979005","name":"Краснасельскі","lat":53.262112,"lon":24.41997,"type":"town"},{"id":"242979006","name":"Поразава","lat":52.9366963,"lon":24.3634141,"type":"town"},{"id":"242979007","name":"Шэрэшава","lat":52.5554063,"lon":24.2154525,"type":"town"},{"id":"242979008","name":"Пагранічны","lat":53.1190545,"lon":23.9699117,"type":"village"},{"id":"242979010","name":"Бярозаўка","lat":53.7183047,"lon":25.5003375,"type":"town"},{"id":"242979011","name":"Наваельня","lat":53.464367,"lon":25.5830687,"type":"town"},{"id":"242979012","name":"Лагішын","lat":52.3395948,"lon":25.9879344,"type":"town"},{"id":"242979013","name":"Целяханы","lat":52.5178044,"lon":25.8441628,"type":"town"},{"id":"242979014","name":"Юрацішкі","lat":54.0328261,"lon":25.9257854,"type":"town"},{"id":"242979015","name":"Гарадзішча","lat":53.3268244,"lon":26.0056767,"type":"town"},{"id":"242979016","name":"Лынтупы","lat":55.0498728,"lon":26.3060545,"type":"town"},{"id":"242979017","name":"Любча","lat":53.7542694,"lon":26.0571376,"type":"town"},{"id":"242979018","name":"Ружаны","lat":52.865925,"lon":24.8906748,"type":"town"},{"id":"242979019","name":"Антопаль","lat":52.2037552,"lon":24.7875932,"type":"town"},{"id":"242979020","name":"Радунь","lat":54.0527472,"lon":24.9977637,"type":"town"},{"id":"242979021","name":"Жалудок","lat":53.599599,"lon":24.9810327,"type":"town"},{"id":"242979022","name":"Косава","lat":52.7575059,"lon":25.1528353,"type":"town"},{"id":"242979023","name":"Белаазёрск","lat":52.4685148,"lon":25.1780389,"type":"town"},{"id":"242979024","name":"Першамайскі","lat":53.8875638,"lon":25.4146811,"type":"village"},{"id":"242979025","name":"Казлоўшчына","lat":53.3210996,"lon":25.2900694,"type":"town"},{"id":"242979026","name":"Давыд-Гарадок","lat":52.054893,"lon":27.212591,"type":"town"},{"id":"242979027","name":"Чырвоная Слабада","lat":52.8537754,"lon":27.1720693,"type":"town"},{"id":"242979028","name":"Заслаўе","lat":54.004494,"lon":27.291132,"type":"town"},{"id":"242979029","name":"Радашковічы","lat":54.1596917,"lon":27.235522,"type":"town"},{"id":"242979030","name":"Крывічы","lat":54.7141707,"lon":27.2895903,"type":"town"},{"id":"242979031","name":"Варапаева","lat":55.142433,"lon":27.2068219,"type":"town"},{"id":"242979032","name":"Мікашэвічы","lat":52.2244298,"lon":27.4874142,"type":"town"},{"id":"242979033","name":"Старобін","lat":52.7243297,"lon":27.4637238,"type":"town"},{"id":"242979034","name":"Гарадзея","lat":53.3147146,"lon":26.5387834,"type":"town"},{"id":"242979035","name":"Мір","lat":53.4537435,"lon":26.4659132,"type":"town"},{"id":"242979036","name":"Свір","lat":54.8484129,"lon":26.3911271,"type":"town"},{"id":"242979037","name":"Івянец","lat":53.8902737,"lon":26.7405096,"type":"town"},{"id":"242979038","name":"Нарач","lat":54.91027,"lon":26.70691,"type":"town"},{"id":"242979039","name":"Відзы","lat":55.394909,"lon":26.628355,"type":"town"},{"id":"242979040","name":"Рэчыца","lat":51.8538649,"lon":26.787769,"type":"town"},{"id":"242979041","name":"Негарэлае","lat":53.6107341,"lon":27.0733542,"type":"village"},{"id":"242979042","name":"Смілавічы","lat":53.7517868,"lon":28.0094547,"type":"town"},{"id":"242979043","name":"Марʼіна Горка","lat":53.5117288,"lon":28.1477541,"type":"town"},{"id":"242979044","name":"Падсвілле","lat":55.1482718,"lon":27.9608138,"type":"town"},{"id":"242979045","name":"Плешчаніцы","lat":54.4240932,"lon":27.833254,"type":"town"},{"id":"242979047","name":"Жодзіна","lat":54.0963334,"lon":28.3224192,"type":"town"},{"id":"242979051","name":"Тураў","lat":52.0717821,"lon":27.7295921,"type":"town"},{"id":"242979054","name":"Рудзенск","lat":53.5919998,"lon":27.8607847,"type":"town"},{"id":"242979055","name":"Праўдзінскі","lat":53.5201734,"lon":27.8309359,"type":"town"},{"id":"242979056","name":"Урэчча","lat":52.9479611,"lon":27.8834642,"type":"town"},{"id":"242979058","name":"Новалукомль","lat":54.656502,"lon":29.1416823,"type":"town"},{"id":"242979059","name":"Ула","lat":55.2247792,"lon":29.2404446,"type":"village"},{"id":"242979060","name":"Халопенічы","lat":54.5173452,"lon":28.9592835,"type":"town"},{"id":"242979061","name":"Азарычы","lat":52.463723,"lon":29.2645277,"type":"town"},{"id":"242979064","name":"Парычы","lat":52.8061865,"lon":29.4227549,"type":"town"},{"id":"242979065","name":"Бобр","lat":54.3416872,"lon":29.2744782,"type":"town"},{"id":"242979067","name":"Капаткевічы","lat":52.3125777,"lon":28.8194829,"type":"town"},{"id":"242979068","name":"Зялёны Бор","lat":54.013954,"lon":28.477539,"type":"town"},{"id":"242979069","name":"Ветрына","lat":55.4096025,"lon":28.4663438,"type":"town"},{"id":"242979070","name":"Градзянка","lat":53.5457107,"lon":28.7446114,"type":"village"},{"id":"242979071","name":"Ялізава","lat":53.3935034,"lon":29.0066772,"type":"town"},{"id":"242979072","name":"Глуша","lat":53.0878921,"lon":28.8581387,"type":"village"},{"id":"242979073","name":"Татарка","lat":53.25494,"lon":28.82083,"type":"town"},{"id":"242979074","name":"Янавічы","lat":55.2932768,"lon":30.7019427,"type":"town"},{"id":"242979075","name":"Асінторф","lat":54.7159971,"lon":30.6524674,"type":"village"},{"id":"242979076","name":"Бальшавік","lat":52.560037,"lon":30.8805352,"type":"town"},{"id":"242979077","name":"Уваравічы","lat":52.5961579,"lon":30.7281263,"type":"town"},{"id":"242979078","name":"Беліцк","lat":52.93908,"lon":30.41059,"type":"village"},{"id":"242979080","name":"Камарын","lat":51.4428471,"lon":30.5669714,"type":"town"},{"id":"242979081","name":"Арэхаўск","lat":54.6937931,"lon":30.4987336,"type":"town"},{"id":"242979082","name":"Копысь","lat":54.3214487,"lon":30.2869825,"type":"town"},{"id":"242979083","name":"Езярышча","lat":55.8345488,"lon":29.981354,"type":"town"},{"id":"242979084","name":"Багушэўск","lat":54.8407019,"lon":30.2117003,"type":"town"},{"id":"242979085","name":"Барань","lat":54.4791845,"lon":30.315932,"type":"town"},{"id":"242979086","name":"Васілевічы","lat":52.2505794,"lon":29.8283331,"type":"town"},{"id":"242979087","name":"Сасновы Бор","lat":52.5186,"lon":29.59528,"type":"town"},{"id":"242979088","name":"Коханава","lat":54.4605588,"lon":30.0010039,"type":"town"},{"id":"242979089","name":"Стрэшын","lat":52.7288211,"lon":30.1094545,"type":"town"},{"id":"242979092","name":"Воўчын","lat":52.2824066,"lon":23.3119895,"type":"village"},{"id":"242979097","name":"Ставы","lat":52.2348462,"lon":23.3413317,"type":"village"},{"id":"242979098","name":"Церахоўка","lat":52.21338,"lon":31.42356,"type":"town"},{"id":"242979099","name":"Навасёлкі","lat":52.2585019,"lon":23.2307609,"type":"village"},{"id":"242979102","name":"Сураж","lat":55.4078137,"lon":30.7229995,"type":"town"},{"id":"242979109","name":"Яцкавічы","lat":52.2591783,"lon":23.4210245,"type":"village"},{"id":"242979120","name":"Макарава","lat":52.36307,"lon":23.31745,"type":"village"},{"id":"242979123","name":"Агароднікі","lat":52.3457422,"lon":23.3450577,"type":"village"},{"id":"242979125","name":"Малыя Зводы","lat":52.3074583,"lon":23.4753798,"type":"village"},{"id":"242979132","name":"Новыя Лышчыцы","lat":52.26033,"lon":23.50044,"type":"village"},{"id":"242979145","name":"Вельямовічы","lat":52.222679,"lon":23.4380121,"type":"village"},{"id":"242979196","name":"Доўбізна","lat":52.4897224,"lon":23.4440143,"type":"village"},{"id":"242979238","name":"Расна","lat":52.3924983,"lon":23.408039,"type":"village"},{"id":"242979242","name":"Пагранічная","lat":52.453098,"lon":23.370245,"type":"village"},{"id":"242979245","name":"Абяроўшчына","lat":52.3992492,"lon":23.3840617,"type":"village"},{"id":"242979248","name":"Барысы","lat":51.7365605,"lon":23.5874221,"type":"village"},{"id":"242979278","name":"Ляплёўка","lat":51.7624257,"lon":23.653772,"type":"village"},{"id":"242979287","name":"Знаменка","lat":51.87907,"lon":23.65786,"type":"village"},{"id":"242979291","name":"Страдзеч","lat":51.92782,"lon":23.66447,"type":"village"},{"id":"242979309","name":"Вярховічы","lat":52.4710697,"lon":23.5110431,"type":"village"},{"id":"242979323","name":"Тамашоўка","lat":51.5585058,"lon":23.6023552,"type":"village"},{"id":"242979327","name":"Камароўка","lat":51.57609,"lon":23.6067,"type":"village"},{"id":"242979333","name":"Прыбарава","lat":51.6338898,"lon":23.5740942,"type":"village"},{"id":"242979346","name":"Астрамечава","lat":52.26668,"lon":23.58516,"type":"village"},{"id":"242979360","name":"Вялікія Матыкалы","lat":52.1964846,"lon":23.5846256,"type":"village"},{"id":"242979401","name":"Цюхінічы","lat":52.1584668,"lon":23.6662129,"type":"village"},{"id":"242979409","name":"Кавярдзякі","lat":52.1766163,"lon":23.6640586,"type":"village"},{"id":"242979412","name":"Клейнікі","lat":52.1392901,"lon":23.6097466,"type":"village"},{"id":"242979441","name":"Скокі","lat":52.1570569,"lon":23.6391485,"type":"village"},{"id":"242979450","name":"Старое Сяло","lat":52.1575496,"lon":23.6487992,"type":"village"},{"id":"242979498","name":"Вайская","lat":52.41045,"lon":23.62413,"type":"village"},{"id":"242979504","name":"Ратайчыцы","lat":52.3453323,"lon":23.6135789,"type":"village"},{"id":"242979515","name":"Вістычы","lat":52.2032684,"lon":23.6791143,"type":"village"},{"id":"242979536","name":"Мінкавічы","lat":52.3440546,"lon":23.5498366,"type":"village"},{"id":"242979603","name":"Каленкавічы","lat":52.49877,"lon":23.57185,"type":"village"},{"id":"242979606","name":"Амелянец","lat":52.5374415,"lon":23.5533565,"type":"village"},{"id":"242979757","name":"Медна","lat":51.8623151,"lon":23.7483215,"type":"village"},{"id":"242979792","name":"Радзеж","lat":51.70887,"lon":23.82136,"type":"village"},{"id":"242979897","name":"Тэльмы 2","lat":52.1232345,"lon":23.8579486,"type":"village"},{"id":"242979945","name":"Тэльмы 1","lat":52.1189852,"lon":23.8316031,"type":"village"},{"id":"242979961","name":"Чэрні","lat":52.1503912,"lon":23.7558516,"type":"village"},{"id":"242979971","name":"Камяніца Жыравецкая","lat":52.0602786,"lon":23.8203357,"type":"village"},{"id":"242979989","name":"Мухавец","lat":52.0293993,"lon":23.8011695,"type":"village"},{"id":"242979998","name":"Прылукі","lat":51.992403,"lon":23.7002339,"type":"village"},{"id":"242980018","name":"Навіцкавічы","lat":52.440778,"lon":23.84471,"type":"village"},{"id":"242980056","name":"Дзмітровічы","lat":52.4890376,"lon":23.7785986,"type":"village"},{"id":"242980121","name":"Хадосы","lat":52.4660609,"lon":23.7333428,"type":"village"},{"id":"242980192","name":"Турна Вялікая","lat":52.2733149,"lon":23.7693166,"type":"village"},{"id":"242980215","name":"Чарнаўчыцы","lat":52.2117285,"lon":23.7471308,"type":"village"},{"id":"242980256","name":"Відамля","lat":52.3274723,"lon":23.7841011,"type":"village"},{"id":"242980264","name":"Падлессе","lat":52.289595,"lon":23.8593405,"type":"village"},{"id":"242980458","name":"Падбела","lat":52.4919917,"lon":23.8717391,"type":"village"},{"id":"242980466","name":"Каменюкі","lat":52.5613754,"lon":23.7994556,"type":"village"},{"id":"242980518","name":"Макараўцы","lat":53.328949,"lon":23.822596,"type":"village"},{"id":"242980739","name":"Масевічы","lat":51.9419,"lon":23.955,"type":"village"},{"id":"242980759","name":"Гвозніца","lat":51.81779,"lon":23.9078,"type":"village"},{"id":"242980764","name":"Збураж","lat":51.7688264,"lon":23.9739602,"type":"village"},{"id":"242980803","name":"Велікарыта","lat":51.93838,"lon":24.05191,"type":"village"},{"id":"242980821","name":"Вялікія Радванічы","lat":52.03048,"lon":24.00779,"type":"village"},{"id":"242980824","name":"Малыя Радванічы","lat":52.03726,"lon":23.99182,"type":"village"},{"id":"242980847","name":"Арэхава","lat":51.6397995,"lon":23.9537214,"type":"village"},{"id":"242980881","name":"Дворышча","lat":51.7065659,"lon":23.9976702,"type":"village"},{"id":"242980912","name":"Олтуш","lat":51.6877198,"lon":23.9672391,"type":"village"},{"id":"242980915","name":"Ланская","lat":51.6938835,"lon":23.9451368,"type":"village"},{"id":"242980969","name":"Сцяпанкі","lat":52.27003,"lon":23.99457,"type":"village"},{"id":"242981017","name":"Пелішча","lat":52.3174987,"lon":23.9200062,"type":"village"},{"id":"242981033","name":"Хмелева","lat":52.2524282,"lon":23.9088103,"type":"village"},{"id":"242981098","name":"Стрыганец","lat":52.1154654,"lon":24.0341937,"type":"village"},{"id":"242981101","name":"Ракітніца","lat":52.1313039,"lon":23.9945537,"type":"village"},{"id":"242981178","name":"Пацуі","lat":53.053276,"lon":24.055304,"type":"village"},{"id":"242981210","name":"Ціхаволя","lat":52.844238,"lon":23.99448,"type":"village"},{"id":"242981217","name":"Дабраволя","lat":52.9060311,"lon":24.0335903,"type":"village"},{"id":"242981224","name":"Нязбодзічы","lat":52.9662029,"lon":23.9746762,"type":"village"},{"id":"242981299","name":"Рэчыца","lat":52.3939919,"lon":24.003851,"type":"village"},{"id":"242981347","name":"Масаляны","lat":53.351028,"lon":24.015387,"type":"village"},{"id":"242981353","name":"Алекшыцы","lat":53.3411754,"lon":23.948824,"type":"village"},{"id":"242981361","name":"Канюхі","lat":53.3925842,"lon":23.9012027,"type":"village"},{"id":"242981367","name":"Пархімаўцы","lat":53.2603657,"lon":24.0497476,"type":"village"},{"id":"242981405","name":"Малая Бераставіца","lat":53.2869798,"lon":23.9400922,"type":"village"},{"id":"242981700","name":"Мацеевічы","lat":52.23604,"lon":24.07645,"type":"village"},{"id":"242981833","name":"Батчы","lat":52.2405292,"lon":24.2291357,"type":"village"},{"id":"242981847","name":"Вялікія Якаўчыцы","lat":52.2294157,"lon":24.1327632,"type":"village"},{"id":"242982038","name":"Крыўляны","lat":52.28582,"lon":24.07165,"type":"village"},{"id":"242982126","name":"Шчарчова","lat":52.4260032,"lon":24.1554035,"type":"village"},{"id":"242982193","name":"Мельнікі","lat":51.73668,"lon":24.12529,"type":"village"},{"id":"242982226","name":"Лукава","lat":51.886246,"lon":24.232088,"type":"village"},{"id":"242982243","name":"Чарняны","lat":51.9861,"lon":24.21267,"type":"village"},{"id":"242982249","name":"Ляхаўцы","lat":51.7993544,"lon":24.1996174,"type":"village"},{"id":"242982252","name":"Хаціслаў","lat":51.7098045,"lon":24.0980629,"type":"village"},{"id":"242982254","name":"Сушытніца","lat":51.70895,"lon":24.17404,"type":"village"},{"id":"242982263","name":"Замшаны","lat":51.8371,"lon":24.0889,"type":"village"},{"id":"242982280","name":"Ленінскі","lat":52.1657651,"lon":24.1120331,"type":"village"},{"id":"242982310","name":"Старое Сяло","lat":52.0850295,"lon":24.0986605,"type":"village"},{"id":"242982335","name":"Ханчыцы","lat":53.0629466,"lon":24.2131985,"type":"village"},{"id":"242982339","name":"Кватары","lat":53.1265311,"lon":24.0606072,"type":"village"},{"id":"242982443","name":"Рэпля","lat":53.3115499,"lon":24.203172,"type":"village"},{"id":"242982451","name":"Стары Дворац","lat":53.2586011,"lon":24.1090783,"type":"village"},{"id":"242982454","name":"Вярэйкі","lat":53.2485782,"lon":24.186713,"type":"village"},{"id":"242982599","name":"Роўбіцк","lat":52.6696588,"lon":24.0796625,"type":"village"},{"id":"242982608","name":"Сухопаль","lat":52.6577199,"lon":24.1706126,"type":"village"},{"id":"242982648","name":"Мурава","lat":52.6446989,"lon":24.221599,"type":"village"},{"id":"242982719","name":"Грынкі","lat":52.9554745,"lon":24.1340459,"type":"village"},{"id":"242982762","name":"Занкі 1","lat":53.0286337,"lon":24.1384661,"type":"village"},{"id":"242982930","name":"Навасёлкі","lat":52.0253248,"lon":24.3546514,"type":"village"},{"id":"242982948","name":"Верхалессе","lat":52.08146,"lon":24.30322,"type":"village"},{"id":"242982963","name":"Бельск","lat":52.0089503,"lon":24.413339,"type":"village"},{"id":"242983002","name":"Дарапеевічы","lat":51.96379,"lon":24.31429,"type":"village"},{"id":"242983006","name":"Макраны","lat":51.83375,"lon":24.26494,"type":"village"},{"id":"242983053","name":"Стральцы","lat":53.45535,"lon":24.18563,"type":"village"},{"id":"242983082","name":"Гудзевічы","lat":53.3721902,"lon":24.1755725,"type":"village"},{"id":"242983106","name":"Вялікія Эйсманты","lat":53.3666048,"lon":24.0742085,"type":"village"},{"id":"242983215","name":"Глядавічы","lat":53.5243645,"lon":24.1157066,"type":"village"},{"id":"242983280","name":"Новыя Засімавічы","lat":52.6020803,"lon":24.3996626,"type":"village"},{"id":"242983283","name":"Клепачы","lat":52.7036128,"lon":24.3515985,"type":"village"},{"id":"242983293","name":"Мокрае","lat":52.6521442,"lon":24.4200044,"type":"village"},{"id":"242983311","name":"Стараволя","lat":52.56915,"lon":24.32931,"type":"village"},{"id":"242983355","name":"Вялікае Сяло","lat":52.630744,"lon":24.3214133,"type":"village"},{"id":"242983418","name":"Новы Двор","lat":52.8289185,"lon":24.3519201,"type":"village"},{"id":"242983457","name":"Вялікія Лепясы","lat":52.240294,"lon":24.3826484,"type":"village"},{"id":"242983460","name":"Мазуры","lat":52.20205,"lon":24.31249,"type":"village"},{"id":"242983466","name":"Лягаты","lat":52.2606262,"lon":24.3117109,"type":"village"},{"id":"242983467","name":"Паляцічы","lat":52.22668,"lon":24.26794,"type":"village"},{"id":"242983471","name":"Імянін","lat":52.2638044,"lon":24.3549267,"type":"village"},{"id":"242983474","name":"Андронава","lat":52.2437368,"lon":24.300124,"type":"village"},{"id":"242983700","name":"Луцэвічы","lat":52.2455594,"lon":24.418305,"type":"village"},{"id":"242983719","name":"Корчыцы","lat":52.11244,"lon":24.3772,"type":"village"},{"id":"242983725","name":"Барысава","lat":52.1810272,"lon":24.3803297,"type":"village"},{"id":"242983728","name":"Магдалін","lat":52.1932408,"lon":24.3941082,"type":"village"},{"id":"242983731","name":"Хідры","lat":52.14935,"lon":24.36639,"type":"village"},{"id":"242983737","name":"Пескі","lat":52.18926,"lon":24.24073,"type":"village"},{"id":"242983739","name":"Патрыкі","lat":52.18308,"lon":24.31189,"type":"village"},{"id":"242983740","name":"Пецькі","lat":52.1577006,"lon":24.307426,"type":"village"},{"id":"242983771","name":"Шані","lat":52.5270225,"lon":24.3957507,"type":"village"},{"id":"242983791","name":"Стрыгава","lat":52.3006417,"lon":24.2758528,"type":"village"},{"id":"242983860","name":"Лунна","lat":53.4538685,"lon":24.2606804,"type":"village"},{"id":"242983863","name":"Дубна","lat":53.4438088,"lon":24.3769294,"type":"village"},{"id":"242983873","name":"Харціца","lat":53.5072341,"lon":24.2574081,"type":"village"},{"id":"242983944","name":"Студзянец","lat":53.2936398,"lon":24.4091748,"type":"village"},{"id":"242983953","name":"Воўпа","lat":53.36823,"lon":24.35969,"type":"village"},{"id":"242984001","name":"Дубаўцы","lat":53.3544328,"lon":24.4056797,"type":"village"},{"id":"242984056","name":"Шылавічы","lat":53.1684406,"lon":24.2416604,"type":"village"},{"id":"242984058","name":"Субачы","lat":53.1711463,"lon":24.3513784,"type":"village"},{"id":"242984090","name":"Ендрыхаўцы","lat":53.25322,"lon":24.35137,"type":"village"},{"id":"242984099","name":"Ятвезь","lat":53.171963,"lon":24.4023,"type":"village"},{"id":"242984144","name":"Вердамічы","lat":53.0282622,"lon":24.2765721,"type":"village"},{"id":"242984147","name":"Вялікае Сяло","lat":53.0489651,"lon":24.3287754,"type":"village"},{"id":"242984198","name":"Гнезна","lat":53.1228151,"lon":24.3498157,"type":"village"},{"id":"242984228","name":"Белавусаўшчына","lat":52.5936815,"lon":24.4857397,"type":"village"},{"id":"242984245","name":"Калядзічы","lat":52.6333134,"lon":24.5528497,"type":"village"},{"id":"242984290","name":"Корнадзь","lat":52.8020934,"lon":24.4895146,"type":"village"},{"id":"242984294","name":"Руднікі","lat":52.6671051,"lon":24.5132205,"type":"village"},{"id":"242984296","name":"Харава","lat":52.6366397,"lon":24.5831406,"type":"village"},{"id":"242984299","name":"Ханявічы","lat":52.8792418,"lon":24.5522419,"type":"village"},{"id":"242984346","name":"Аранчыцы","lat":52.46143,"lon":24.52972,"type":"village"},{"id":"242984349","name":"Лінова","lat":52.4760915,"lon":24.5175119,"type":"village"},{"id":"242984352","name":"Слабудка","lat":52.5185825,"lon":24.5152605,"type":"village"},{"id":"242984360","name":"Сланімцы","lat":52.53087,"lon":24.48784,"type":"village"},{"id":"242984402","name":"Кісялёўцы","lat":52.1649918,"lon":24.4486852,"type":"village"},{"id":"242984405","name":"Балата","lat":52.1397345,"lon":24.5211091,"type":"village"},{"id":"242984410","name":"Хабовічы","lat":52.0613409,"lon":24.4795966,"type":"village"},{"id":"242984413","name":"Дзівін","lat":51.9564593,"lon":24.5766325,"type":"village"},{"id":"242984425","name":"Астромічы","lat":52.2759626,"lon":24.4698818,"type":"village"},{"id":"242984428","name":"Залессе","lat":52.217605,"lon":24.4752199,"type":"village"},{"id":"242984443","name":"Рыбна","lat":52.1739078,"lon":24.4639009,"type":"village"},{"id":"242984466","name":"Буховічы","lat":52.2797839,"lon":24.4269392,"type":"village"},{"id":"242984568","name":"Воса","lat":51.918282,"lon":24.4876462,"type":"village"},{"id":"242984606","name":"Дэмбрава","lat":53.63903,"lon":24.47393,"type":"village"},{"id":"242984654","name":"Каменка","lat":53.5533248,"lon":24.5075283,"type":"village"},{"id":"242984677","name":"Вялікія Сцяпанішкі","lat":53.4344155,"lon":24.5771077,"type":"village"},{"id":"242984685","name":"Зарудаўе","lat":53.3284543,"lon":24.5094706,"type":"village"},{"id":"242984734","name":"Струбніца","lat":53.3110887,"lon":24.6018899,"type":"village"},{"id":"242984789","name":"Войткавічы","lat":53.1615857,"lon":24.5852674,"type":"village"},{"id":"242985163","name":"Мачуліна","lat":53.241044,"lon":24.46867,"type":"village"},{"id":"242985194","name":"Рупейкі","lat":53.095179,"lon":24.486188,"type":"village"},{"id":"242985197","name":"Ізабелін","lat":53.093643,"lon":24.553034,"type":"village"},{"id":"242985257","name":"Мацвееўцы","lat":53.057446,"lon":24.562153,"type":"village"},{"id":"242985304","name":"Малеч","lat":52.4817407,"lon":24.7029048,"type":"village"},{"id":"242985356","name":"Лука","lat":52.375687,"lon":24.6828671,"type":"village"},{"id":"242985365","name":"Падкраічы","lat":52.4346318,"lon":24.7152751,"type":"village"},{"id":"242985382","name":"Грушава","lat":52.2410072,"lon":24.7271343,"type":"village"},{"id":"242985391","name":"Акцябр","lat":52.24102,"lon":24.60191,"type":"village"},{"id":"242985443","name":"Аніскавічы","lat":52.1258056,"lon":24.7145087,"type":"village"},{"id":"242985460","name":"Гарадзец","lat":52.20411,"lon":24.66242,"type":"village"},{"id":"242985498","name":"Павіцце","lat":51.9862928,"lon":24.7587389,"type":"village"},{"id":"242985519","name":"Лелікава","lat":51.9171414,"lon":24.7155473,"type":"village"},{"id":"242985529","name":"Новы Двор","lat":53.8143019,"lon":24.5600829,"type":"village"},{"id":"242985660","name":"Турʼя","lat":53.586086,"lon":24.699429,"type":"village"},{"id":"242985674","name":"Руткевічы","lat":53.573109,"lon":24.732031,"type":"village"},{"id":"242985737","name":"Мікелеўшчына","lat":53.4918402,"lon":24.6676129,"type":"village"},{"id":"242985766","name":"Пескі","lat":53.3504065,"lon":24.623711,"type":"village"},{"id":"242985770","name":"Масты Правыя","lat":53.4295234,"lon":24.6295131,"type":"village"},{"id":"242985779","name":"Масты Левыя","lat":53.42188,"lon":24.63332,"type":"village"},{"id":"242985811","name":"Ляшчанка","lat":53.645729,"lon":24.656309,"type":"village"},{"id":"242985866","name":"Балічы","lat":53.509418,"lon":24.765671,"type":"village"},{"id":"242985872","name":"Тапілішкі","lat":53.636475,"lon":24.720116,"type":"village"},{"id":"242985931","name":"Бакшты","lat":53.79696,"lon":24.68808,"type":"village"},{"id":"242985934","name":"Галавічполе","lat":53.72563,"lon":24.76473,"type":"village"},{"id":"242986046","name":"Першамайск","lat":53.908147,"lon":24.6450592,"type":"village"},{"id":"242986108","name":"Нарутавічы","lat":52.5552604,"lon":24.7722807,"type":"village"},{"id":"242986110","name":"Смаляніца","lat":52.7043088,"lon":24.6376017,"type":"village"},{"id":"242986125","name":"Кабылаўка","lat":52.679045,"lon":24.6610638,"type":"village"},{"id":"242986139","name":"Кабакі","lat":52.5018427,"lon":24.7672696,"type":"village"},{"id":"242986177","name":"Падароск","lat":52.9810421,"lon":24.6203499,"type":"village"},{"id":"242986186","name":"Зеляневічы","lat":52.9265872,"lon":24.7269069,"type":"village"},{"id":"242986209","name":"Канюхі","lat":53.0044751,"lon":24.6512154,"type":"village"},{"id":"242986233","name":"Магілёўцы","lat":52.8731121,"lon":24.6749694,"type":"village"},{"id":"242986242","name":"Лыскава","lat":52.855042,"lon":24.6150039,"type":"village"},{"id":"242986292","name":"Падбалоцце","lat":53.2432165,"lon":24.7521879,"type":"village"},{"id":"242986301","name":"Князева","lat":53.2149813,"lon":24.7377367,"type":"village"},{"id":"242986355","name":"Міжэрычы","lat":53.0664921,"lon":24.7735194,"type":"village"},{"id":"242986375","name":"Пацавічы","lat":53.323852,"lon":24.6832016,"type":"village"},{"id":"242986378","name":"Вялікая Рагозніца","lat":53.2671506,"lon":24.6824393,"type":"village"},{"id":"242986460","name":"Залацеева","lat":53.2429853,"lon":24.8149758,"type":"village"},{"id":"242986466","name":"Бародзічы","lat":53.1626475,"lon":24.7837258,"type":"village"},{"id":"242986478","name":"Крывічы","lat":53.2132638,"lon":24.8370767,"type":"village"},{"id":"242986527","name":"Вялікія Азёркі","lat":53.3056891,"lon":24.9482119,"type":"village"},{"id":"242986530","name":"Дзярэчын","lat":53.2476606,"lon":24.9191348,"type":"village"},{"id":"242986532","name":"Мілявічы","lat":53.2845775,"lon":24.8806256,"type":"village"},{"id":"242986578","name":"Курылавічы","lat":53.3542348,"lon":24.8768328,"type":"village"},{"id":"242986688","name":"Ракавічы","lat":53.5134054,"lon":24.8343435,"type":"village"},{"id":"242986707","name":"Вялікае Мажэйкава","lat":53.6860157,"lon":24.9371076,"type":"village"},{"id":"242986749","name":"Гурнофель","lat":53.734524,"lon":24.862093,"type":"village"},{"id":"242986794","name":"Васілішкі","lat":53.78108,"lon":24.8473,"type":"village"},{"id":"242986867","name":"Радастава","lat":51.9666079,"lon":24.9347906,"type":"village"},{"id":"242986877","name":"Асіпавічы","lat":52.1369571,"lon":24.8151365,"type":"village"},{"id":"242986884","name":"Галоўчыцы","lat":52.1483989,"lon":24.8654911,"type":"village"},{"id":"242986909","name":"Губерня","lat":52.1945424,"lon":24.7863165,"type":"village"},{"id":"242986917","name":"Імянін","lat":52.2381752,"lon":24.907705,"type":"village"},{"id":"242986943","name":"Дзеткавічы","lat":52.3131528,"lon":24.814515,"type":"village"},{"id":"242986959","name":"Боркі","lat":52.360222,"lon":24.8594948,"type":"village"},{"id":"242986987","name":"Ястрабель","lat":52.394636,"lon":24.9252398,"type":"village"},{"id":"242986996","name":"Сігневічы","lat":52.4331174,"lon":24.8951523,"type":"village"},{"id":"242987003","name":"Равяцічы","lat":52.4401457,"lon":24.8480023,"type":"village"},{"id":"242987008","name":"Маравіль","lat":52.422665,"lon":24.8884037,"type":"village"},{"id":"242987029","name":"Светач","lat":52.4860243,"lon":24.9210799,"type":"village"},{"id":"242987032","name":"Першамайская","lat":52.5322555,"lon":24.8994798,"type":"village"},{"id":"242987082","name":"Сялец","lat":52.5877191,"lon":24.8689959,"type":"village"},{"id":"242987116","name":"Варанілавічы","lat":52.808486,"lon":24.9347116,"type":"village"},{"id":"242987166","name":"Кашалі","lat":53.0474137,"lon":24.914747,"type":"village"},{"id":"242987192","name":"Цяглевічы","lat":53.0080782,"lon":24.7828366,"type":"village"},{"id":"242987217","name":"Каралін","lat":53.0781576,"lon":24.888542,"type":"village"},{"id":"242987223","name":"Міжэвічы","lat":52.971731,"lon":25.0851036,"type":"village"},{"id":"242987226","name":"Вострава","lat":52.952042,"lon":25.026939,"type":"village"},{"id":"242987266","name":"Сасноўка","lat":52.8854039,"lon":25.0947571,"type":"village"},{"id":"242987275","name":"Калазубы","lat":52.8264131,"lon":24.9986266,"type":"village"},{"id":"242987314","name":"Мілейкі","lat":52.7868354,"lon":25.0783378,"type":"village"},{"id":"242987326","name":"Квасевічы","lat":52.7535433,"lon":25.067276,"type":"village"},{"id":"242987328","name":"Бронная Гара","lat":52.6101208,"lon":25.0863647,"type":"village"},{"id":"242987339","name":"Здзітава","lat":52.4733446,"lon":25.0022165,"type":"village"},{"id":"242987349","name":"Агароднікі","lat":52.5430974,"lon":25.1095705,"type":"village"},{"id":"242987355","name":"Зарэчча","lat":52.5418363,"lon":25.0257062,"type":"village"},{"id":"242987360","name":"Стрыгінь","lat":52.5063057,"lon":25.0267949,"type":"village"},{"id":"242987369","name":"Сакалова","lat":52.54125,"lon":25.07509,"type":"village"},{"id":"242987397","name":"Міжлессе","lat":52.3871979,"lon":25.0171197,"type":"village"},{"id":"242987460","name":"Вострава","lat":53.2631525,"lon":25.0375252,"type":"village"},{"id":"242987474","name":"Галынка","lat":53.2112331,"lon":25.0372994,"type":"village"},{"id":"242987534","name":"Елка","lat":53.1306108,"lon":25.1375563,"type":"village"},{"id":"242987548","name":"Азярніца","lat":53.0720074,"lon":25.0082887,"type":"village"},{"id":"242987570","name":"Сялявічы","lat":53.0144871,"lon":25.0263944,"type":"village"},{"id":"242987622","name":"Гіркі","lat":54.003639,"lon":24.900141,"type":"village"},{"id":"242987658","name":"Нача","lat":54.074188,"lon":24.839319,"type":"village"},{"id":"242987724","name":"Забалаць","lat":53.9259321,"lon":24.7965702,"type":"village"},{"id":"242987757","name":"Місявічы","lat":53.878502,"lon":24.888149,"type":"village"},{"id":"242987814","name":"Вулька","lat":52.2598633,"lon":25.1333767,"type":"village"},{"id":"242987827","name":"Нямержа","lat":52.2994843,"lon":25.06593,"type":"village"},{"id":"242987861","name":"Новая Папіна","lat":52.1165684,"lon":25.1175399,"type":"village"},{"id":"242987867","name":"Літоўск","lat":52.1686465,"lon":24.9936779,"type":"village"},{"id":"242987872","name":"Завялёўе","lat":52.2052864,"lon":25.0399381,"type":"village"},{"id":"242987875","name":"Брашэвічы","lat":52.2198575,"lon":25.012424,"type":"village"},{"id":"242987878","name":"Сёманаўшчына","lat":52.20652,"lon":25.10187,"type":"village"},{"id":"242987891","name":"Аляксеевічы","lat":52.28042,"lon":24.99244,"type":"village"},{"id":"242987924","name":"Зарэчка","lat":52.0499056,"lon":25.1222768,"type":"village"},{"id":"242987927","name":"Вулька Радавецкая","lat":52.1441184,"lon":25.0455023,"type":"village"},{"id":"242987929","name":"Валавель","lat":52.13656,"lon":24.97115,"type":"village"},{"id":"242987932","name":"Пярковічы","lat":52.1767567,"lon":25.0350691,"type":"village"},{"id":"242987934","name":"Нагорʼе","lat":52.17956,"lon":25.05329,"type":"village"},{"id":"242987940","name":"Закозель","lat":52.1300717,"lon":25.0029503,"type":"village"},{"id":"242987995","name":"Сварынь","lat":51.9684508,"lon":25.027594,"type":"village"},{"id":"242988004","name":"Ліпнікі","lat":52.1756817,"lon":25.2315268,"type":"village"},{"id":"242988029","name":"Белін","lat":52.0488059,"lon":25.2138571,"type":"village"},{"id":"242988046","name":"Восаўцы","lat":52.0846361,"lon":25.2404727,"type":"village"},{"id":"242988082","name":"Равіны","lat":52.2288797,"lon":25.2166851,"type":"village"},{"id":"242988169","name":"Доцішкі","lat":54.11702,"lon":24.997419,"type":"village"},{"id":"242988241","name":"Партызанаўка","lat":52.9069012,"lon":25.2777666,"type":"village"},{"id":"242988254","name":"Сурынка","lat":52.9839386,"lon":25.1954973,"type":"village"},{"id":"242988258","name":"Новадзевяткавічы","lat":52.913761,"lon":25.16643,"type":"village"},{"id":"242988300","name":"Бездзеж","lat":52.3166797,"lon":25.3074339,"type":"village"},{"id":"242988310","name":"Здзітава","lat":52.4249308,"lon":25.2602187,"type":"village"},{"id":"242988313","name":"Хрыса","lat":52.447932,"lon":25.233427,"type":"village"},{"id":"242988321","name":"Хомск","lat":52.3329043,"lon":25.2287059,"type":"village"},{"id":"242988339","name":"Стайкі","lat":52.705786,"lon":25.2886,"type":"village"},{"id":"242988344","name":"Заполле","lat":52.6967106,"lon":25.1516368,"type":"village"},{"id":"242988349","name":"Гошчава","lat":52.6897879,"lon":25.2103445,"type":"village"},{"id":"242988363","name":"Пескі","lat":52.4983152,"lon":25.1956847,"type":"village"},{"id":"242988380","name":"Ярцавічы","lat":52.4829165,"lon":25.1668443,"type":"village"},{"id":"242988411","name":"Ходараўцы","lat":53.64246,"lon":25.06625,"type":"village"},{"id":"242988463","name":"Голдава","lat":53.69782,"lon":25.10488,"type":"village"},{"id":"242988466","name":"Скрыбаўцы","lat":53.690464,"lon":24.991467,"type":"village"},{"id":"242988497","name":"Руда Яварская","lat":53.4025467,"lon":25.1113162,"type":"village"},{"id":"242988552","name":"Орля","lat":53.508343,"lon":24.980995,"type":"village"},{"id":"242988789","name":"Мажэйкава","lat":53.720875,"lon":24.984579,"type":"village"},{"id":"242988826","name":"Ваверка","lat":53.834888,"lon":24.967199,"type":"village"},{"id":"242988905","name":"Паляцкішкі","lat":54.188114,"lon":25.187767,"type":"village"},{"id":"242988910","name":"Бастуны","lat":54.0775046,"lon":25.2864461,"type":"village"},{"id":"242988913","name":"Пагародна","lat":54.09737,"lon":25.144699,"type":"village"},{"id":"242988966","name":"Адрыжын","lat":51.9684856,"lon":25.4596844,"type":"village"},{"id":"242988978","name":"Больцінікі","lat":54.239731,"lon":25.304893,"type":"village"},{"id":"242988984","name":"Гарбаха","lat":52.0912619,"lon":25.3569691,"type":"village"},{"id":"242989061","name":"Крупава","lat":53.927341,"lon":25.197571,"type":"village"},{"id":"242989094","name":"Дзітва","lat":53.8550581,"lon":25.1494127,"type":"village"},{"id":"242989097","name":"Далёкія","lat":53.81773,"lon":25.215679,"type":"village"},{"id":"242989100","name":"Тарнова","lat":53.793522,"lon":25.14616,"type":"village"},{"id":"242989185","name":"Гуды","lat":53.96476,"lon":25.24298,"type":"village"},{"id":"242989195","name":"Жырмуны","lat":54.0210005,"lon":25.2203959,"type":"village"},{"id":"242989238","name":"Пескаўцы","lat":53.5633382,"lon":25.1695821,"type":"village"},{"id":"242989278","name":"Хвінявічы","lat":53.487845,"lon":25.2576387,"type":"village"},{"id":"242989283","name":"Лозкі","lat":53.3673633,"lon":25.2501873,"type":"village"},{"id":"242989298","name":"Лявонавічы","lat":53.3602128,"lon":25.25772,"type":"village"},{"id":"242989314","name":"Дзянісава","lat":53.307549,"lon":25.303829,"type":"village"},{"id":"242989369","name":"Лайкоўшчына","lat":53.64109,"lon":25.17474,"type":"village"},{"id":"242989415","name":"Васілевічы","lat":53.139839,"lon":25.27508,"type":"village"},{"id":"242989431","name":"Дзеравянчыцы","lat":53.039719,"lon":25.267118,"type":"village"},{"id":"242989450","name":"Чамяры","lat":53.0910605,"lon":25.2458226,"type":"village"},{"id":"242989469","name":"Мяльканавічы","lat":53.0481409,"lon":25.1566562,"type":"village"},{"id":"242989472","name":"Касцяні","lat":53.069748,"lon":25.201694,"type":"village"},{"id":"242989518","name":"Навасёлкі","lat":53.25914,"lon":25.295355,"type":"village"},{"id":"242989595","name":"Сянькоўшчына","lat":53.1732856,"lon":25.1537882,"type":"village"},{"id":"242989601","name":"Мінойты","lat":53.79885,"lon":25.3682,"type":"village"},{"id":"242989607","name":"Даржы","lat":53.7619127,"lon":25.3962033,"type":"village"},{"id":"242989641","name":"Шайбакі","lat":53.85884,"lon":25.33619,"type":"village"},{"id":"242989644","name":"Ёдкі","lat":53.85232,"lon":25.35713,"type":"village"},{"id":"242989668","name":"Дуброўня","lat":53.899948,"lon":25.381941,"type":"village"},{"id":"242989673","name":"Агароднікі","lat":53.89377,"lon":25.39498,"type":"village"},{"id":"242989715","name":"Дворышча","lat":53.9938956,"lon":25.3924983,"type":"village"},{"id":"242989807","name":"Раготна","lat":53.348896,"lon":25.485584,"type":"village"},{"id":"242989827","name":"Раклевічы","lat":53.4871114,"lon":25.4685974,"type":"village"},{"id":"242989835","name":"Міроўшчына","lat":53.4597136,"lon":25.322006,"type":"village"},{"id":"242989878","name":"Жукоўшчына","lat":53.5321916,"lon":25.3519417,"type":"village"},{"id":"242989910","name":"Гезгалы","lat":53.603477,"lon":25.380707,"type":"village"},{"id":"242989916","name":"Беліца","lat":53.651577,"lon":25.318424,"type":"village"},{"id":"242989950","name":"Ганчары","lat":53.7352746,"lon":25.416799,"type":"village"},{"id":"242989979","name":"Жыровічы","lat":53.0138565,"lon":25.3445596,"type":"village"},{"id":"242989982","name":"Вялікія Шылавічы","lat":53.0319759,"lon":25.3759822,"type":"village"},{"id":"242990298","name":"Даманава","lat":52.829296,"lon":25.473792,"type":"village"},{"id":"242990364","name":"Дзераўная","lat":53.197712,"lon":25.472786,"type":"village"},{"id":"242990400","name":"Вензавец","lat":53.417984,"lon":25.3317615,"type":"village"},{"id":"242990443","name":"Войневічы","lat":53.2600728,"lon":25.3774263,"type":"village"},{"id":"242990472","name":"Крытышын","lat":52.0782836,"lon":25.4868595,"type":"village"},{"id":"242990488","name":"Снітава","lat":52.13047,"lon":25.44288,"type":"village"},{"id":"242990491","name":"Гутава","lat":52.1887494,"lon":25.3395446,"type":"village"},{"id":"242990497","name":"Варацэвічы","lat":52.1085,"lon":25.38348,"type":"village"},{"id":"242990516","name":"Опаль","lat":52.3257091,"lon":25.4234924,"type":"village"},{"id":"242990523","name":"Заверша","lat":52.28196,"lon":25.36881,"type":"village"},{"id":"242990527","name":"Сачыўкі","lat":52.2327878,"lon":25.4451356,"type":"village"},{"id":"242990554","name":"Хадакі","lat":52.5849708,"lon":25.3815293,"type":"village"},{"id":"242990560","name":"Вулька Аброўская","lat":52.5799988,"lon":25.4901727,"type":"village"},{"id":"242990563","name":"Яглевічы","lat":52.6962531,"lon":25.3751794,"type":"village"},{"id":"242990568","name":"Воля","lat":52.66236,"lon":25.32383,"type":"village"},{"id":"242990571","name":"Лядавічы","lat":52.3174131,"lon":25.3941252,"type":"village"},{"id":"242990580","name":"Псышчава","lat":52.2920685,"lon":25.4734716,"type":"village"},{"id":"242990587","name":"Спорава","lat":52.4230716,"lon":25.3345042,"type":"village"},{"id":"242990593","name":"Жытлін","lat":52.5635444,"lon":25.3723104,"type":"village"},{"id":"242990597","name":"Падстарынь","lat":52.7658011,"lon":25.3531296,"type":"village"},{"id":"242990630","name":"Любішчыцы","lat":52.7527426,"lon":25.4149664,"type":"village"},{"id":"242990636","name":"Бердаўка","lat":53.924595,"lon":25.510138,"type":"village"},{"id":"242990735","name":"Пятрэвічы","lat":53.6431791,"lon":25.6742313,"type":"village"},{"id":"242990760","name":"Круцілавічы","lat":53.46059,"lon":25.659849,"type":"village"},{"id":"242990815","name":"Таркачы","lat":53.5042769,"lon":25.6224002,"type":"village"},{"id":"242990839","name":"Дварэц","lat":53.405891,"lon":25.570776,"type":"village"},{"id":"242990854","name":"Белагурна","lat":53.3095032,"lon":25.5936163,"type":"village"},{"id":"242990902","name":"Перхавічы","lat":53.241379,"lon":25.655664,"type":"village"},{"id":"242990905","name":"Лотвічы","lat":53.1899129,"lon":25.6724362,"type":"village"},{"id":"242990931","name":"Яжона","lat":52.9940989,"lon":25.6331538,"type":"village"},{"id":"242990933","name":"Падгорная","lat":52.9876931,"lon":25.56982,"type":"village"},{"id":"242990977","name":"Быцень","lat":52.8816755,"lon":25.4970052,"type":"village"},{"id":"242990981","name":"Магіліцы","lat":52.7763444,"lon":25.5970012,"type":"village"},{"id":"242990984","name":"Волька","lat":52.7838449,"lon":25.6400156,"type":"village"},{"id":"242990992","name":"Вішнёўка","lat":52.8322307,"lon":25.4983522,"type":"village"},{"id":"242991003","name":"Тышкавічы","lat":52.3483877,"lon":25.6121356,"type":"village"},{"id":"242991011","name":"Вялікая Гаць","lat":52.5504047,"lon":25.6575697,"type":"village"},{"id":"242991017","name":"Аброва","lat":52.50941,"lon":25.55841,"type":"village"},{"id":"242991038","name":"Дастоева","lat":52.2363677,"lon":25.6683127,"type":"village"},{"id":"242991049","name":"Вярхусце","lat":52.17733,"lon":25.51506,"type":"village"},{"id":"242991051","name":"Ляскавічы","lat":52.1667801,"lon":25.5496741,"type":"village"},{"id":"242991055","name":"Ляхавічы","lat":52.18283,"lon":25.60905,"type":"village"},{"id":"242991060","name":"Дружылавічы","lat":52.2383092,"lon":25.5630333,"type":"village"},{"id":"242991088","name":"Яечкавічы","lat":52.0781328,"lon":25.6783957,"type":"village"},{"id":"242991091","name":"Патапавічы","lat":52.0590462,"lon":25.667552,"type":"village"},{"id":"242991100","name":"Гнеўчыцы","lat":52.0394,"lon":25.52519,"type":"village"},{"id":"242991103","name":"Сухое","lat":52.0959096,"lon":25.5950964,"type":"village"},{"id":"242991106","name":"Рудск","lat":52.0792986,"lon":25.557884,"type":"village"},{"id":"242991130","name":"Махро","lat":51.9784076,"lon":25.5596414,"type":"village"},{"id":"242991252","name":"Падварышкі","lat":54.238552,"lon":25.370306,"type":"village"},{"id":"242991271","name":"Канвелішкі","lat":54.22972,"lon":25.46657,"type":"village"},{"id":"242991281","name":"Беняконі","lat":54.25014,"lon":25.35902,"type":"village"},{"id":"242991349","name":"Вараноўка","lat":54.157791,"lon":25.32872,"type":"village"},{"id":"242991378","name":"Германішкі","lat":54.1269409,"lon":25.3590771,"type":"village"},{"id":"242991419","name":"Пераганцы","lat":54.110149,"lon":25.45129,"type":"village"},{"id":"242991422","name":"Тракелі","lat":54.0382294,"lon":25.4108061,"type":"village"},{"id":"242991499","name":"Янавічы","lat":53.5116759,"lon":25.8031991,"type":"village"},{"id":"242991603","name":"Пачапава","lat":53.362343,"lon":25.8208296,"type":"village"},{"id":"242991618","name":"Застарынне","lat":53.3332534,"lon":25.8452551,"type":"village"},{"id":"242991646","name":"Сеўрукі","lat":53.1337719,"lon":25.8056701,"type":"village"},{"id":"242991705","name":"Цешаўле","lat":53.2285092,"lon":25.8154585,"type":"village"},{"id":"242991716","name":"Моўчадзь","lat":53.3146502,"lon":25.6954858,"type":"village"},{"id":"242991728","name":"Забалацце","lat":53.1842944,"lon":25.8398837,"type":"village"},{"id":"242991733","name":"Азарычы","lat":52.4081691,"lon":25.8494103,"type":"village"},{"id":"242991747","name":"Табулкі","lat":52.28634,"lon":25.75564,"type":"village"},{"id":"242991750","name":"Парэчча","lat":52.28127,"lon":25.81813,"type":"village"},{"id":"242991763","name":"Глінная","lat":52.47585,"lon":25.72595,"type":"village"},{"id":"242991770","name":"Амяльная","lat":52.476357,"lon":25.7459746,"type":"village"},{"id":"242991773","name":"Святая Воля","lat":52.5376738,"lon":25.68324,"type":"village"},{"id":"242991791","name":"Дабромысль","lat":52.8217541,"lon":25.7139933,"type":"village"},{"id":"242991802","name":"Сялец","lat":52.8379937,"lon":25.758944,"type":"village"},{"id":"242991814","name":"Лясная","lat":52.9812231,"lon":25.7702225,"type":"village"},{"id":"242991832","name":"Кончыцы","lat":52.0683579,"lon":25.8162881,"type":"village"},{"id":"242991835","name":"Дубае","lat":52.0933035,"lon":25.7781362,"type":"village"},{"id":"242991850","name":"Рылавічы","lat":52.1475516,"lon":25.7012895,"type":"village"},{"id":"242991892","name":"Моладава","lat":52.2901153,"lon":25.6912493,"type":"village"},{"id":"242991901","name":"Бродніца","lat":52.12841,"lon":25.68955,"type":"village"},{"id":"242992062","name":"Геранёны","lat":54.1148385,"lon":25.5782213,"type":"village"},{"id":"242992149","name":"Ліпнішкі","lat":54.0063484,"lon":25.6070857,"type":"village"},{"id":"242992232","name":"Ястрамбель","lat":53.0368229,"lon":25.9553271,"type":"village"},{"id":"242992239","name":"Малахоўцы","lat":53.0482715,"lon":25.9654667,"type":"village"},{"id":"242992256","name":"Вулька Целяханская","lat":52.5381984,"lon":25.8757634,"type":"village"},{"id":"242992259","name":"Краі","lat":52.4959514,"lon":26.0057001,"type":"village"},{"id":"242992264","name":"Соміна","lat":52.53516,"lon":25.9225,"type":"village"},{"id":"242992267","name":"Тухавічы","lat":52.8091007,"lon":25.9659841,"type":"village"},{"id":"242992270","name":"Выганашчы","lat":52.61344,"lon":25.91864,"type":"village"},{"id":"242992273","name":"Востраў","lat":52.8888754,"lon":25.9762951,"type":"village"},{"id":"242992296","name":"Уцёс","lat":52.9697667,"lon":25.9329535,"type":"village"},{"id":"242992299","name":"Мілавіды","lat":52.8959328,"lon":25.8477782,"type":"village"},{"id":"242992340","name":"Горталь","lat":52.50074,"lon":25.90894,"type":"village"},{"id":"242992342","name":"Валішча","lat":52.39731,"lon":25.94482,"type":"village"},{"id":"242992352","name":"Новы Дварэц","lat":52.1631524,"lon":25.8919391,"type":"village"},{"id":"242992355","name":"Жабчыцы","lat":52.1286319,"lon":25.9757633,"type":"village"},{"id":"242992363","name":"Садовы","lat":52.1360473,"lon":25.9475957,"type":"village"},{"id":"242992367","name":"Кашавічы","lat":52.173108,"lon":25.9835316,"type":"village"},{"id":"242992379","name":"Ганчары","lat":52.1724917,"lon":26.0155071,"type":"village"},{"id":"242992391","name":"Мерчыцы","lat":52.2609585,"lon":25.9403261,"type":"village"},{"id":"242992453","name":"Гірмантаўцы","lat":53.2742596,"lon":25.9185836,"type":"village"},{"id":"242992545","name":"Дамашэвічы","lat":53.1909146,"lon":25.9495653,"type":"village"},{"id":"242992565","name":"Малая Каўпеніца","lat":53.1752028,"lon":26.0281311,"type":"village"},{"id":"242992584","name":"Новая Мыш","lat":53.1398832,"lon":25.9012627,"type":"village"},{"id":"242992606","name":"Мір","lat":53.17039,"lon":25.93452,"type":"village"},{"id":"242992633","name":"Брольнікі","lat":53.624657,"lon":25.980913,"type":"village"},{"id":"242992708","name":"Баранавічы","lat":53.51243,"lon":25.98584,"type":"village"},{"id":"242992734","name":"Райца","lat":53.4665261,"lon":26.027931,"type":"village"},{"id":"242992752","name":"Валеўка","lat":53.463867,"lon":25.8888,"type":"village"},{"id":"242992755","name":"Мірацічы","lat":53.4534595,"lon":25.9481315,"type":"village"},{"id":"242992833","name":"Лаздуны 1","lat":53.965012,"lon":25.974001,"type":"village"},{"id":"242992869","name":"Лелюкі","lat":53.8808005,"lon":25.9256534,"type":"village"},{"id":"242992924","name":"Асташына","lat":53.695591,"lon":26.02326,"type":"village"},{"id":"242992963","name":"Вераскава","lat":53.76125,"lon":25.906879,"type":"village"},{"id":"242992974","name":"Вялікія Верабʼевічы","lat":53.70031,"lon":25.96739,"type":"village"},{"id":"242992998","name":"Гарадзечна","lat":53.6225367,"lon":25.885554,"type":"village"},{"id":"242993012","name":"Уселюб","lat":53.7185771,"lon":25.7984432,"type":"village"},{"id":"242993030","name":"Бенін","lat":53.7545091,"lon":25.8337996,"type":"village"},{"id":"242993054","name":"Ацмінава","lat":53.79311,"lon":25.707258,"type":"village"},{"id":"242993083","name":"Морына","lat":53.86837,"lon":25.68612,"type":"village"},{"id":"242993109","name":"Нёўда","lat":53.5475082,"lon":25.8308128,"type":"village"},{"id":"242993140","name":"Ладзенікі","lat":53.636642,"lon":25.762499,"type":"village"},{"id":"242993187","name":"Налібакі","lat":53.6979335,"lon":25.6978164,"type":"village"},{"id":"242993330","name":"Дайліды","lat":53.96304,"lon":25.81573,"type":"village"},{"id":"242993368","name":"Суботнікі","lat":54.094021,"lon":25.749121,"type":"village"},{"id":"242993415","name":"Мураваная Ашмянка","lat":54.460438,"lon":25.787054,"type":"village"},{"id":"242993549","name":"Граўжышкі","lat":54.331501,"lon":25.839983,"type":"village"},{"id":"242993553","name":"Крайванцы","lat":54.390991,"lon":25.749121,"type":"village"},{"id":"242993634","name":"Ахова","lat":52.1926143,"lon":25.9162287,"type":"village"},{"id":"242993637","name":"Бярозавічы","lat":52.1584231,"lon":25.86431,"type":"village"},{"id":"242993640","name":"Дамашыцы","lat":52.10712,"lon":25.96567,"type":"village"},{"id":"242993642","name":"Малоткавічы","lat":52.1187118,"lon":25.9227744,"type":"village"},{"id":"242993929","name":"Жыдча","lat":51.9559358,"lon":25.9473722,"type":"village"},{"id":"242993964","name":"Каменны Лог","lat":54.5214815,"lon":25.7223434,"type":"village"},{"id":"242994231","name":"Свяціца","lat":52.75901,"lon":26.0406,"type":"village"},{"id":"242994282","name":"Раздзялавічы","lat":52.63146,"lon":26.14789,"type":"village"},{"id":"242994290","name":"Рудня","lat":52.46392,"lon":26.12137,"type":"village"},{"id":"242994293","name":"Рэчкі","lat":52.45731,"lon":26.04841,"type":"village"},{"id":"242994296","name":"Пучыны","lat":52.4290988,"lon":26.1527586,"type":"village"},{"id":"242994299","name":"Забараўцы","lat":52.39294,"lon":26.10781,"type":"village"},{"id":"242994302","name":"Галаўнінцы","lat":52.9094529,"lon":26.1119209,"type":"village"},{"id":"242994314","name":"Ліпск","lat":52.8358452,"lon":26.0935357,"type":"village"},{"id":"242994317","name":"Крывошын","lat":52.8730118,"lon":26.1307281,"type":"village"},{"id":"242994338","name":"Ставок","lat":52.1959113,"lon":26.0700978,"type":"village"},{"id":"242994340","name":"Пачапава","lat":52.1487724,"lon":26.2060841,"type":"village"},{"id":"242994343","name":"Высокае","lat":52.1527052,"lon":26.1842418,"type":"village"},{"id":"242994346","name":"Купяцічы","lat":52.1767049,"lon":26.1951243,"type":"village"},{"id":"242994355","name":"Лышча","lat":52.36642,"lon":26.14334,"type":"village"},{"id":"242994358","name":"Каўняцін","lat":52.3332,"lon":26.03871,"type":"village"},{"id":"242994364","name":"Мокрая Дуброва","lat":52.3427756,"lon":26.0649801,"type":"village"},{"id":"242994378","name":"Задворʼе","lat":53.0093746,"lon":26.2076202,"type":"village"},{"id":"242994381","name":"Конькі","lat":53.0594664,"lon":26.193318,"type":"village"},{"id":"242994401","name":"Літва","lat":53.11057,"lon":26.15287,"type":"village"},{"id":"242994404","name":"Лаўрынавічы","lat":53.1530828,"lon":26.1313592,"type":"village"},{"id":"242994415","name":"Русіно","lat":53.0830582,"lon":26.0923572,"type":"village"},{"id":"242994436","name":"Малое Гарадзішча","lat":52.9564461,"lon":26.0665002,"type":"village"},{"id":"242994441","name":"Вялікія Лукі","lat":53.0121185,"lon":26.0427587,"type":"village"},{"id":"242994459","name":"Альхоўцы","lat":52.98534,"lon":26.15381,"type":"village"},{"id":"242994497","name":"Стайкі","lat":53.2547635,"lon":26.1806329,"type":"village"},{"id":"242994500","name":"Арабаўшчына","lat":53.26343,"lon":26.04446,"type":"village"},{"id":"242994504","name":"Скробава","lat":53.3272908,"lon":26.1025028,"type":"village"},{"id":"242994519","name":"Гірава","lat":53.13005,"lon":26.10197,"type":"village"},{"id":"242994525","name":"Дарава","lat":53.1089507,"lon":26.1684024,"type":"village"},{"id":"242994549","name":"Крошын","lat":53.1985619,"lon":26.1558193,"type":"village"},{"id":"242994555","name":"Сталовічы","lat":53.2143161,"lon":26.0377673,"type":"village"},{"id":"242994651","name":"Цырын","lat":53.409557,"lon":26.159243,"type":"village"},{"id":"242994657","name":"Варонча","lat":53.416111,"lon":26.059074,"type":"village"},{"id":"242994660","name":"Карчова","lat":53.36557,"lon":26.11948,"type":"village"},{"id":"242994680","name":"Краснае","lat":53.5883,"lon":26.18248,"type":"village"},{"id":"242994735","name":"Малюшычы","lat":53.488392,"lon":26.071501,"type":"village"},{"id":"242994784","name":"Нягневічы","lat":53.6586,"lon":26.07802,"type":"village"},{"id":"242994822","name":"Шчорсы","lat":53.650875,"lon":26.171593,"type":"village"},{"id":"242994884","name":"Бакшты","lat":53.9374669,"lon":26.1849282,"type":"village"},{"id":"242994962","name":"Багданаў","lat":54.1749268,"lon":26.1501552,"type":"village"},{"id":"242994977","name":"Эйгерды","lat":54.06312,"lon":26.06489,"type":"village"},{"id":"242995021","name":"Даўнары","lat":53.9794497,"lon":26.0772941,"type":"village"},{"id":"242995075","name":"Ляпешкі","lat":54.06483,"lon":25.91598,"type":"village"},{"id":"242995180","name":"Трабы","lat":54.157619,"lon":25.90593,"type":"village"},{"id":"242995231","name":"Гальшаны","lat":54.256939,"lon":26.012857,"type":"village"},{"id":"242995334","name":"Кальчуны","lat":54.3899175,"lon":25.8725359,"type":"village"},{"id":"242995352","name":"Будзёнаўка","lat":54.42112,"lon":25.903099,"type":"village"},{"id":"242995420","name":"Кракоўка","lat":54.443403,"lon":25.9841731,"type":"village"},{"id":"242995510","name":"Гродзі","lat":54.52351,"lon":25.88302,"type":"village"},{"id":"242995533","name":"Палушы","lat":54.6061794,"lon":25.8718759,"type":"village"},{"id":"242995549","name":"Малі","lat":54.6435727,"lon":25.9900785,"type":"village"},{"id":"242995611","name":"Варняны","lat":54.7263876,"lon":26.0054119,"type":"village"},{"id":"242995639","name":"Варона","lat":54.7561062,"lon":25.9598022,"type":"village"},{"id":"242995661","name":"Трокенікі 1","lat":54.7515352,"lon":25.8881876,"type":"village"},{"id":"242995690","name":"Кемелішкі","lat":54.8573878,"lon":25.8839382,"type":"village"},{"id":"242995693","name":"Рытань","lat":54.846748,"lon":25.966789,"type":"village"},{"id":"242995800","name":"Хойна","lat":51.9649006,"lon":26.0400479,"type":"village"},{"id":"242995815","name":"Пасянічы","lat":52.1774425,"lon":26.0741123,"type":"village"},{"id":"242995818","name":"Галева","lat":52.1554592,"lon":26.1015597,"type":"village"},{"id":"242995821","name":"Заполле","lat":52.1489696,"lon":26.0821332,"type":"village"},{"id":"242995830","name":"Вішавічы","lat":52.1316033,"lon":26.144919,"type":"village"},{"id":"242995844","name":"Стытычава","lat":52.0638164,"lon":26.1313053,"type":"village"},{"id":"242995850","name":"Аснежыцы","lat":52.1889378,"lon":26.1260071,"type":"village"},{"id":"242995853","name":"Пінкавічы","lat":52.1425994,"lon":26.168397,"type":"village"},{"id":"242995856","name":"Плешчыцы","lat":52.0644392,"lon":26.1960457,"type":"village"},{"id":"242995900","name":"Лукі","lat":53.4774662,"lon":26.2387492,"type":"village"},{"id":"242995912","name":"Малая Мядзвядка","lat":53.3858337,"lon":26.3620749,"type":"village"},{"id":"242995918","name":"Макашы","lat":53.3497127,"lon":26.389985,"type":"village"},{"id":"242995923","name":"Хлюпічы","lat":53.3732303,"lon":26.3266689,"type":"village"},{"id":"242995924","name":"Бараціна","lat":53.3524644,"lon":26.3515473,"type":"village"},{"id":"242995926","name":"Вялікая Мядзвядка","lat":53.3805775,"lon":26.3654214,"type":"village"},{"id":"242995929","name":"Малыя Жухавічы","lat":53.389056,"lon":26.31809,"type":"village"},{"id":"242995936","name":"Паланечка","lat":53.3504037,"lon":26.2613206,"type":"village"},{"id":"242995951","name":"Вялікія Жухавічы","lat":53.411491,"lon":26.31938,"type":"village"},{"id":"242995954","name":"Ішкалдзь","lat":53.3388288,"lon":26.3558608,"type":"village"},{"id":"242995963","name":"Петкавічы","lat":53.3078798,"lon":26.3621883,"type":"village"},{"id":"242995970","name":"Вольна","lat":53.29983,"lon":26.22171,"type":"village"},{"id":"242995979","name":"Ніжняе Чэрніхава","lat":53.2480374,"lon":26.2855511,"type":"village"},{"id":"242995997","name":"Грускова","lat":53.2129532,"lon":26.3805339,"type":"village"},{"id":"242996009","name":"Друцкаўшчына","lat":53.2304282,"lon":26.3208821,"type":"village"},{"id":"242996021","name":"Пагарэльцы","lat":53.204288,"lon":26.304235,"type":"village"},{"id":"242996023","name":"Падлясейкі","lat":53.17889,"lon":26.25664,"type":"village"},{"id":"242996086","name":"Навасёлкі","lat":53.119308,"lon":26.2806449,"type":"village"},{"id":"242996090","name":"Ураджайная","lat":53.09452,"lon":26.23029,"type":"village"},{"id":"242996111","name":"Зубелевічы","lat":53.0535508,"lon":26.3465875,"type":"village"},{"id":"242996120","name":"Падлессе","lat":53.0828884,"lon":26.3456996,"type":"village"},{"id":"242996151","name":"Тальмінавічы","lat":52.9449147,"lon":26.359623,"type":"village"},{"id":"242996157","name":"Русінавічы","lat":52.9811902,"lon":26.3127909,"type":"village"},{"id":"242996160","name":"Мядзведзічы","lat":52.9359596,"lon":26.3030098,"type":"village"},{"id":"242996171","name":"Ганчары","lat":52.9603003,"lon":26.3097083,"type":"village"},{"id":"242996212","name":"Куршынавічы","lat":52.8862936,"lon":26.3256155,"type":"village"},{"id":"242996224","name":"Дабраслаўка","lat":52.4049729,"lon":26.2454188,"type":"village"},{"id":"242996229","name":"Камень","lat":52.321648,"lon":26.3792813,"type":"village"},{"id":"242996235","name":"Бобрык","lat":52.46907,"lon":26.31088,"type":"village"},{"id":"242996238","name":"Пласкінь","lat":52.458,"lon":26.26582,"type":"village"},{"id":"242996339","name":"Крэва","lat":54.310879,"lon":26.282677,"type":"village"},{"id":"242996348","name":"Ракаўцы","lat":54.278721,"lon":26.316719,"type":"village"},{"id":"242996385","name":"Ардашы","lat":54.252361,"lon":26.231781,"type":"village"},{"id":"242996443","name":"Сакаўшчына","lat":54.108871,"lon":26.377831,"type":"village"},{"id":"242996616","name":"Турэц","lat":53.526981,"lon":26.310564,"type":"village"},{"id":"242996784","name":"Дайлідкі","lat":54.5712391,"lon":26.10412,"type":"village"},{"id":"242996798","name":"Жупраны","lat":54.4698333,"lon":26.0870169,"type":"village"},{"id":"242996820","name":"Навасёлкі","lat":54.4040657,"lon":26.0765986,"type":"village"},{"id":"242996844","name":"Солы","lat":54.517941,"lon":26.18334,"type":"village"},{"id":"242996878","name":"Кушляны","lat":54.462311,"lon":26.202095,"type":"village"},{"id":"242996907","name":"Баруны","lat":54.3176573,"lon":26.1362638,"type":"village"},{"id":"242997004","name":"Вішнева","lat":54.1389586,"lon":26.2200524,"type":"village"},{"id":"242997113","name":"Гарадзішча","lat":52.1751732,"lon":26.2614541,"type":"village"},{"id":"242997116","name":"Гарадзішча","lat":52.1658223,"lon":26.2723404,"type":"village"},{"id":"242997140","name":"Сошна","lat":52.2418929,"lon":26.3518603,"type":"village"},{"id":"242997158","name":"Пагост Загародскі","lat":52.3241894,"lon":26.34685,"type":"village"},{"id":"242997161","name":"Вяз","lat":52.3034586,"lon":26.3343068,"type":"village"},{"id":"242997167","name":"Новы Двор","lat":52.3045038,"lon":26.2447471,"type":"village"},{"id":"242997170","name":"Боркі","lat":52.3577325,"lon":26.3413181,"type":"village"},{"id":"242997172","name":"Чухава","lat":52.32839,"lon":26.25432,"type":"village"},{"id":"242997228","name":"Ласіцк","lat":51.92894,"lon":26.2926,"type":"village"},{"id":"242997254","name":"Лосічы","lat":52.0187398,"lon":26.2199521,"type":"village"},{"id":"242997256","name":"Лемяшэвічы","lat":52.08652,"lon":26.32153,"type":"village"},{"id":"242997259","name":"Лапаціна","lat":52.0207532,"lon":26.334033,"type":"village"},{"id":"242997278","name":"Міхалішкі","lat":54.8128921,"lon":26.1600209,"type":"village"},{"id":"242997345","name":"Падольцы","lat":54.866348,"lon":26.089855,"type":"village"},{"id":"242997428","name":"Гервяты","lat":54.690147,"lon":26.140207,"type":"village"},{"id":"242997518","name":"Дзераўная","lat":53.699451,"lon":26.566231,"type":"village"},{"id":"242997535","name":"Ніўнае","lat":53.71293,"lon":26.50469,"type":"village"},{"id":"242997538","name":"Налібакі","lat":53.761993,"lon":26.471273,"type":"village"},{"id":"242997594","name":"Дубіна Баярская","lat":54.1748405,"lon":26.5611404,"type":"village"},{"id":"242997644","name":"Астроўкі","lat":53.353497,"lon":26.443626,"type":"village"},{"id":"242997646","name":"Новая Вёска","lat":53.3597751,"lon":26.5276612,"type":"village"},{"id":"242997653","name":"Малінаўка","lat":53.346237,"lon":26.455595,"type":"village"},{"id":"242997659","name":"Ужанка","lat":53.3011394,"lon":26.5668998,"type":"village"},{"id":"242997662","name":"Стаўпішчы","lat":53.3438335,"lon":26.4198104,"type":"village"},{"id":"242997665","name":"Вялікая Лысіца","lat":53.3069224,"lon":26.4548105,"type":"village"},{"id":"242997685","name":"Студзёнкі","lat":53.2956062,"lon":26.5043463,"type":"village"},{"id":"242997693","name":"Малева","lat":53.198772,"lon":26.569128,"type":"village"},{"id":"242997724","name":"Высокая Ліпа","lat":53.2373001,"lon":26.4737805,"type":"village"},{"id":"242997727","name":"Вялікая Ліпа","lat":53.244381,"lon":26.50812,"type":"village"},{"id":"242997730","name":"Аношкі","lat":53.1850137,"lon":26.470442,"type":"village"},{"id":"242997820","name":"Прасці","lat":53.3578828,"lon":26.418593,"type":"village"},{"id":"242998511","name":"Сыраваткі","lat":54.684425,"lon":26.402403,"type":"village"},{"id":"242998514","name":"Вішнева","lat":54.7149268,"lon":26.5228824,"type":"village"},{"id":"242998611","name":"Сінькі","lat":54.3667211,"lon":26.46365,"type":"village"},{"id":"242998655","name":"Гародзькі","lat":54.2152164,"lon":26.4439147,"type":"village"},{"id":"242998705","name":"Залессе","lat":54.4208324,"lon":26.5357375,"type":"village"},{"id":"242998742","name":"Лылойці","lat":54.766434,"lon":26.38706,"type":"village"},{"id":"242998748","name":"Альхоўка","lat":54.8077644,"lon":26.2329601,"type":"village"},{"id":"242998774","name":"Страчанка","lat":54.8982093,"lon":26.3304634,"type":"village"},{"id":"242998825","name":"Бялкоўшчына","lat":54.453335,"lon":26.319887,"type":"village"},{"id":"242998834","name":"Асінаўшчына","lat":54.510941,"lon":26.333506,"type":"village"},{"id":"242998934","name":"Рымдзюны","lat":54.662128,"lon":26.21707,"type":"village"},{"id":"242998949","name":"Галынка","lat":52.8931121,"lon":26.5463631,"type":"village"},{"id":"242998961","name":"Кукава","lat":52.8089224,"lon":26.5559486,"type":"village"},{"id":"242998980","name":"Туча","lat":52.958927,"lon":26.541323,"type":"village"},{"id":"242998993","name":"Карацк","lat":52.9332261,"lon":26.5723029,"type":"village"},{"id":"242999133","name":"Нача","lat":53.0346346,"lon":26.4241154,"type":"village"},{"id":"242999268","name":"Жарабковічы","lat":53.07152,"lon":26.44538,"type":"village"},{"id":"242999296","name":"Даматканавічы","lat":53.1173646,"lon":26.5506638,"type":"village"},{"id":"242999298","name":"Грыцкевічы","lat":53.1433362,"lon":26.417061,"type":"village"},{"id":"242999305","name":"Арда","lat":53.1268713,"lon":26.4874995,"type":"village"},{"id":"242999325","name":"Казлы","lat":53.1719766,"lon":26.5105225,"type":"village"},{"id":"242999337","name":"Сноў","lat":53.217648,"lon":26.4052279,"type":"village"},{"id":"242999373","name":"Гарадная","lat":51.8711358,"lon":26.4985432,"type":"village"},{"id":"242999384","name":"Палессе","lat":55.0989499,"lon":26.3869734,"type":"village"},{"id":"242999388","name":"Калоднае","lat":51.9449562,"lon":26.4855229,"type":"village"},{"id":"242999400","name":"Фядоры","lat":51.9480388,"lon":26.4018609,"type":"village"},{"id":"242999414","name":"Барычавічы","lat":52.0584527,"lon":26.4690447,"type":"village"},{"id":"242999418","name":"Радчыцк","lat":51.95434,"lon":26.5658,"type":"village"},{"id":"242999422","name":"Калавуравічы","lat":52.08472,"lon":26.49765,"type":"village"},{"id":"242999468","name":"Дубаўка","lat":52.2737309,"lon":26.5428361,"type":"village"},{"id":"242999474","name":"Парахонск","lat":52.230538,"lon":26.4455643,"type":"village"},{"id":"242999495","name":"Люсіна","lat":52.6289078,"lon":26.5132338,"type":"village"},{"id":"242999498","name":"Задубʼе","lat":52.53155,"lon":26.45233,"type":"village"},{"id":"242999506","name":"Багданаўка","lat":52.36865,"lon":26.45886,"type":"village"},{"id":"242999509","name":"Лобча","lat":52.2970389,"lon":26.5276418,"type":"village"},{"id":"242999523","name":"Любашава","lat":52.7796341,"lon":26.4235942,"type":"village"},{"id":"242999525","name":"Агарэвічы","lat":52.768869,"lon":26.5254696,"type":"village"},{"id":"242999528","name":"Ганцавічы","lat":52.7385248,"lon":26.4551963,"type":"village"},{"id":"242999651","name":"Мароські","lat":54.33345,"lon":26.701088,"type":"village"},{"id":"242999654","name":"Маркава","lat":54.333363,"lon":26.5982,"type":"village"},{"id":"242999669","name":"Турэц-Баяры","lat":54.377861,"lon":26.66004,"type":"village"},{"id":"242999671","name":"Маліноўшчына","lat":54.328945,"lon":26.655071,"type":"village"},{"id":"242999695","name":"Лебедзева","lat":54.3142698,"lon":26.7064608,"type":"village"},{"id":"242999705","name":"Заскавічы","lat":54.39743,"lon":26.60322,"type":"village"},{"id":"242999710","name":"Ручыца","lat":54.4555135,"lon":26.6678702,"type":"village"},{"id":"242999777","name":"Сырмеж","lat":54.7851044,"lon":26.5907685,"type":"village"},{"id":"242999804","name":"Нарач","lat":54.9371661,"lon":26.6897469,"type":"village"},{"id":"243002014","name":"Войстам","lat":54.57544,"lon":26.6209,"type":"village"},{"id":"243002062","name":"Лыцавічы","lat":54.7172056,"lon":26.6356838,"type":"village"},{"id":"243002067","name":"Нарач","lat":54.5634665,"lon":26.7280634,"type":"village"},{"id":"243002081","name":"Куль","lat":53.8001718,"lon":26.7418125,"type":"village"},{"id":"243002085","name":"Камень","lat":53.8641284,"lon":26.6524342,"type":"village"},{"id":"243002101","name":"Сівіца","lat":53.923382,"lon":26.671631,"type":"village"},{"id":"243002125","name":"Пяршаі","lat":54.0347018,"lon":26.6800643,"type":"village"},{"id":"243002171","name":"Бабровічы","lat":54.0517683,"lon":26.5764568,"type":"village"},{"id":"243002296","name":"Гарадзілава","lat":54.224712,"lon":26.6019545,"type":"village"},{"id":"243002299","name":"Палачаны","lat":54.226743,"lon":26.7207324,"type":"village"},{"id":"243002339","name":"Яхімоўшчына","lat":54.2363605,"lon":26.6692577,"type":"village"},{"id":"243002390","name":"Сугвазды","lat":54.1194447,"lon":26.6894831,"type":"village"},{"id":"243002505","name":"Асмолава","lat":53.1587843,"lon":26.6550849,"type":"village"},{"id":"243002510","name":"Карцэвічы","lat":53.1928986,"lon":26.6033777,"type":"village"},{"id":"243002513","name":"Саска Ліпка","lat":53.2298937,"lon":26.5829832,"type":"village"},{"id":"243002516","name":"Рудаўка","lat":53.2376364,"lon":26.6489046,"type":"village"},{"id":"243002547","name":"Лань","lat":53.1497761,"lon":26.6877331,"type":"village"},{"id":"243002556","name":"Сякерычы","lat":53.0788895,"lon":26.6904729,"type":"village"},{"id":"243002571","name":"Панкратавічы","lat":53.0670249,"lon":26.6675855,"type":"village"},{"id":"243002575","name":"Красная Звязда","lat":53.011909,"lon":26.680319,"type":"village"},{"id":"243002577","name":"Гурнаўшчына","lat":53.0527467,"lon":26.7501607,"type":"village"},{"id":"243002585","name":"Галавачы","lat":53.04233,"lon":26.74622,"type":"village"},{"id":"243002594","name":"Бабаевічы","lat":53.0358681,"lon":26.6454715,"type":"village"},{"id":"243002604","name":"Кухчыцы","lat":53.0342624,"lon":26.5721137,"type":"village"},{"id":"243002607","name":"Янавічы","lat":53.008198,"lon":26.646633,"type":"village"},{"id":"243002625","name":"Грыцэвічы","lat":52.9796481,"lon":26.715503,"type":"village"},{"id":"243002639","name":"Арэшніца","lat":52.8844315,"lon":26.6592152,"type":"village"},{"id":"243002642","name":"Нач","lat":52.8426,"lon":26.66957,"type":"village"},{"id":"243002645","name":"Востраў","lat":52.85789,"lon":26.60906,"type":"village"},{"id":"243002658","name":"Дзяніскавічы","lat":52.72081,"lon":26.6785,"type":"village"},{"id":"243002661","name":"Вялікія Круговічы","lat":52.7751832,"lon":26.6330336,"type":"village"},{"id":"243002676","name":"Лактышы","lat":52.8306399,"lon":26.7157994,"type":"village"},{"id":"243002684","name":"Шашкі","lat":53.6204971,"lon":26.6652126,"type":"village"},{"id":"243002702","name":"Сцяцкі","lat":53.5175311,"lon":26.7348483,"type":"village"},{"id":"243002720","name":"Апечкі","lat":53.5422237,"lon":26.6601208,"type":"village"},{"id":"243002724","name":"Аталезь","lat":53.5704991,"lon":26.6030946,"type":"village"},{"id":"243002735","name":"Новы Свержань","lat":53.454833,"lon":26.7321408,"type":"village"},{"id":"243002751","name":"Дразды","lat":53.468229,"lon":26.68217,"type":"village"},{"id":"243002757","name":"Стары Свержань","lat":53.4602541,"lon":26.6763811,"type":"village"},{"id":"243002760","name":"Залужжа","lat":53.4405943,"lon":26.602949,"type":"village"},{"id":"243002766","name":"Ператокі","lat":53.4674267,"lon":26.6512795,"type":"village"},{"id":"243002772","name":"Заямнае","lat":53.5086454,"lon":26.6979711,"type":"village"},{"id":"243002790","name":"Мархачоўшчына","lat":53.4111471,"lon":26.7149584,"type":"village"},{"id":"243002808","name":"Вішнявец","lat":53.3512965,"lon":26.6860915,"type":"village"},{"id":"243002815","name":"Горкі","lat":53.3927369,"lon":26.6321723,"type":"village"},{"id":"243002841","name":"Старыя Навасёлкі","lat":53.2904369,"lon":26.6624527,"type":"village"},{"id":"243002857","name":"Заазерʼе","lat":53.2317031,"lon":26.6893178,"type":"village"},{"id":"243002875","name":"Альба","lat":53.203408,"lon":26.6428045,"type":"village"},{"id":"243002998","name":"Камарова","lat":54.901527,"lon":26.399891,"type":"village"},{"id":"243003060","name":"Старлыгі","lat":54.826408,"lon":26.514299,"type":"village"},{"id":"243003068","name":"Плотніца","lat":52.04352,"lon":26.64682,"type":"village"},{"id":"243003069","name":"Стахава","lat":52.07717,"lon":26.71635,"type":"village"},{"id":"243003086","name":"Малькавічы","lat":52.5345391,"lon":26.5968996,"type":"village"},{"id":"243003093","name":"Люшча","lat":52.4501686,"lon":26.7103948,"type":"village"},{"id":"243003095","name":"Бастынь","lat":52.3885743,"lon":26.7544536,"type":"village"},{"id":"243003098","name":"Палескі","lat":52.29449,"lon":26.66639,"type":"village"},{"id":"243003101","name":"Лунін","lat":52.30565,"lon":26.62863,"type":"village"},{"id":"243003108","name":"Вулька 1","lat":52.27681,"lon":26.70579,"type":"village"},{"id":"243003120","name":"Лука","lat":51.9056853,"lon":26.6091841,"type":"village"},{"id":"243003123","name":"Глінка","lat":51.9259058,"lon":26.6749513,"type":"village"},{"id":"243003126","name":"Ніжні Церабяжоў","lat":51.82345,"lon":26.72373,"type":"village"},{"id":"243003129","name":"Верхні Церабяжоў","lat":51.8320424,"lon":26.719219,"type":"village"},{"id":"243003152","name":"Рухча 2","lat":51.9963426,"lon":26.6037031,"type":"village"},{"id":"243003155","name":"Рухча 1","lat":51.9919697,"lon":26.6214935,"type":"village"},{"id":"243003317","name":"Хоўхлава","lat":54.1660427,"lon":26.7677879,"type":"village"},{"id":"243003320","name":"Селеўцы","lat":54.1286746,"lon":26.8037249,"type":"village"},{"id":"243003360","name":"Вытрапаўшчына","lat":54.289852,"lon":26.811861,"type":"village"},{"id":"243003364","name":"Рагазы","lat":54.279243,"lon":26.840971,"type":"village"},{"id":"243003389","name":"Цюрлі","lat":54.283524,"lon":26.819075,"type":"village"},{"id":"243003397","name":"Гарадок","lat":54.1570388,"lon":26.9192441,"type":"village"},{"id":"243003470","name":"Мыслевічы","lat":54.284561,"lon":26.8596,"type":"village"},{"id":"243003488","name":"Сасновы Бор","lat":54.345634,"lon":26.875128,"type":"village"},{"id":"243003523","name":"Дамашы","lat":54.320301,"lon":26.747463,"type":"village"},{"id":"243003526","name":"Насілава","lat":54.3152183,"lon":26.7811447,"type":"village"},{"id":"243003563","name":"Асіпавічы","lat":54.4542484,"lon":26.8445383,"type":"village"},{"id":"243003577","name":"Порса","lat":54.510205,"lon":26.8884903,"type":"village"},{"id":"243003601","name":"Шылавічы","lat":54.490072,"lon":26.8280115,"type":"village"},{"id":"243003604","name":"Ізбіно","lat":54.4879818,"lon":26.8686937,"type":"village"},{"id":"243003626","name":"Іжа","lat":54.6593073,"lon":26.7660322,"type":"village"},{"id":"243003653","name":"Любань","lat":54.5973957,"lon":26.8794115,"type":"village"},{"id":"243003686","name":"Зарэчча","lat":53.5850206,"lon":26.8448922,"type":"village"},{"id":"243003749","name":"Новыя Рубяжэвічы","lat":53.6942665,"lon":26.8558872,"type":"village"},{"id":"243003757","name":"Рубяжэвічы","lat":53.6904484,"lon":26.8646839,"type":"village"},{"id":"243003763","name":"Журавінка","lat":53.66608,"lon":26.925972,"type":"village"},{"id":"243003784","name":"Тонава","lat":53.72272,"lon":26.77068,"type":"village"},{"id":"243003799","name":"Літва","lat":53.77619,"lon":26.8069,"type":"village"},{"id":"243003814","name":"Вялікае Сяло","lat":53.7425633,"lon":26.9303481,"type":"village"},{"id":"243003857","name":"Рочавічы","lat":53.8216564,"lon":26.8395553,"type":"village"},{"id":"243004057","name":"Доры","lat":54.0729767,"lon":26.7821811,"type":"village"},{"id":"243004060","name":"Вялікія Чучавічы","lat":52.5794734,"lon":26.8593161,"type":"village"},{"id":"243004068","name":"Малыя Чучавічы","lat":52.59498,"lon":26.88912,"type":"village"},{"id":"243004077","name":"Велута","lat":52.4596039,"lon":26.7907476,"type":"village"},{"id":"243004083","name":"Вічын","lat":52.2720749,"lon":26.9331598,"type":"village"},{"id":"243004086","name":"Ракітна","lat":52.22351,"lon":26.92826,"type":"village"},{"id":"243004089","name":"Дзятлавічы","lat":52.3388926,"lon":26.8375445,"type":"village"},{"id":"243004095","name":"Яжаўкі","lat":52.244708,"lon":26.8935488,"type":"village"},{"id":"243004098","name":"Язвінкі","lat":52.2509641,"lon":26.9083498,"type":"village"},{"id":"243004104","name":"Сасноўка","lat":52.2512926,"lon":26.8650553,"type":"village"},{"id":"243004107","name":"Белавуша","lat":51.9374377,"lon":26.9042623,"type":"village"},{"id":"243004110","name":"Бор-Дубінец","lat":52.00043,"lon":26.91496,"type":"village"},{"id":"243004113","name":"Дубай","lat":52.03082,"lon":26.862,"type":"village"},{"id":"243004122","name":"Відзібор","lat":51.9860547,"lon":26.7681497,"type":"village"},{"id":"243004131","name":"Вялікія Вікаравічы","lat":51.86482,"lon":26.89513,"type":"village"},{"id":"243004134","name":"Малыя Вікаравічы","lat":51.8584986,"lon":26.8846248,"type":"village"},{"id":"243004141","name":"Атвержычы","lat":51.9134149,"lon":26.9253747,"type":"village"},{"id":"243004149","name":"Струга","lat":51.8504789,"lon":26.8913941,"type":"village"},{"id":"243004152","name":"Манькавічы","lat":51.905307,"lon":26.8775487,"type":"village"},{"id":"243004172","name":"Браткава","lat":53.055268,"lon":26.8581209,"type":"village"},{"id":"243004175","name":"Навасёлкі","lat":53.012718,"lon":26.89093,"type":"village"},{"id":"243004190","name":"Чырвоная Дубрава","lat":52.93273,"lon":26.91084,"type":"village"},{"id":"243004196","name":"Нагорнае","lat":52.9698762,"lon":26.765305,"type":"village"},{"id":"243004204","name":"Лазавічы","lat":52.9618911,"lon":26.877431,"type":"village"},{"id":"243004208","name":"Заастравечча","lat":52.897974,"lon":26.779717,"type":"village"},{"id":"243004209","name":"Морач","lat":52.8764453,"lon":26.8672606,"type":"village"},{"id":"243004219","name":"Будча","lat":52.7596242,"lon":26.8403081,"type":"village"},{"id":"243004221","name":"Слаўкава","lat":53.2272986,"lon":26.7570497,"type":"village"},{"id":"243004224","name":"Юшавічы","lat":53.2423395,"lon":26.8306049,"type":"village"},{"id":"243004228","name":"Салтанаўшчына","lat":53.1974156,"lon":26.814836,"type":"village"},{"id":"243004269","name":"Палаўковічы","lat":53.0909446,"lon":26.7735852,"type":"village"},{"id":"243004272","name":"Лявонавічы","lat":53.1213,"lon":26.777121,"type":"village"},{"id":"243004306","name":"Зубкі","lat":53.0799554,"lon":26.7561966,"type":"village"},{"id":"243004327","name":"Слабада","lat":53.51569,"lon":26.78192,"type":"village"},{"id":"243004333","name":"Задворʼе","lat":53.495384,"lon":26.772957,"type":"village"},{"id":"243004343","name":"Мікалаеўшчына","lat":53.4057421,"lon":26.8379281,"type":"village"},{"id":"243004367","name":"Любкаўшчына","lat":53.3465572,"lon":26.795164,"type":"village"},{"id":"243004389","name":"Затурʼя","lat":53.2785522,"lon":26.831053,"type":"village"},{"id":"243004397","name":"Сейлавічы","lat":53.2816249,"lon":26.7709204,"type":"village"},{"id":"243004417","name":"Камаі","lat":55.05978,"lon":26.6023449,"type":"village"},{"id":"243004532","name":"Відзы Лаўчынскія","lat":55.3836992,"lon":26.5822331,"type":"village"},{"id":"243004551","name":"Ярэва","lat":55.14278,"lon":26.69352,"type":"village"},{"id":"243004692","name":"Карасіна","lat":55.65966,"lon":26.6803,"type":"village"},{"id":"243004730","name":"Варані","lat":51.828859,"lon":26.8233348,"type":"village"},{"id":"243004732","name":"Бухлічы","lat":51.79762,"lon":26.76931,"type":"village"},{"id":"243004743","name":"Дрысвяты","lat":55.5893947,"lon":26.671904,"type":"village"},{"id":"243004810","name":"Пугачы","lat":54.0874444,"lon":26.999693,"type":"village"},{"id":"243004871","name":"Дубрава","lat":54.0909608,"lon":27.0933449,"type":"village"},{"id":"243004903","name":"Выганічы","lat":53.9573397,"lon":27.0071822,"type":"village"},{"id":"243004916","name":"Аксакаўшчына","lat":53.9366211,"lon":27.0873407,"type":"village"},{"id":"243004926","name":"Траскоўшчына","lat":53.9112093,"lon":27.0931933,"type":"village"},{"id":"243004944","name":"Ракаў","lat":53.966892,"lon":27.052513,"type":"village"},{"id":"243004982","name":"Вялікія Навасёлкі","lat":53.743061,"lon":27.11297,"type":"village"},{"id":"243005008","name":"Скірмантава","lat":53.83979,"lon":27.055639,"type":"village"},{"id":"243005037","name":"Волма","lat":53.8704071,"lon":26.9581387,"type":"village"},{"id":"243005069","name":"Старая Рудзіца","lat":53.6565691,"lon":27.0623774,"type":"village"},{"id":"243005108","name":"Баравое","lat":53.673237,"lon":27.006218,"type":"village"},{"id":"243005111","name":"Дзягільна","lat":53.684521,"lon":27.075291,"type":"village"},{"id":"243005145","name":"Старынкі","lat":53.733269,"lon":26.998989,"type":"village"},{"id":"243005299","name":"Пясочнае","lat":53.3360614,"lon":27.1009258,"type":"village"},{"id":"243005307","name":"Магільна","lat":53.41209,"lon":26.98731,"type":"village"},{"id":"243005333","name":"Пацейкі","lat":53.1757979,"lon":26.959481,"type":"village"},{"id":"243005337","name":"Душава","lat":53.1968693,"lon":26.9918149,"type":"village"},{"id":"243005377","name":"Бабоўня","lat":53.2573007,"lon":26.9540544,"type":"village"},{"id":"243005386","name":"Лясное","lat":53.264721,"lon":27.06662,"type":"village"},{"id":"243005423","name":"Лешня","lat":53.0073602,"lon":26.9973512,"type":"village"},{"id":"243005426","name":"Быстрыца","lat":53.03392,"lon":27.07778,"type":"village"},{"id":"243005431","name":"Цімкавічы","lat":53.072872,"lon":26.992043,"type":"village"},{"id":"243005434","name":"Бучаціна","lat":52.91333,"lon":27.083361,"type":"village"},{"id":"243005437","name":"Семежава","lat":52.9627379,"lon":26.9978882,"type":"village"},{"id":"243005454","name":"Жыліхава","lat":52.9568082,"lon":27.0708023,"type":"village"},{"id":"243005462","name":"Гулевічы","lat":52.9763914,"lon":27.0755453,"type":"village"},{"id":"243005469","name":"Мажа","lat":53.1151021,"lon":27.0566897,"type":"village"},{"id":"243005477","name":"Руднае","lat":53.09959,"lon":26.93376,"type":"village"},{"id":"243005506","name":"Чудзін","lat":52.7257073,"lon":26.9756038,"type":"village"},{"id":"243005512","name":"Гаўрыльчыцы","lat":52.6385707,"lon":27.0842976,"type":"village"},{"id":"243005527","name":"Міжлессе","lat":52.40015,"lon":27.04396,"type":"village"},{"id":"243005539","name":"Смалічы","lat":52.8629406,"lon":27.0303889,"type":"village"},{"id":"243005556","name":"Бродніца","lat":52.2999016,"lon":26.9617843,"type":"village"},{"id":"243005559","name":"Азярніца","lat":52.28582,"lon":27.01075,"type":"village"},{"id":"243005564","name":"Лахва","lat":52.2128505,"lon":27.1016299,"type":"village"},{"id":"243005575","name":"Красная Воля","lat":52.3738,"lon":27.06293,"type":"village"},{"id":"243005578","name":"Галы Бор","lat":52.38178,"lon":26.95633,"type":"village"},{"id":"243005597","name":"Вулька 2","lat":52.3512089,"lon":26.9854683,"type":"village"},{"id":"243005616","name":"Харомск","lat":52.0243,"lon":27.10902,"type":"village"},{"id":"243005620","name":"Малыя Арлы","lat":52.0383891,"lon":27.0399266,"type":"village"},{"id":"243005623","name":"Лядзец","lat":52.0631245,"lon":27.0842768,"type":"village"},{"id":"243005627","name":"Дубенец","lat":52.0358266,"lon":26.9775995,"type":"village"},{"id":"243005630","name":"Вялікія Арлы","lat":52.0540636,"lon":27.0515961,"type":"village"},{"id":"243005633","name":"Цна","lat":52.2467358,"lon":26.9901331,"type":"village"},{"id":"243006923","name":"Кажан-Гарадок","lat":52.205608,"lon":27.0102723,"type":"village"},{"id":"243006932","name":"Дварэц","lat":52.2761149,"lon":26.9558926,"type":"village"},{"id":"243006939","name":"Любачын","lat":52.2627841,"lon":27.0604561,"type":"village"},{"id":"243006942","name":"Дрэбск","lat":52.2301375,"lon":27.0190621,"type":"village"},{"id":"243006948","name":"Альманы","lat":51.8088457,"lon":27.0626468,"type":"village"},{"id":"243006969","name":"Беражное","lat":51.99417,"lon":26.99315,"type":"village"},{"id":"243006972","name":"Хотамель","lat":51.9511653,"lon":27.0501222,"type":"village"},{"id":"243006988","name":"Рубель","lat":51.9746902,"lon":27.0618846,"type":"village"},{"id":"243006998","name":"Мяжаны","lat":55.6468312,"lon":26.7761064,"type":"village"},{"id":"243007085","name":"Пагошча","lat":55.5613862,"lon":26.9225336,"type":"village"},{"id":"243007128","name":"Опса","lat":55.539089,"lon":26.825815,"type":"village"},{"id":"243007195","name":"Далёкія","lat":55.4768433,"lon":26.8654322,"type":"village"},{"id":"243007197","name":"Вайнюнцы","lat":55.5078251,"lon":26.7701553,"type":"village"},{"id":"243007232","name":"Богіна","lat":55.4244321,"lon":26.7985712,"type":"village"},{"id":"243007264","name":"Казяны","lat":55.2975703,"lon":26.8571047,"type":"village"},{"id":"243007305","name":"Кураполле","lat":55.224728,"lon":26.868477,"type":"village"},{"id":"243007329","name":"Юнькі","lat":55.1156681,"lon":26.9262649,"type":"village"},{"id":"243007347","name":"Хацілы","lat":55.141521,"lon":26.80176,"type":"village"},{"id":"243007556","name":"Баяры","lat":54.9031957,"lon":26.9260135,"type":"village"},{"id":"243007624","name":"Занарач","lat":54.8042919,"lon":26.7702281,"type":"village"},{"id":"243007653","name":"Слабада-Кучынка","lat":53.2578685,"lon":27.1905226,"type":"village"},{"id":"243007666","name":"Старыца","lat":53.2314928,"lon":27.2666341,"type":"village"},{"id":"243007676","name":"Харытонаўка","lat":53.2878803,"lon":27.2380901,"type":"village"},{"id":"243007769","name":"Войкава","lat":53.3535323,"lon":27.2107485,"type":"village"},{"id":"243007818","name":"Кухцічы","lat":53.46711,"lon":27.13254,"type":"village"},{"id":"243007820","name":"Зенькавічы","lat":53.4938741,"lon":27.2461233,"type":"village"},{"id":"243007826","name":"Сямёнавічы","lat":53.44205,"lon":27.13846,"type":"village"},{"id":"243007829","name":"Тычынкі","lat":53.4481634,"lon":27.2248962,"type":"village"},{"id":"243007859","name":"Ліцвяны","lat":53.5098297,"lon":27.1385301,"type":"village"},{"id":"243007914","name":"Новыя Рачкавічы","lat":52.9509862,"lon":27.253933,"type":"village"},{"id":"243007924","name":"Лядна","lat":52.9895926,"lon":27.2181359,"type":"village"},{"id":"243007962","name":"Леніна","lat":53.055768,"lon":27.231062,"type":"village"},{"id":"243007971","name":"Падлессе","lat":53.0415253,"lon":27.2809982,"type":"village"},{"id":"243007990","name":"Новыя Доктаравічы","lat":53.0962044,"lon":27.2411828,"type":"village"},{"id":"243007999","name":"Ванелевічы","lat":53.09177,"lon":27.15546,"type":"village"},{"id":"243008002","name":"Скабін","lat":53.1481933,"lon":27.1366782,"type":"village"},{"id":"243008005","name":"Доктаравічы","lat":53.0982335,"lon":27.2124349,"type":"village"},{"id":"243008050","name":"Дусаеўшчына","lat":53.2077506,"lon":27.1216329,"type":"village"},{"id":"243008062","name":"Велямічы","lat":52.02018,"lon":27.23296,"type":"village"},{"id":"243008065","name":"Альпень","lat":52.0199736,"lon":27.1631226,"type":"village"},{"id":"243008074","name":"Высокае","lat":52.0599261,"lon":27.2872282,"type":"village"},{"id":"243008084","name":"Туры","lat":52.06258,"lon":27.16885,"type":"village"},{"id":"243008086","name":"Плюсы","lat":55.8126547,"lon":27.0446585,"type":"village"},{"id":"243008116","name":"Рыдзігерава","lat":52.2895875,"lon":27.1863713,"type":"village"},{"id":"243008122","name":"Хорастава","lat":52.4981625,"lon":27.2830796,"type":"village"},{"id":"243008128","name":"Гоцк","lat":52.5239193,"lon":27.1364157,"type":"village"},{"id":"243008132","name":"Пузічы","lat":52.5307301,"lon":27.2517178,"type":"village"},{"id":"243008138","name":"Любань","lat":52.2087531,"lon":27.1297683,"type":"village"},{"id":"243008141","name":"Лахаўка","lat":52.2064561,"lon":27.1518069,"type":"village"},{"id":"243008147","name":"Чарабасава","lat":52.2463603,"lon":27.185844,"type":"village"},{"id":"243008153","name":"Мокрава","lat":52.22591,"lon":27.24515,"type":"village"},{"id":"243008156","name":"Сінкевічы","lat":52.21939,"lon":27.25408,"type":"village"},{"id":"243008184","name":"Вялічкавічы","lat":52.633407,"lon":27.2525994,"type":"village"},{"id":"243008191","name":"Вялікі Рожан","lat":52.7652765,"lon":27.1196684,"type":"village"},{"id":"243008229","name":"Першамайск","lat":52.9020415,"lon":27.1798341,"type":"village"},{"id":"243008260","name":"Акцябр","lat":52.8527084,"lon":27.2653366,"type":"village"},{"id":"243008307","name":"Замошша","lat":55.4956793,"lon":27.0846789,"type":"village"},{"id":"243008338","name":"Ахрэмаўцы","lat":55.5816953,"lon":27.1150179,"type":"village"},{"id":"243008586","name":"Навасёлкі","lat":55.1451771,"lon":27.0077029,"type":"village"},{"id":"243008671","name":"Андроны","lat":55.229877,"lon":26.970524,"type":"village"},{"id":"243008765","name":"Лукʼянавічы","lat":54.85156,"lon":27.01246,"type":"village"},{"id":"243008978","name":"Крывое Сяло","lat":54.526637,"lon":27.0470103,"type":"village"},{"id":"243008981","name":"Куранец","lat":54.5554547,"lon":26.9642369,"type":"village"},{"id":"243009001","name":"Сваткі","lat":54.758283,"lon":27.0899487,"type":"village"},{"id":"243009124","name":"Краснае","lat":54.249104,"lon":27.078309,"type":"village"},{"id":"243009128","name":"Мясата","lat":54.283474,"lon":27.040564,"type":"village"},{"id":"243009132","name":"Аляхновічы","lat":54.1520951,"lon":27.1082683,"type":"village"},{"id":"243009265","name":"Селішча","lat":54.3586958,"lon":27.0791437,"type":"village"},{"id":"243009280","name":"Відзеўшчына","lat":54.2304183,"lon":27.0060861,"type":"village"},{"id":"243009312","name":"Леткаўшчына","lat":53.1098717,"lon":27.4097628,"type":"village"},{"id":"243009358","name":"Грозава","lat":53.1703852,"lon":27.3315156,"type":"village"},{"id":"243009379","name":"Камсамольская","lat":53.233253,"lon":27.360073,"type":"village"},{"id":"243009382","name":"Камень","lat":53.225842,"lon":27.443687,"type":"village"},{"id":"243009422","name":"Акцябр","lat":52.9654347,"lon":27.3801829,"type":"village"},{"id":"243009433","name":"Белічы","lat":52.942883,"lon":27.4519144,"type":"village"},{"id":"243009436","name":"Бязверхавічы","lat":53.0196504,"lon":27.4457788,"type":"village"},{"id":"243009441","name":"Селішча","lat":53.0023863,"lon":27.4034168,"type":"village"},{"id":"243009444","name":"Знамя","lat":53.045422,"lon":27.363939,"type":"village"},{"id":"243009488","name":"Сярагі","lat":53.063296,"lon":27.4705826,"type":"village"},{"id":"243009497","name":"Паварчыцы","lat":52.7106505,"lon":27.382359,"type":"village"},{"id":"243009500","name":"Новапалескі","lat":52.6506188,"lon":27.4119126,"type":"village"},{"id":"243009509","name":"Чаланец","lat":52.5143632,"lon":27.3032705,"type":"village"},{"id":"243009524","name":"Крывічы","lat":52.8241387,"lon":27.3908622,"type":"village"},{"id":"243009528","name":"Краснадворцы","lat":52.8063456,"lon":27.437264,"type":"village"},{"id":"243009562","name":"Вялікія Заўшыцы","lat":52.8344129,"lon":27.3318034,"type":"village"},{"id":"243009580","name":"Балотчыцы","lat":52.9201039,"lon":27.4087719,"type":"village"},{"id":"243009583","name":"Танежыцы","lat":52.90732,"lon":27.30918,"type":"village"},{"id":"243009620","name":"Альшаны","lat":52.07854,"lon":27.34634,"type":"village"},{"id":"243009623","name":"Семігосцічы","lat":52.09408,"lon":27.42565,"type":"village"},{"id":"243009626","name":"Цераблічы","lat":52.0127783,"lon":27.4399428,"type":"village"},{"id":"243009629","name":"Мачуль","lat":52.0196576,"lon":27.3539338,"type":"village"},{"id":"243009642","name":"Сітніца","lat":52.1955171,"lon":27.3639107,"type":"village"},{"id":"243009650","name":"Турское","lat":52.03528,"lon":27.29356,"type":"village"},{"id":"243009653","name":"Рамель","lat":52.0423299,"lon":27.3384096,"type":"village"},{"id":"243009692","name":"Грычына","lat":53.7326374,"lon":27.3837847,"type":"village"},{"id":"243009699","name":"Вязань","lat":53.740242,"lon":27.306921,"type":"village"},{"id":"243009709","name":"Каралёва","lat":53.5982542,"lon":27.4532232,"type":"village"},{"id":"243009717","name":"Возера","lat":53.630646,"lon":27.452829,"type":"village"},{"id":"243009775","name":"Воўкавічы","lat":53.7690726,"lon":27.3810051,"type":"village"},{"id":"243009786","name":"Данілавічы","lat":53.6023024,"lon":27.353572,"type":"village"},{"id":"243009799","name":"Дабрынёва","lat":53.6291361,"lon":27.3662598,"type":"village"},{"id":"243009802","name":"Дзешчанка","lat":53.580582,"lon":27.459641,"type":"village"},{"id":"243009822","name":"Валодзькі","lat":53.571103,"lon":27.4567368,"type":"village"},{"id":"243009852","name":"Томкавічы","lat":53.6816795,"lon":27.3490066,"type":"village"},{"id":"243010011","name":"Лоша","lat":53.420719,"lon":27.411526,"type":"village"},{"id":"243010055","name":"Слабада","lat":53.3840747,"lon":27.3305071,"type":"village"},{"id":"243010090","name":"Карпавічы","lat":54.2938126,"lon":27.3289535,"type":"village"},{"id":"243010133","name":"Шаршуны","lat":54.180576,"lon":27.360418,"type":"village"},{"id":"243010176","name":"Новы Двор","lat":54.128714,"lon":27.3493321,"type":"village"},{"id":"243010257","name":"Юзуфова","lat":54.108349,"lon":27.463249,"type":"village"},{"id":"243010307","name":"Браўкі","lat":54.0438523,"lon":27.385857,"type":"village"},{"id":"243010310","name":"Аронава Слабада","lat":54.0358503,"lon":27.4268992,"type":"village"},{"id":"243010319","name":"Хацежына","lat":53.91068,"lon":27.30686,"type":"village"},{"id":"243010322","name":"Дзегцяроўка","lat":53.882702,"lon":27.37578,"type":"village"},{"id":"243010330","name":"Тарасава","lat":53.924206,"lon":27.388199,"type":"village"},{"id":"243010333","name":"Ратамка","lat":53.937714,"lon":27.3474498,"type":"village"},{"id":"243010336","name":"Ждановічы","lat":53.9483626,"lon":27.4274175,"type":"town"},{"id":"243010342","name":"Сёмкава","lat":54.0212115,"lon":27.4391217,"type":"village"},{"id":"243010379","name":"Воўкавічы","lat":53.81186,"lon":27.396407,"type":"village"},{"id":"243010391","name":"Малінаўка","lat":53.8415292,"lon":27.4576439,"type":"village"},{"id":"243010402","name":"Шчомысліца","lat":53.8246802,"lon":27.4502984,"type":"village"},{"id":"243010405","name":"Прылукі","lat":53.7938228,"lon":27.4548107,"type":"village"},{"id":"243010431","name":"Атоліна","lat":53.782619,"lon":27.43338,"type":"village"},{"id":"243010451","name":"Гарадзішча","lat":53.8311966,"lon":27.3358652,"type":"village"},{"id":"243010454","name":"Азярцо","lat":53.8408112,"lon":27.3930464,"type":"village"},{"id":"243010530","name":"Будслаў","lat":54.786885,"lon":27.4536992,"type":"village"},{"id":"243010602","name":"Язні","lat":54.6857841,"lon":27.3513545,"type":"village"},{"id":"243010668","name":"Сцешыцы","lat":54.574322,"lon":27.399561,"type":"village"},{"id":"243010706","name":"Мацькаўцы","lat":54.4746884,"lon":27.4052358,"type":"village"},{"id":"243010735","name":"Лукавец","lat":54.3239678,"lon":27.4498424,"type":"village"},