[{"id":"250884373","name":"Ouésso","lat":1.610396,"lon":16.0509346,"type":"city"},{"id":"435903633","name":"Brazzaville","lat":-4.2694407,"lon":15.2712256,"type":"city"},{"id":"613557221","name":"Kounda Nord","lat":-1.5209295,"lon":16.6295021,"type":"village"},{"id":"614006050","name":"Mongolo","lat":-2.4228924,"lon":16.1353129,"type":"town"},{"id":"614006082","name":"Mpouya","lat":-2.6149673,"lon":16.2129038,"type":"town"},{"id":"614006275","name":"Mpouya Moké","lat":-2.7519365,"lon":16.178407,"type":"village"},{"id":"614006822","name":"Ngabé","lat":-3.2147742,"lon":16.167902,"type":"town"},{"id":"614007139","name":"Mbé","lat":-3.304823,"lon":15.895636,"type":"town"},{"id":"614007202","name":"Ngabé Moké","lat":-3.2352259,"lon":16.1696451,"type":"village"},{"id":"614007237","name":"Gantchou","lat":-3.3545154,"lon":16.1901694,"type":"village"},{"id":"614007281","name":"Maïpili","lat":-3.7631267,"lon":15.9663981,"type":"village"},{"id":"619897914","name":"Dolisie","lat":-4.2005398,"lon":12.6791573,"type":"city"},{"id":"620400551","name":"Dongou","lat":2.0447205,"lon":18.0524875,"type":"town"},{"id":"620439732","name":"Impfondo","lat":1.6240906,"lon":18.061067,"type":"city"},{"id":"921273084","name":"Pokola","lat":1.4120573,"lon":16.3229455,"type":"town"},{"id":"921393345","name":"Ngombé","lat":1.4308379,"lon":16.1834897,"type":"village"},{"id":"921455438","name":"Gamboma","lat":-1.8710301,"lon":15.8779917,"type":"town"},{"id":"921494997","name":"Etoumbi","lat":0.0208846,"lon":14.8932056,"type":"town"},{"id":"921507120","name":"Kellé","lat":-0.060789,"lon":14.487829,"type":"town"},{"id":"921563456","name":"Owando","lat":-0.4833599,"lon":15.8974175,"type":"city"},{"id":"921657745","name":"Nkayi","lat":-4.1840962,"lon":13.2883675,"type":"city"},{"id":"922244999","name":"Loutété","lat":-4.2971722,"lon":13.8555353,"type":"town"},{"id":"922246104","name":"Loudima Gare","lat":-4.1600142,"lon":13.0472374,"type":"town"},{"id":"922247857","name":"Mouyondzi","lat":-3.9954765,"lon":13.9218925,"type":"town"},{"id":"922247912","name":"Madingou","lat":-4.1642624,"lon":13.5516478,"type":"city"},{"id":"922268826","name":"Boundji","lat":-1.0265259,"lon":15.3477622,"type":"town"},{"id":"922278097","name":"Okoyo","lat":-1.465987,"lon":15.074873,"type":"town"},{"id":"922284291","name":"Oyo","lat":-1.1603788,"lon":15.9735205,"type":"town"},{"id":"922285577","name":"Lékéti","lat":-1.5861628,"lon":14.9522746,"type":"town"},{"id":"922565755","name":"Bounda","lat":-1.5854987,"lon":16.5849956,"type":"village"},{"id":"922635540","name":"Epéna","lat":1.3565788,"lon":17.4526519,"type":"town"},{"id":"922727657","name":"Mossaka","lat":-1.2258829,"lon":16.7946852,"type":"town"},{"id":"922912903","name":"Boyellé","lat":2.5165121,"lon":18.2194625,"type":"town"},{"id":"922914193","name":"Kitadi","lat":-4.7834217,"lon":14.6376244,"type":"town"},{"id":"922919222","name":"Mabélou","lat":2.6540387,"lon":18.3406525,"type":"village"},{"id":"923915821","name":"Makoua","lat":-0.0065571,"lon":15.6181598,"type":"town"},{"id":"923932383","name":"Sembé","lat":1.655181,"lon":14.5708611,"type":"town"},{"id":"923935666","name":"Souanké","lat":2.0609428,"lon":14.1323859,"type":"town"},{"id":"924400110","name":"Bomassa","lat":2.2036665,"lon":16.1860664,"type":"village"},{"id":"925166993","name":"Makao-Linganga","lat":2.5958516,"lon":17.1727345,"type":"village"},{"id":"925183361","name":"Ntokou","lat":0.0361635,"lon":16.335962,"type":"village"},{"id":"925207395","name":"Liouesso","lat":1.0504856,"lon":15.6925591,"type":"village"},{"id":"928167493","name":"Sibiti","lat":-3.6850291,"lon":13.3510357,"type":"town"},{"id":"928169782","name":"Djambala","lat":-2.5401002,"lon":14.751844,"type":"town"},{"id":"928170481","name":"Kinkala","lat":-4.3565973,"lon":14.7587752,"type":"town"},{"id":"928182920","name":"Odziba","lat":-3.5850814,"lon":15.5174041,"type":"town"},{"id":"928186368","name":"Mayama","lat":-3.8452263,"lon":14.8877808,"type":"town"},{"id":"928215992","name":"Vinza","lat":-3.406362,"lon":14.5499142,"type":"town"},{"id":"928220180","name":"Boko","lat":-0.4169413,"lon":15.7361043,"type":"village"},{"id":"1080414876","name":"Enyellé","lat":2.8120171,"lon":18.01354,"type":"town"},{"id":"1080425407","name":"Mimbelli","lat":2.8995804,"lon":17.6725445,"type":"town"},{"id":"1080425408","name":"Mindzoukou","lat":2.919026,"lon":17.6309811,"type":"village"},{"id":"1080430926","name":"Moumpoutou","lat":2.99499,"lon":17.4827064,"type":"town"},{"id":"1726826683","name":"Loukoléla","lat":-1.0391383,"lon":17.1095292,"type":"town"},{"id":"2050582793","name":"Loukanga","lat":-4.3384212,"lon":15.1448983,"type":"village"},{"id":"2052089666","name":"Boko","lat":-4.7844892,"lon":14.6279447,"type":"town"},{"id":"2052089668","name":"Tombo","lat":-4.8641428,"lon":14.425533,"type":"village"},{"id":"2448258134","name":"Pointe-Noire","lat":-4.7975373,"lon":11.8503297,"type":"city"},{"id":"2461915850","name":"Bolozo","lat":2.0321719,"lon":15.1972684,"type":"village"},{"id":"2461916133","name":"Mangoun","lat":2.1617254,"lon":13.4458753,"type":"village"},{"id":"2466784359","name":"Mbomo","lat":0.4329076,"lon":14.6975233,"type":"town"},{"id":"2467636564","name":"Abala","lat":-1.3353808,"lon":15.5227296,"type":"town"},{"id":"2467636565","name":"Lékana","lat":-2.324269,"lon":14.590518,"type":"town"},{"id":"2467887443","name":"Kakamoeka","lat":-4.1328225,"lon":12.0604327,"type":"town"},{"id":"2467887447","name":"Madingo-Kayes","lat":-4.431131,"lon":11.7016211,"type":"town"},{"id":"2468813555","name":"Bambama","lat":-2.5393867,"lon":13.5435572,"type":"town"},{"id":"2468813558","name":"Komono","lat":-3.2760595,"lon":13.2250091,"type":"town"},{"id":"2468813562","name":"Zanaga","lat":-2.8501462,"lon":13.8234428,"type":"town"},{"id":"2468868676","name":"Boko-Songho","lat":-4.4411545,"lon":13.6185637,"type":"town"},{"id":"2468868680","name":"Mfouati","lat":-4.3954969,"lon":13.8227679,"type":"town"},{"id":"3043397052","name":"Ongogni","lat":-1.5924185,"lon":16.0096065,"type":"town"},{"id":"3043397053","name":"Lessanga","lat":-1.6076228,"lon":16.1466495,"type":"village"},{"id":"3043397292","name":"Angama","lat":-2.4008136,"lon":14.4953007,"type":"village"},{"id":"3043397293","name":"Emonpibi","lat":-2.4285264,"lon":14.4615316,"type":"village"},{"id":"3043397339","name":"Kilebe Moussia","lat":-3.859823,"lon":14.366484,"type":"village"},{"id":"3043397340","name":"Matensama","lat":-3.7891948,"lon":14.3996715,"type":"village"},{"id":"3043397710","name":"Mbanza-Ndounga","lat":-4.5195958,"lon":15.0090485,"type":"town"},{"id":"3043397711","name":"Loukoko","lat":-4.4706378,"lon":14.9424242,"type":"village"},{"id":"3043397712","name":"Loukakou","lat":-4.4413404,"lon":14.9653822,"type":"village"},{"id":"3043445705","name":"Otali","lat":-1.2457305,"lon":15.7872395,"type":"village"},{"id":"3043445707","name":"Ongoyi","lat":-1.6024097,"lon":16.0284431,"type":"village"},{"id":"3043445708","name":"Ongo","lat":-1.6169566,"lon":16.0522155,"type":"village"},{"id":"3043445709","name":"Onianva","lat":-2.391939,"lon":15.78205,"type":"village"},{"id":"3043445710","name":"Ngo","lat":-2.4847098,"lon":15.7469577,"type":"town"},{"id":"3043445711","name":"Oyonfoula","lat":-2.4451044,"lon":15.756196,"type":"village"},{"id":"3043445717","name":"Ingha","lat":-3.4792516,"lon":15.5209857,"type":"village"},{"id":"3043445718","name":"Nkouo","lat":-3.7000898,"lon":15.4990698,"type":"village"},{"id":"3069183677","name":"Kabo","lat":2.0354598,"lon":16.0806556,"type":"village"},{"id":"3300961801","name":"Abala","lat":-1.3373619,"lon":15.5282532,"type":"village"},{"id":"3300961807","name":"Allion","lat":-2.372372,"lon":15.272058,"type":"village"},{"id":"3300961824","name":"Banda-Kaye","lat":-4.6830306,"lon":13.4337497,"type":"village"},{"id":"3300961825","name":"Banga Cayo","lat":-4.8909093,"lon":12.0370155,"type":"village"},{"id":"3300961826","name":"Banga","lat":-4.5769202,"lon":12.4240964,"type":"village"},{"id":"3300961833","name":"Bas Kouilou","lat":-4.4759893,"lon":11.7173591,"type":"village"},{"id":"3300961847","name":"Bikondolo","lat":-4.966691,"lon":12.074788,"type":"village"},{"id":"3300961851","name":"Bilinga","lat":-4.481991,"lon":12.2480558,"type":"village"},{"id":"3300964471","name":"Boko","lat":-4.7823827,"lon":14.6274678,"type":"town"},{"id":"3300964474","name":"Bondi","lat":-4.5313541,"lon":12.0775826,"type":"village"},{"id":"3300964479","name":"Bouansa","lat":-4.2178283,"lon":13.7627823,"type":"town"},{"id":"3300964480","name":"Louba","lat":-4.0932887,"lon":12.1013673,"type":"village"},{"id":"3300964514","name":"Bétou","lat":3.0595115,"lon":18.5141489,"type":"town"},{"id":"3300964517","name":"Camp Foralac Matalila","lat":-3.4292328,"lon":12.6619427,"type":"village"},{"id":"3300964522","name":"Cayo","lat":-4.9162777,"lon":12.0577905,"type":"village"},{"id":"3300964534","name":"Dembouanou","lat":-4.7153235,"lon":12.0888786,"type":"village"},{"id":"3300964537","name":"Diambala","lat":-4.6461994,"lon":13.2824008,"type":"village"},{"id":"3300964554","name":"Diosso","lat":-4.6289349,"lon":11.8487808,"type":"village"},{"id":"3300964559","name":"Divénié","lat":-2.7073193,"lon":12.027806,"type":"town"},{"id":"3300965061","name":"Djeno","lat":-4.9226363,"lon":11.9479347,"type":"village"},{"id":"3300965070","name":"Douguila","lat":-2.9173327,"lon":11.8947684,"type":"village"},{"id":"3300965074","name":"Doumanga","lat":-4.4139595,"lon":12.2289317,"type":"village"},{"id":"3300965087","name":"Edou","lat":-1.114219,"lon":15.9577295,"type":"village"},{"id":"3300965104","name":"Etsouali","lat":-2.8561907,"lon":15.5493267,"type":"village"},{"id":"3300965105","name":"Ewo","lat":-0.8740998,"lon":14.8168515,"type":"town"},{"id":"3300965109","name":"Fouta","lat":-4.9725264,"lon":11.984854,"type":"village"},{"id":"3300965122","name":"Hinda","lat":-4.6166294,"lon":12.0404854,"type":"town"},{"id":"3300965133","name":"Ikélemba","lat":1.2278673,"lon":16.5049687,"type":"village"},{"id":"3300965135","name":"Ilouponga","lat":-4.3740286,"lon":12.8249179,"type":"village"},{"id":"3300965139","name":"Impé","lat":-2.7283445,"lon":15.2717443,"type":"village"},{"id":"3300965566","name":"Kandéko","lat":1.5597242,"lon":15.8141439,"type":"village"},{"id":"3300965573","name":"Kaye-Mbakou","lat":-4.7374383,"lon":13.4935143,"type":"village"},{"id":"3300965580","name":"Ketta","lat":1.4866863,"lon":15.9001781,"type":"village"},{"id":"3300965585","name":"Kibangou","lat":-3.4821202,"lon":12.3177679,"type":"town"},{"id":"3300965589","name":"Kibouendé","lat":-4.1578285,"lon":14.8987322,"type":"village"},{"id":"3300965629","name":"Kimbaoka","lat":-4.8058998,"lon":13.4286909,"type":"village"},{"id":"3300965644","name":"Kimongo","lat":-4.483185,"lon":12.9479515,"type":"town"},{"id":"3300965660","name":"Kinanga","lat":-4.2861959,"lon":12.1549196,"type":"village"},{"id":"3300966163","name":"Kindama-Cekila","lat":-4.8481219,"lon":13.4296789,"type":"village"},{"id":"3300966164","name":"Kindamba","lat":-3.7348289,"lon":14.5097358,"type":"town"},{"id":"3300966218","name":"Kintélé","lat":-4.1358912,"lon":15.3491989,"type":"town"},{"id":"3300966221","name":"Linzolo","lat":-4.413723,"lon":15.1068663,"type":"village"},{"id":"3300966222","name":"Kipanda 2","lat":-4.746141,"lon":13.3144244,"type":"village"},{"id":"3300966233","name":"Kissenguelé","lat":-4.4476457,"lon":14.6161792,"type":"village"},{"id":"3300966247","name":"Kola","lat":-3.8436416,"lon":12.0672724,"type":"village"},{"id":"3300966481","name":"La Loeme","lat":-4.5978733,"lon":12.1697312,"type":"village"},{"id":"3300966492","name":"Les Saras","lat":-4.3566624,"lon":12.3621008,"type":"village"},{"id":"3300966502","name":"Loaka","lat":-4.1749183,"lon":11.9546493,"type":"village"},{"id":"3300966505","name":"Loango","lat":-4.656168,"lon":11.8115049,"type":"town"},{"id":"3300966511","name":"Londela","lat":-4.8441672,"lon":13.4098334,"type":"village"},{"id":"3300966512","name":"Londéla-Kayes","lat":-4.8464634,"lon":13.3921258,"type":"village"},{"id":"3300966513","name":"Londela-Mpoukou","lat":-4.7706721,"lon":13.3501344,"type":"village"},{"id":"3300966519","name":"Loubetsi","lat":-3.2368482,"lon":12.1282344,"type":"village"},{"id":"3300966525","name":"Loudima","lat":-4.1123147,"lon":13.0599868,"type":"town"},{"id":"3300966541","name":"Loukouo","lat":-3.6330462,"lon":14.661655,"type":"village"},{"id":"3300966551","name":"Louvakou","lat":-3.9676443,"lon":12.5980262,"type":"town"},{"id":"3300966553","name":"Louvoulou","lat":-4.3733018,"lon":12.1424269,"type":"village"},{"id":"3300966555","name":"Loyo","lat":-3.506105,"lon":13.3796352,"type":"village"},{"id":"3300966557","name":"Lékéti","lat":-1.5861628,"lon":14.9522746,"type":"village"},{"id":"3300966965","name":"Mabafi","lat":-3.2594006,"lon":12.6871814,"type":"village"},{"id":"3300966972","name":"Mabombo","lat":-3.9639655,"lon":13.8994151,"type":"village"},{"id":"3300966989","name":"Makabana","lat":-3.4833747,"lon":12.6067903,"type":"village"},{"id":"3300966993","name":"Makaka","lat":-3.7591842,"lon":13.6543333,"type":"village"},{"id":"3300967004","name":"Malemba","lat":-4.3305093,"lon":12.437534,"type":"village"},{"id":"3300967006","name":"Malembo","lat":-4.1823477,"lon":11.9430491,"type":"village"},{"id":"3300967015","name":"Malélé","lat":-4.4213203,"lon":12.1397468,"type":"village"},{"id":"3300967044","name":"Manzi","lat":-4.1223664,"lon":12.1422145,"type":"village"},{"id":"3300967057","name":"Matalila","lat":-3.435481,"lon":12.6480006,"type":"village"},{"id":"3300967282","name":"Mayoko","lat":-2.2877204,"lon":12.8074759,"type":"town"},{"id":"3300967310","name":"Mbaya","lat":-3.1276765,"lon":13.1440302,"type":"village"},{"id":"3300967314","name":"Mbinda","lat":-2.1014358,"lon":12.8771367,"type":"village"},{"id":"3300967315","name":"Mbiongo","lat":-4.8432354,"lon":13.4370861,"type":"village"},{"id":"3300967333","name":"Moembe","lat":-2.9146722,"lon":15.6305651,"type":"village"},{"id":"3300967337","name":"Mboulou Tambi","lat":-4.9148933,"lon":12.0281604,"type":"village"},{"id":"3300967342","name":"Mboussou","lat":-4.8558634,"lon":12.0460063,"type":"village"},{"id":"3300967668","name":"Mila Mila","lat":-3.7165345,"lon":12.4507626,"type":"village"},{"id":"3300967672","name":"Mindouli","lat":-4.2746466,"lon":14.3574306,"type":"town"},{"id":"3300967690","name":"Mokéko","lat":1.5634158,"lon":15.9468607,"type":"town"},{"id":"3300967693","name":"Mongo Tandou","lat":-4.5610353,"lon":11.9778562,"type":"village"},{"id":"3300967695","name":"Mongolo","lat":-2.4228924,"lon":16.1353129,"type":"village"},{"id":"3300967696","name":"Mont Belo","lat":-4.1411842,"lon":12.9093326,"type":"village"},{"id":"3300967701","name":"Mossendjo","lat":-2.9453966,"lon":12.7154513,"type":"town"},{"id":"3300967722","name":"Moukatsou I","lat":-3.5895735,"lon":12.2704739,"type":"village"},{"id":"3300967724","name":"Moukissou","lat":-4.0062442,"lon":12.5116366,"type":"village"},{"id":"3300967726","name":"Moukondo Yama","lat":-3.5911402,"lon":12.4080801,"type":"village"},{"id":"3300967730","name":"Moukouassi","lat":-3.9106999,"lon":12.3108228,"type":"village"},{"id":"3300967758","name":"Moutamba","lat":-2.9902346,"lon":12.6403413,"type":"town"},{"id":"3300967792","name":"Mpounga","lat":-4.2669473,"lon":12.4657609,"type":"village"},{"id":"3300967794","name":"Mpouya","lat":-2.6149673,"lon":16.2129038,"type":"village"},{"id":"3300967805","name":"Mvouti","lat":-4.241366,"lon":12.4888524,"type":"town"},{"id":"3300967807","name":"Nzambi","lat":-3.9596854,"lon":11.2821018,"type":"village"},{"id":"3300967822","name":"Ndjeba","lat":-4.7842665,"lon":12.1894262,"type":"village"},{"id":"3300967838","name":"Ngoma-Tsétsé","lat":-4.2316122,"lon":15.109619,"type":"town"},{"id":"3300967843","name":"Ngoua 2","lat":-2.9432897,"lon":12.3540206,"type":"village"},{"id":"3300967846","name":"Ngoubou-Ngoubou","lat":-2.0254233,"lon":12.6739422,"type":"village"},{"id":"3300968167","name":"Nkola","lat":-4.0359541,"lon":11.7194969,"type":"village"},{"id":"3300968176","name":"Noumbi","lat":-4.1374855,"lon":11.3710097,"type":"village"},{"id":"3300968179","name":"Nsa","lat":-2.3522847,"lon":15.3564611,"type":"village"},{"id":"3300968192","name":"Ntoumbi","lat":-4.6081925,"lon":11.9260938,"type":"village"},{"id":"3300968199","name":"Nzassi","lat":-4.9883621,"lon":12.0509983,"type":"village"},{"id":"3300968210","name":"Obouya","lat":-0.9286595,"lon":15.7217622,"type":"village"},{"id":"3300968224","name":"Ollombo","lat":-1.2700169,"lon":15.8963677,"type":"village"},{"id":"3300968236","name":"Onianva","lat":-2.347825,"lon":15.810201,"type":"village"},{"id":"3300968377","name":"Pont du Niari","lat":-3.5538949,"lon":12.3374105,"type":"village"},{"id":"3300968399","name":"Sialivakou","lat":-4.0369271,"lon":11.384846,"type":"village"},{"id":"3300968401","name":"Simambondo","lat":-2.3452785,"lon":13.6305819,"type":"village"},{"id":"3300968416","name":"Soussi","lat":-4.3010339,"lon":12.7201404,"type":"village"},{"id":"3300968422","name":"Tandou Bizenze","lat":-4.9520382,"lon":12.0827418,"type":"village"},{"id":"3300968424","name":"Tandou Mboma","lat":-4.9390223,"lon":12.0798794,"type":"village"},{"id":"3300968425","name":"Tandou Ngoma","lat":-3.985885,"lon":11.2975414,"type":"village"},{"id":"3300968459","name":"Tchingoli","lat":-4.4920712,"lon":11.9755042,"type":"village"},{"id":"3300968673","name":"Tchissakata","lat":-4.7615805,"lon":12.2237753,"type":"village"},{"id":"3300968681","name":"Tchitanzi","lat":-4.9181032,"lon":12.1009321,"type":"village"},{"id":"3300968690","name":"Tchiamba","lat":-4.9751759,"lon":12.0288295,"type":"village"},{"id":"3300968706","name":"Tsangui","lat":-4.7376488,"lon":13.4032301,"type":"village"},{"id":"3300968708","name":"Tsembo","lat":-3.6689485,"lon":12.1209773,"type":"village"},{"id":"3300968727","name":"Vounda","lat":-3.6428471,"lon":12.1586475,"type":"village"},{"id":"3300968740","name":"Yanga","lat":-4.5567117,"lon":12.1925795,"type":"village"},{"id":"3300968742","name":"Yanika","lat":-4.2692745,"lon":11.5964301,"type":"village"},{"id":"3300968752","name":"Yonon","lat":-2.4541619,"lon":15.0129566,"type":"village"},{"id":"3300968753","name":"Youbi","lat":-4.1822945,"lon":11.6666946,"type":"village"},{"id":"3323403648","name":"Tchissinango","lat":-4.5700666,"lon":11.8071703,"type":"village"},{"id":"3605822762","name":"Bonga","lat":-1.1138547,"lon":16.8766042,"type":"village"},{"id":"3616328319","name":"Doussala","lat":-2.6331341,"lon":11.6331668,"type":"village"},{"id":"3616331704","name":"Porro","lat":-2.5602529,"lon":11.6167732,"type":"village"},{"id":"3616415555","name":"Minda","lat":-2.4823941,"lon":11.6561695,"type":"village"},{"id":"3616448775","name":"Dounguila","lat":-2.8889553,"lon":11.9807811,"type":"village"},{"id":"4347599428","name":"Potoli-Chantier","lat":3.39496,"lon":16.6521288,"type":"village"},{"id":"4347599601","name":"Mokabi-Boko","lat":3.4743179,"lon":16.6488363,"type":"village"},{"id":"4717336725","name":"Gouga","lat":3.478056,"lon":18.595278,"type":"village"},{"id":"4717970279","name":"Mboulou","lat":3.435372,"lon":18.6297188,"type":"village"},{"id":"4916373382","name":"Bai-Bapombo","lat":3.445109,"lon":16.9563693,"type":"village"},{"id":"4916373415","name":"Mokabi-Village","lat":3.4199446,"lon":16.7983185,"type":"village"},{"id":"5020303199","name":"Diénga","lat":-1.882293,"lon":12.7294422,"type":"village"},{"id":"5088435000","name":"Makola","lat":1.6336137,"lon":15.9547376,"type":"village"},{"id":"5631295965","name":"Toukoulaka","lat":1.6832785,"lon":17.057519,"type":"village"},{"id":"5631303260","name":"Mobangui","lat":1.6864153,"lon":17.127943,"type":"village"},{"id":"5631305057","name":"Bene","lat":1.6911876,"lon":17.1092105,"type":"village"},{"id":"5631305071","name":"Minganga","lat":1.7076866,"lon":17.0003772,"type":"village"},{"id":"5631309025","name":"Mokengui","lat":1.6246859,"lon":17.3580336,"type":"village"},{"id":"5650165756","name":"Liranga","lat":-0.6621466,"lon":17.6107531,"type":"city"},{"id":"5666195475","name":"Odia","lat":-0.666353,"lon":14.703784,"type":"village"},{"id":"5670027177","name":"Tsinguidi","lat":-2.4231145,"lon":12.7273607,"type":"village"},{"id":"5683556819","name":"Ikpembele","lat":3.1799422,"lon":18.6229031,"type":"village"},{"id":"6056137513","name":"Mokabi-Lola","lat":3.2890387,"lon":16.798136,"type":"village"},{"id":"6056158296","name":"Lopola","lat":3.0734738,"lon":16.9927919,"type":"village"},{"id":"6056158304","name":"Moualé","lat":3.3750763,"lon":17.1774781,"type":"town"},{"id":"6056159485","name":"Ngoundiba","lat":3.1613736,"lon":18.5359526,"type":"village"},{"id":"6412187193","name":"Soukissa","lat":-4.2333813,"lon":15.274576,"type":"village"},{"id":"6537620486","name":"Ibolo","lat":1.3495885,"lon":17.4931036,"type":"village"},{"id":"6537749867","name":"Boléké","lat":1.4213306,"lon":17.6678109,"type":"village"},{"id":"6537749906","name":"Botala","lat":1.4182053,"lon":17.6137431,"type":"village"},{"id":"6797696378","name":"Kébili","lat":-0.8712406,"lon":14.5077324,"type":"village"},{"id":"6837869002","name":"Ngayi","lat":-0.8102379,"lon":14.6995547,"type":"village"},{"id":"6837869003","name":"Bia","lat":-0.8537206,"lon":14.5629332,"type":"village"},{"id":"7086874485","name":"Mboua","lat":1.682529,"lon":17.1510562,"type":"village"},{"id":"7091108085","name":"Matoko","lat":1.3883028,"lon":17.4747254,"type":"village"},{"id":"7101383485","name":"kingoue","lat":-3.7071977,"lon":14.1563184,"type":"town"},{"id":"7852616590","name":"Likendzé sangha","lat":-0.9840233,"lon":16.9982261,"type":"village"},{"id":"7852616786","name":"Lengoli","lat":-1.1645581,"lon":16.9010845,"type":"village"},{"id":"7868886198","name":"Ngongo","lat":-2.6621264,"lon":11.6052975,"type":"village"},{"id":"7868886199","name":"Nyanga","lat":-2.9142259,"lon":11.8891986,"type":"town"},{"id":"7911325810","name":"Moukondo","lat":-2.5646618,"lon":12.142196,"type":"village"},{"id":"7911325819","name":"Mollo","lat":-2.5072236,"lon":12.16081,"type":"village"},{"id":"7911325820","name":"Mavounoungou","lat":-2.4314532,"lon":13.5969667,"type":"village"},{"id":"7911325834","name":"Bandoye","lat":-2.4694093,"lon":13.5444383,"type":"village"},{"id":"7911325855","name":"Ouandzi","lat":-2.5121876,"lon":13.5287474,"type":"village"},{"id":"8491114639","name":"Basséla","lat":1.381878,"lon":17.5989322,"type":"village"},{"id":"8571520122","name":"Babali","lat":2.0873375,"lon":16.0873264,"type":"village"},{"id":"8894815756","name":"Mbéngué","lat":-2.8725825,"lon":11.8442085,"type":"village"},{"id":"8953144986","name":"Ngbala","lat":2.0261101,"lon":14.888112,"type":"village"},{"id":"8953144988","name":"Ngoyaboma","lat":0.2111164,"lon":14.1757494,"type":"village"},{"id":"8953150966","name":"Oka","lat":-0.2912991,"lon":14.2328149,"type":"village"},{"id":"8953150992","name":"Angomo","lat":-0.1515302,"lon":14.3605685,"type":"village"},{"id":"8953150993","name":"Etaba I","lat":-0.0849901,"lon":14.4361317,"type":"village"},{"id":"8955320494","name":"Ndouba","lat":-0.1608517,"lon":14.0766437,"type":"village"},{"id":"8955455020","name":"Lémbéssi","lat":-0.9040117,"lon":14.5482895,"type":"village"},{"id":"8955455044","name":"Ossélé","lat":-0.9372239,"lon":14.6211651,"type":"village"},{"id":"8955455075","name":"Tchéré","lat":-0.0864176,"lon":14.7633825,"type":"village"},{"id":"8955805068","name":"Obala","lat":-0.4613636,"lon":14.3740837,"type":"village"},{"id":"8955805069","name":"Opori","lat":-0.4714162,"lon":14.5009092,"type":"village"},{"id":"9277170207","name":"Bouemba","lat":-2.1667083,"lon":16.1337018,"type":"village"},{"id":"9346207851","name":"Sombo","lat":2.6353071,"lon":17.1832762,"type":"town"},{"id":"9346208043","name":"Ndjubé","lat":2.4350582,"lon":17.4682848,"type":"village"},{"id":"9346208421","name":"Loundoungou","lat":2.4557127,"lon":17.0424422,"type":"village"},{"id":"9616194391","name":"Bokoma","lat":-0.371971,"lon":17.1398599,"type":"town"},{"id":"9616203669","name":"Bouaniela","lat":0.5067104,"lon":17.290188,"type":"town"},{"id":"9616208372","name":"Pikounda","lat":0.549536,"lon":16.6357583,"type":"town"},{"id":"9616213021","name":"Makotipoko","lat":-1.9938783,"lon":16.3148783,"type":"town"},{"id":"10597755319","name":"Mouindi","lat":-3.9376739,"lon":12.8229776,"type":"village"},{"id":"10824561937","name":"Mboko Camp","lat":0.6039177,"lon":14.8987403,"type":"village"},{"id":"10943676683","name":"Maty","lat":-3.9874441,"lon":15.3346244,"type":"village"},{"id":"11161391869","name":"Tchiamba-Nzassi","lat":-4.9808413,"lon":12.0386172,"type":"town"},{"id":"11214284640","name":"Mabaya","lat":-4.3285931,"lon":15.0682804,"type":"village"},{"id":"11215468159","name":"Lissanga","lat":-4.2459893,"lon":15.3707915,"type":"town"},{"id":"11248726075","name":"Kayes","lat":-4.1682598,"lon":13.2934684,"type":"village"},{"id":"11255189896","name":"Hamon","lat":-4.1933816,"lon":14.7975186,"type":"village"},{"id":"11257670976","name":"Moulamba","lat":-2.6472847,"lon":12.5093498,"type":"village"},{"id":"11257670979","name":"Idzendi","lat":-2.6182,"lon":12.4806609,"type":"village"},{"id":"11257792201","name":"Magabiga","lat":-2.6159356,"lon":12.2417553,"type":"village"},{"id":"11258089476","name":"Dziba-Dziba","lat":-2.7008343,"lon":12.5805306,"type":"village"},{"id":"11258180898","name":"Moungoundou","lat":-2.6714348,"lon":12.6735684,"type":"town"},{"id":"11355285827","name":"Bounzélé","lat":1.944022,"lon":16.0817019,"type":"village"},{"id":"11358323008","name":"Gola","lat":1.9154485,"lon":15.7351255,"type":"village"},{"id":"11516114667","name":"Mindou","lat":-4.2809204,"lon":11.8975941,"type":"village"},{"id":"11603364047","name":"Tala Tala","lat":1.9388302,"lon":15.3312302,"type":"village"},{"id":"11603437985","name":"Tala Tala Village","lat":1.9377981,"lon":15.3040729,"type":"village"},{"id":"11813789126","name":"Mombongo","lat":2.1753328,"lon":16.1437929,"type":"village"},{"id":"11813795469","name":"Bon Coin","lat":2.2172041,"lon":16.1949018,"type":"village"},{"id":"11832609889","name":"Maboko","lat":1.6731816,"lon":16.0187477,"type":"village"},{"id":"11832609890","name":"Mbaya","lat":1.719038,"lon":16.0135603,"type":"village"},{"id":"11832609932","name":"Gandikolo","lat":1.6882974,"lon":16.1481079,"type":"village"},{"id":"11832610162","name":"Gatongo","lat":1.6892197,"lon":16.1303383,"type":"village"},{"id":"12520592111","name":"Mindja","lat":1.9970151,"lon":14.9446142,"type":"village"},{"id":"12563958059","name":"Ignié","lat":-3.9766214,"lon":15.3818139,"type":"village"},{"id":"13048618639","name":"Djampoué","lat":2.1376215,"lon":14.1625947,"type":"village"},{"id":"13256460521","name":"Moukouandzo","lat":1.6022273,"lon":16.0945774,"type":"village"},{"id":"13256480288","name":"Mbirou","lat":1.4789791,"lon":16.1551216,"type":"village"},{"id":"13259648288","name":"Bangui-Motaba","lat":2.5045775,"lon":17.3112837,"type":"village"},{"id":"13259681244","name":"Mbandza","lat":1.9821697,"lon":17.3316761,"type":"village"},{"id":"13260482701","name":"Itouzi","lat":1.9619633,"lon":17.3373372,"type":"village"},{"id":"13260482736","name":"Bondéko","lat":1.9066833,"lon":17.3513106,"type":"village"},{"id":"13260482737","name":"Mbeti","lat":1.9353595,"lon":17.3438132,"type":"village"},{"id":"13267131264","name":"Matali","lat":0.7598111,"lon":16.6282975,"type":"village"},{"id":"13267235143","name":"Ndoki I","lat":1.5824928,"lon":16.609771,"type":"village"},{"id":"13267235182","name":"Ndoki II","lat":1.8714217,"lon":16.6179032,"type":"village"},{"id":"13316681355","name":"Makossos","lat":1.8161185,"lon":17.3761047,"type":"village"},{"id":"13360438963","name":"Zalangoye","lat":0.7868764,"lon":15.334205,"type":"village"},{"id":"13466641274","name":"Tchékapika","lat":-1.2634836,"lon":16.1703944,"type":"village"},{"id":"13506550832","name":"Mokabi-Barrière","lat":3.4521612,"lon":16.6563764,"type":"village"},{"id":"13506550833","name":"Bagongo","lat":3.4637536,"lon":16.8130684,"type":"village"},{"id":"13507009514","name":"Baï-Bakoundi","lat":3.4884558,"lon":16.9480903,"type":"village"}]