[{"id":"28094912","name":"Santa Maria","lat":16.5986926,"lon":-22.9050314,"type":"town"},{"id":"28094913","name":"Pedra de Lume","lat":16.7630679,"lon":-22.8928716,"type":"village"},{"id":"28094953","name":"Espargos","lat":16.7577983,"lon":-22.9431454,"type":"town"},{"id":"28095099","name":"Praia","lat":14.9162811,"lon":-23.5095095,"type":"city"},{"id":"146154210","name":"Mindelo","lat":16.8873057,"lon":-24.9864064,"type":"city"},{"id":"248644871","name":"Palmeira","lat":16.7584756,"lon":-22.9811102,"type":"town"},{"id":"249204043","name":"Murdeira","lat":16.6787483,"lon":-22.9354457,"type":"village"},{"id":"253679019","name":"Ribeira Grande","lat":17.1833547,"lon":-25.0643795,"type":"town"},{"id":"253790761","name":"Ribeira Grande de Santiago (Cidade Velha)","lat":14.9158522,"lon":-23.6048421,"type":"town"},{"id":"253790873","name":"Calabaceira","lat":14.9322804,"lon":-23.5955524,"type":"village"},{"id":"253790915","name":"Salineiro","lat":14.9377044,"lon":-23.6035175,"type":"village"},{"id":"254019612","name":"Praia Baixo","lat":15.0595103,"lon":-23.472113,"type":"village"},{"id":"254019835","name":"Cancelo","lat":15.1497514,"lon":-23.5637028,"type":"village"},{"id":"254019858","name":"Pedra Badejo","lat":15.1371918,"lon":-23.531565,"type":"town"},{"id":"254262161","name":"Ribeirão Chiqueiro","lat":15.0054661,"lon":-23.5240708,"type":"village"},{"id":"254262195","name":"São Domingos","lat":15.0268856,"lon":-23.5613463,"type":"town"},{"id":"255095550","name":"São Filipe","lat":14.8952963,"lon":-24.4969361,"type":"town"},{"id":"255856894","name":"Mosteiros","lat":15.0347257,"lon":-24.3277421,"type":"town"},{"id":"255870470","name":"Porto Rincão","lat":15.0610666,"lon":-23.7649298,"type":"village"},{"id":"255871159","name":"Porto de Ribeira da Barca","lat":15.1380863,"lon":-23.759351,"type":"village"},{"id":"335286329","name":"João Teves","lat":15.0670615,"lon":-23.5891819,"type":"town"},{"id":"497353754","name":"Assomada (Santa Catarina)","lat":15.097635,"lon":-23.6668745,"type":"town"},{"id":"564967211","name":"Tarrafal","lat":16.566483,"lon":-24.3567967,"type":"town"},{"id":"576513150","name":"Fontainhas","lat":17.1880065,"lon":-25.1040959,"type":"village"},{"id":"576518522","name":"Chã de Igreja","lat":17.1572274,"lon":-25.1631714,"type":"village"},{"id":"576518525","name":"Coculi","lat":17.165378,"lon":-25.0982398,"type":"town"},{"id":"910651801","name":"Calheta de São Miguel","lat":15.1842036,"lon":-23.5914998,"type":"town"},{"id":"910651810","name":"Picos","lat":15.084274,"lon":-23.6322418,"type":"village"},{"id":"910651821","name":"São Martinho Grande","lat":14.9251635,"lon":-23.5685889,"type":"village"},{"id":"910651830","name":"Achada Fazenda","lat":15.1201731,"lon":-23.5190719,"type":"village"},{"id":"911295163","name":"Figueira Pavão","lat":14.8710454,"lon":-24.3118225,"type":"village"},{"id":"911295170","name":"Boca Larga","lat":14.885508,"lon":-24.402779,"type":"village"},{"id":"911295171","name":"Forno","lat":14.8805809,"lon":-24.441717,"type":"village"},{"id":"911295178","name":"Fonte Aleixo","lat":14.8490929,"lon":-24.3558264,"type":"village"},{"id":"911295179","name":"Monte Largo","lat":14.8685017,"lon":-24.3829749,"type":"village"},{"id":"911295182","name":"Luzia Nunes","lat":14.8746624,"lon":-24.4390709,"type":"village"},{"id":"911295186","name":"Achada Furna","lat":14.8714441,"lon":-24.3588167,"type":"village"},{"id":"911295189","name":"Dacabalaio","lat":14.8562236,"lon":-24.3311506,"type":"village"},{"id":"911295194","name":"Salto","lat":14.8548874,"lon":-24.3901864,"type":"village"},{"id":"911296628","name":"Lomba","lat":14.9685515,"lon":-24.4457563,"type":"village"},{"id":"911296630","name":"Galinheiros","lat":14.9991798,"lon":-24.444154,"type":"village"},{"id":"911829717","name":"Cisterno","lat":14.930337,"lon":-24.4374391,"type":"village"},{"id":"911829727","name":"Afonso Gil","lat":14.9806001,"lon":-24.4623395,"type":"village"},{"id":"911829730","name":"Monte Grande","lat":14.8906499,"lon":-24.4073951,"type":"village"},{"id":"945752054","name":"Baía das Gatas","lat":16.9034359,"lon":-24.9092792,"type":"village"},{"id":"945752058","name":"Calhau","lat":16.8528398,"lon":-24.865583,"type":"village"},{"id":"992928915","name":"Janela","lat":17.1202551,"lon":-24.9866092,"type":"village"},{"id":"992952233","name":"Porto Novo","lat":17.0189775,"lon":-25.065316,"type":"town"},{"id":"1052379075","name":"Rui Vaz","lat":15.0348229,"lon":-23.6009496,"type":"village"},{"id":"1207428485","name":"Nova Sintra","lat":14.871066,"lon":-24.6956479,"type":"town"},{"id":"1207814806","name":"Fajã d' Água","lat":14.8714904,"lon":-24.7314514,"type":"village"},{"id":"1207814978","name":"Furna","lat":14.887681,"lon":-24.6806088,"type":"town"},{"id":"1270602557","name":"Povoação Velha","lat":16.0387537,"lon":-22.9174681,"type":"village"},{"id":"1652806250","name":"Carriçal","lat":16.5536055,"lon":-24.0813134,"type":"village"},{"id":"1652818838","name":"Estância de Brás(Estância Braz)","lat":16.6678989,"lon":-24.3190754,"type":"village"},{"id":"1775993934","name":"Achada Baleia","lat":15.0462564,"lon":-23.4643452,"type":"village"},{"id":"1809229754","name":"Cruzinha","lat":17.1703483,"lon":-25.1659849,"type":"village"},{"id":"1951662272","name":"Barreiro","lat":15.1350598,"lon":-23.1607208,"type":"village"},{"id":"1951662276","name":"Calheta de Cima","lat":15.2300929,"lon":-23.2128887,"type":"village"},{"id":"1951662279","name":"Cascabulho","lat":15.269957,"lon":-23.1725926,"type":"village"},{"id":"1951662284","name":"Figueira da Horta","lat":15.1601318,"lon":-23.1515291,"type":"village"},{"id":"1951662289","name":"Morrinho","lat":15.2655865,"lon":-23.2043873,"type":"village"},{"id":"1951662294","name":"Morro","lat":15.1796575,"lon":-23.2217424,"type":"village"},{"id":"1955849761","name":"Boca di Figueiral","lat":17.1382489,"lon":-25.0309183,"type":"village"},{"id":"1957518800","name":"Chã d'Orgueiro (Alto Mira III)","lat":17.0774174,"lon":-25.1922764,"type":"village"},{"id":"1957518811","name":"Lagoa","lat":17.0874715,"lon":-25.1377974,"type":"village"},{"id":"1960664785","name":"Caiada","lat":14.9265011,"lon":-23.5567976,"type":"village"},{"id":"1960676166","name":"Santa Cruz","lat":15.1323932,"lon":-23.5576819,"type":"village"},{"id":"1960679163","name":"Achada Monte","lat":15.2340451,"lon":-23.6447083,"type":"town"},{"id":"1960681625","name":"Milafre","lat":15.250173,"lon":-23.6687496,"type":"village"},{"id":"1960682338","name":"Achada Biscainho","lat":15.2591212,"lon":-23.6897072,"type":"village"},{"id":"1960686899","name":"Tarrafal","lat":15.2784159,"lon":-23.752294,"type":"town"},{"id":"1960743769","name":"Queimada","lat":14.8705793,"lon":-24.3795981,"type":"village"},{"id":"1972672158","name":"Lagedos","lat":17.0199147,"lon":-25.1665712,"type":"village"},{"id":"1981553763","name":"Ponta do Sol","lat":17.2013338,"lon":-25.0910546,"type":"town"},{"id":"1985876384","name":"Curral das Vacas","lat":17.0435703,"lon":-25.2192222,"type":"village"},{"id":"1990228734","name":"Sinagoga","lat":17.1784297,"lon":-25.0325249,"type":"village"},{"id":"2032624546","name":"São Pedro","lat":16.8241537,"lon":-25.0596637,"type":"village"},{"id":"2049604332","name":"Pai António","lat":15.0238335,"lon":-24.3276189,"type":"village"},{"id":"2049716120","name":"Campanas de Baixo","lat":15.018716,"lon":-24.4103473,"type":"village"},{"id":"2049716123","name":"Fajãzinha","lat":15.0480047,"lon":-24.3493036,"type":"village"},{"id":"2049716124","name":"Fonsaco","lat":15.0232712,"lon":-24.3157286,"type":"village"},{"id":"2049716126","name":"Laranjo","lat":15.0418807,"lon":-24.3356529,"type":"village"},{"id":"2049717054","name":"Ribeira Ilhéu","lat":15.0378827,"lon":-24.3750339,"type":"village"},{"id":"2049717055","name":"São Jorge","lat":15.0128141,"lon":-24.4276334,"type":"village"},{"id":"2049768633","name":"Achada Grande","lat":14.9887022,"lon":-24.3031951,"type":"village"},{"id":"2049768636","name":"Corvo","lat":14.9996681,"lon":-24.3051378,"type":"village"},{"id":"2049768951","name":"Relva","lat":14.9747449,"lon":-24.2953031,"type":"village"},{"id":"2049768952","name":"São Lourenço","lat":14.9358408,"lon":-24.4687123,"type":"village"},{"id":"2055137744","name":"Ponta João Ribeiro","lat":16.9059009,"lon":-24.9984723,"type":"village"},{"id":"2068474138","name":"Tarrafal","lat":16.9562714,"lon":-25.3104658,"type":"village"},{"id":"2072780545","name":"Cabeçalinho","lat":16.6059486,"lon":-24.320083,"type":"village"},{"id":"2072780552","name":"Cachaço","lat":16.6229821,"lon":-24.3335663,"type":"village"},{"id":"2072815615","name":"Calejão","lat":16.6021764,"lon":-24.3072197,"type":"village"},{"id":"2072907136","name":"Covoada","lat":17.1770727,"lon":-25.0578476,"type":"village"},{"id":"2072907144","name":"Lombo Branco villagem/ Lomb Bronk","lat":17.1720717,"lon":-25.0401781,"type":"village"},{"id":"2073397290","name":"São Jorge dos Órgãos","lat":15.0552026,"lon":-23.6015506,"type":"village"},{"id":"2075193072","name":"Salamansa","lat":16.9024927,"lon":-24.9448384,"type":"village"},{"id":"2421579634","name":"Caibros","lat":17.1401081,"lon":-25.1258693,"type":"village"},{"id":"2444366506","name":"Sal Rei","lat":16.1759748,"lon":-22.9169771,"type":"town"},{"id":"2446038553","name":"Nossa Senhora do Monte","lat":14.8596915,"lon":-24.7155071,"type":"village"},{"id":"2447400579","name":"Barril","lat":16.6014063,"lon":-24.4123704,"type":"village"},{"id":"2448091301","name":"Morre Brás","lat":16.6334835,"lon":-24.1943668,"type":"village"},{"id":"2448229039","name":"São Martinho Pequeno","lat":14.9452342,"lon":-23.5631532,"type":"village"},{"id":"2448229040","name":"João Varela","lat":14.9542145,"lon":-23.5832122,"type":"village"},{"id":"2452058390","name":"Pedro Vaz","lat":15.2473839,"lon":-23.1158373,"type":"village"},{"id":"2452079677","name":"Santo António","lat":15.2751226,"lon":-23.1230088,"type":"village"},{"id":"2452084818","name":"Alcatraz","lat":15.2174703,"lon":-23.1032877,"type":"village"},{"id":"2452087922","name":"Pilão Cão","lat":15.2091337,"lon":-23.1051179,"type":"village"},{"id":"2452089702","name":"Ribeira Dom João","lat":15.1441919,"lon":-23.12134,"type":"village"},{"id":"2457911247","name":"Rabil","lat":16.1280304,"lon":-22.8884999,"type":"village"},{"id":"2479315618","name":"Chã de Morte","lat":17.0444436,"lon":-25.2088688,"type":"village"},{"id":"2479339782","name":"Ribeira da Cruz","lat":17.1072708,"lon":-25.2454046,"type":"village"},{"id":"2481135577","name":"Principal","lat":15.2011538,"lon":-23.6757748,"type":"village"},{"id":"2505326925","name":"Ribeira Brava","lat":16.615728,"lon":-24.2982543,"type":"town"},{"id":"2528422757","name":"Campo Baixo","lat":14.8493509,"lon":-24.7225555,"type":"village"},{"id":"2552329290","name":"Lombinho","lat":17.1316289,"lon":-25.0445911,"type":"village"},{"id":"2572784636","name":"Carvoeiros","lat":16.6488711,"lon":-24.3012649,"type":"village"},{"id":"2668342473","name":"Chã das Caldeiras","lat":14.9671955,"lon":-24.3668684,"type":"village"},{"id":"2682541460","name":"Chã das Furnas","lat":17.1670527,"lon":-25.0277719,"type":"village"},{"id":"2686745144","name":"Achada Ponta","lat":15.1044865,"lon":-23.5059913,"type":"village"},{"id":"2916296430","name":"Ribeira Funda","lat":16.7642438,"lon":-22.9462717,"type":"village"},{"id":"3123796019","name":"Ribeira da Prata","lat":16.6625421,"lon":-24.3639022,"type":"village"},{"id":"3212623739","name":"Estância Roque","lat":14.8963771,"lon":-24.3195906,"type":"village"},{"id":"3241447799","name":"Calheta de Baixo","lat":15.2258433,"lon":-23.215595,"type":"village"},{"id":"3255342900","name":"Escada","lat":16.5784832,"lon":-24.3648975,"type":"village"},{"id":"3255350461","name":"São João Baptista","lat":16.5748214,"lon":-24.3614844,"type":"village"},{"id":"3267442233","name":"Praia Branca","lat":16.642485,"lon":-24.3892776,"type":"village"},{"id":"3385747641","name":"Pedra Ferro","lat":15.2548655,"lon":-23.6807647,"type":"village"},{"id":"3429685713","name":"Chã de Norte","lat":17.108766,"lon":-25.2645414,"type":"village"},{"id":"3447092171","name":"Jardim","lat":16.7618354,"lon":-22.977107,"type":"village"},{"id":"3499722967","name":"Lombo de Santa","lat":17.1385599,"lon":-25.1429172,"type":"village"},{"id":"3517717809","name":"Cirio","lat":17.0517952,"lon":-25.2225691,"type":"village"},{"id":"4209890426","name":"Ribeirão","lat":17.1430167,"lon":-25.115663,"type":"village"},{"id":"4209890427","name":"Boca de Coruja","lat":17.1626836,"lon":-25.1154754,"type":"village"},{"id":"4500715329","name":"Gil Bispo","lat":15.1021132,"lon":-23.6565696,"type":"village"},{"id":"4511904075","name":"Porto Novo","lat":17.0193423,"lon":-25.0641922,"type":"village"},{"id":"4526408332","name":"Ponta Verde","lat":14.9876154,"lon":-24.4543916,"type":"village"},{"id":"4631865294","name":"Patim","lat":14.8736207,"lon":-24.4263016,"type":"village"},{"id":"4679141234","name":"Sorno","lat":14.8849634,"lon":-24.7182487,"type":"village"},{"id":"4679141235","name":"Renque","lat":14.9485183,"lon":-24.4562134,"type":"village"},{"id":"4687347671","name":"Feijoal","lat":15.029213,"lon":-24.3289979,"type":"village"},{"id":"4784818967","name":"Norte da Baia I","lat":16.888363,"lon":-24.922726,"type":"village"},{"id":"4784818968","name":"Norte da Baia II","lat":16.8809586,"lon":-24.9169291,"type":"village"},{"id":"5331610545","name":"Santo André","lat":16.83124,"lon":-25.0703777,"type":"village"},{"id":"5342374477","name":"Cachaço","lat":14.8371193,"lon":-24.6944199,"type":"village"},{"id":"5353047969","name":"Minhoto","lat":14.8783815,"lon":-24.6958136,"type":"village"},{"id":"5804835135","name":"Passo","lat":17.1576686,"lon":-25.0191189,"type":"village"},{"id":"5818388817","name":"Pico da Cruz","lat":17.1022432,"lon":-25.0355132,"type":"village"},{"id":"5840235875","name":"Costim Pereira","lat":16.9599304,"lon":-25.3105084,"type":"village"},{"id":"5842033847","name":"Martiene","lat":17.0926637,"lon":-25.2498181,"type":"village"},{"id":"5854552330","name":"Monte Trigo","lat":17.0211993,"lon":-25.330719,"type":"village"},{"id":"6053285248","name":"Chã d'Orgueiro (Alto Mira III)","lat":17.0775693,"lon":-25.1925734,"type":"village"},{"id":"6061261139","name":"Ribeira Fria","lat":17.0516149,"lon":-25.1574661,"type":"village"},{"id":"6146488335","name":"Cova Joana","lat":14.8626918,"lon":-24.7122538,"type":"village"},{"id":"6146488336","name":"Cova Rodela","lat":14.8705157,"lon":-24.7053069,"type":"village"},{"id":"6195967405","name":"Juncalinho","lat":16.6137489,"lon":-24.1316362,"type":"village"},{"id":"6216771022","name":"Cidade das Pombas","lat":17.1485341,"lon":-25.0141722,"type":"town"},{"id":"6277186620","name":"Chã do Porto Novo","lat":16.9948325,"lon":-25.1327747,"type":"village"},{"id":"6278233596","name":"Ponta Sul","lat":16.9925827,"lon":-25.1528094,"type":"village"},{"id":"6306211668","name":"Lameirão","lat":16.8800598,"lon":-24.9617686,"type":"village"},{"id":"6306221607","name":"Belém","lat":16.6332108,"lon":-24.2268024,"type":"village"},{"id":"6332852803","name":"Branquinho","lat":17.1238212,"lon":-25.2338685,"type":"village"},{"id":"6355293870","name":"Mato","lat":14.8570781,"lon":-24.7051565,"type":"village"},{"id":"6443511842","name":"Caldeira","lat":16.6101381,"lon":-24.3287111,"type":"village"},{"id":"6443515932","name":"Agua das Caldeiras","lat":17.1084561,"lon":-25.0691841,"type":"village"},{"id":"6443520638","name":"Jorge Luiz","lat":17.087767,"lon":-25.2259491,"type":"village"},{"id":"6835683677","name":"Trás os Montes","lat":15.2945506,"lon":-23.7140071,"type":"village"},{"id":"6955666346","name":"Fajã de Cima","lat":16.646787,"lon":-24.3274277,"type":"village"},{"id":"6958053616","name":"Manta Velha","lat":17.1235834,"lon":-25.1605243,"type":"village"},{"id":"6960639258","name":"Cutelo","lat":15.2440515,"lon":-23.7034357,"type":"village"},{"id":"6960704172","name":"Boca de Ribeira","lat":15.2453628,"lon":-23.6522699,"type":"village"},{"id":"6960722416","name":"Porto Formoso","lat":15.2476629,"lon":-23.6627213,"type":"village"},{"id":"6996412536","name":"Ponta Verde","lat":15.2002285,"lon":-23.6003023,"type":"village"},{"id":"7011589415","name":"Pilão Cão","lat":15.1952697,"lon":-23.6322269,"type":"village"},{"id":"7076689296","name":"Mato Correia","lat":15.1995559,"lon":-23.6400935,"type":"village"},{"id":"7076689297","name":"Palha Carga","lat":15.2241491,"lon":-23.646686,"type":"village"},{"id":"7076689300","name":"Serra Malagueta","lat":15.1851215,"lon":-23.6900704,"type":"village"},{"id":"7076689304","name":"Gomgom","lat":15.2009648,"lon":-23.6651119,"type":"village"},{"id":"7082782891","name":"Fazenda","lat":15.311066,"lon":-23.743937,"type":"village"},{"id":"7082783392","name":"Ponta Lobrão","lat":15.3108736,"lon":-23.7088183,"type":"village"},{"id":"7085257280","name":"Praia Gonçalo","lat":15.2673462,"lon":-23.1141108,"type":"village"},{"id":"7085257325","name":"Calheta","lat":15.2292429,"lon":-23.2112107,"type":"town"},{"id":"7085257602","name":"Cidade do Maio","lat":15.1375142,"lon":-23.2112673,"type":"town"},{"id":"7196914362","name":"Espongeiro","lat":17.1154766,"lon":-25.0824377,"type":"village"},{"id":"7319221530","name":"São Martinho Grande","lat":14.9244038,"lon":-23.5679785,"type":"village"},{"id":"7326035202","name":"Porto Mosquito","lat":14.950938,"lon":-23.6840895,"type":"village"},{"id":"7335713672","name":"São João Ba(p)tista","lat":14.9450793,"lon":-23.6598455,"type":"village"},{"id":"7342437057","name":"Ribeira Filipe","lat":14.9896852,"lon":-24.4197339,"type":"village"},{"id":"7369572380","name":"Santa Ana","lat":14.991005,"lon":-23.6363002,"type":"village"},{"id":"7373025299","name":"Achadinha","lat":14.9916366,"lon":-23.6391015,"type":"village"},{"id":"7390321323","name":"Choupana","lat":14.9349115,"lon":-23.5716364,"type":"village"},{"id":"7390368821","name":"Sanharre","lat":14.9370297,"lon":-23.5711043,"type":"village"},{"id":"7425890673","name":"Achada Louro","lat":15.0160273,"lon":-23.6167138,"type":"village"},{"id":"7490200270","name":"Cabeça da Horta","lat":15.0238724,"lon":-23.5204517,"type":"village"},{"id":"7546047956","name":"Chão Vaz","lat":15.0924538,"lon":-23.6257016,"type":"village"},{"id":"7590040457","name":"Covão Sanchez","lat":15.1565649,"lon":-23.5694284,"type":"village"},{"id":"7692295660","name":"Ponta de São Francisco","lat":14.9784779,"lon":-23.49274,"type":"village"},{"id":"7846936752","name":"Mato Grande","lat":14.8631866,"lon":-24.6895341,"type":"village"},{"id":"7972572563","name":"Mercado","lat":15.0630749,"lon":-23.6101698,"type":"village"},{"id":"7988342938","name":"Canço","lat":15.104579,"lon":-23.6608843,"type":"village"},{"id":"8059982767","name":"Chão de Tanque","lat":15.0920004,"lon":-23.7016196,"type":"village"},{"id":"8085447075","name":"Tomba Toiro","lat":15.1066679,"lon":-23.7185719,"type":"village"},{"id":"8090597729","name":"Capela Tabanca","lat":15.1224698,"lon":-23.7433122,"type":"village"},{"id":"8104200494","name":"Figueira das Naus","lat":15.1820104,"lon":-23.7312748,"type":"village"},{"id":"8170287030","name":"Chão Grande","lat":15.0827846,"lon":-23.6525878,"type":"village"},{"id":"8175919242","name":"Lem Martim","lat":15.1410671,"lon":-23.6801046,"type":"village"},{"id":"8255534364","name":"Veneza","lat":14.9855184,"lon":-23.5379504,"type":"village"},{"id":"8264400189","name":"João Garrido","lat":15.0221166,"lon":-23.5670504,"type":"village"},{"id":"8507920970","name":"Espigão","lat":16.6114277,"lon":-24.3530353,"type":"village"},{"id":"8509320733","name":"Covoada","lat":16.6568427,"lon":-24.3438178,"type":"village"},{"id":"8543790213","name":"Rombado","lat":15.1010844,"lon":-23.7336328,"type":"village"},{"id":"8543790214","name":"Mato Sancho","lat":15.1037332,"lon":-23.7268566,"type":"village"},{"id":"9216788237","name":"Mãe Joana","lat":14.890711,"lon":-24.3118058,"type":"village"},{"id":"9297487227","name":"Cova Figueira","lat":14.889935,"lon":-24.2941143,"type":"village"},{"id":"9297487228","name":"Cutelo Cruz","lat":14.8868737,"lon":-24.2943304,"type":"village"},{"id":"9490295626","name":"Queimadinha","lat":14.9729121,"lon":-24.2965466,"type":"village"},{"id":"9651694871","name":"Bangaeira","lat":14.9745973,"lon":-24.3673695,"type":"village"},{"id":"9675128143","name":"Mato Brasil","lat":15.2316552,"lon":-23.6901777,"type":"village"},{"id":"9684672217","name":"Laranjeiro","lat":14.9731069,"lon":-24.468287,"type":"village"},{"id":"9684672218","name":"Ribeira Grande","lat":14.9587204,"lon":-24.4765911,"type":"village"},{"id":"9684672219","name":"Santo António","lat":14.9453903,"lon":-24.4797025,"type":"village"},{"id":"9684672220","name":"Serrado","lat":14.9428817,"lon":-24.4707117,"type":"village"},{"id":"9734792678","name":"Italiano","lat":14.9654416,"lon":-24.4511109,"type":"village"},{"id":"9734856452","name":"Mira Mira","lat":14.9752759,"lon":-24.4445619,"type":"village"},{"id":"11177298655","name":"Vale da Custa","lat":14.9902436,"lon":-23.4718577,"type":"village"},{"id":"11177360276","name":"Agostinho Alvies","lat":14.9621197,"lon":-23.5034052,"type":"village"},{"id":"11451949694","name":"Maria Pereira","lat":15.1085708,"lon":-23.5748461,"type":"village"},{"id":"11465598842","name":"Boca de Ambas Ribeiras","lat":17.1515704,"lon":-25.1312768,"type":"village"},{"id":"11750549810","name":"Chã de Ribeirãozinho","lat":17.049741,"lon":-25.2007769,"type":"village"},{"id":"11753551311","name":"Catano","lat":17.0353285,"lon":-25.2232423,"type":"village"},{"id":"11816346140","name":"Chã Cardoso","lat":14.9995761,"lon":-23.5504631,"type":"village"},{"id":"12292139931","name":"Cabouque de Tarafe","lat":17.159076,"lon":-25.1645101,"type":"village"},{"id":"13593864857","name":"Preguiça","lat":16.5638455,"lon":-24.2812988,"type":"village"}]