[{"id":"9331795","name":"Λεμεσός","lat":34.6852901,"lon":33.0332657,"type":"city"},{"id":"21268125","name":"Φρέναρος","lat":35.0421958,"lon":33.9223452,"type":"village"},{"id":"21285732","name":"Αυγόρου","lat":35.0356292,"lon":33.8401465,"type":"village"},{"id":"21285807","name":"Ξυλοφάγου","lat":34.9772326,"lon":33.8491973,"type":"town"},{"id":"21285853","name":"Λιοπέτρι","lat":35.0063494,"lon":33.8924956,"type":"village"},{"id":"21422337","name":"Άγιος Γεώργιος Αχερίτου","lat":35.0724539,"lon":33.8825676,"type":"village"},{"id":"21422489","name":"Πρωταράς","lat":35.0149462,"lon":34.0531284,"type":"town"},{"id":"21422610","name":"Παραλίμνι","lat":35.0391526,"lon":33.9828013,"type":"town"},{"id":"21422650","name":"Σωτήρα","lat":35.0266887,"lon":33.9501971,"type":"village"},{"id":"21510697","name":"Πύλα - Pile","lat":35.0138593,"lon":33.6918352,"type":"village"},{"id":"21621301","name":"Αγία Νάπα","lat":34.9893216,"lon":33.9962036,"type":"town"},{"id":"25906496","name":"Δασάκι Άχνας","lat":35.0297118,"lon":33.7708195,"type":"village"},{"id":"28193867","name":"Ζύγι","lat":34.7289972,"lon":33.3380216,"type":"village"},{"id":"28836190","name":"Ερήμη","lat":34.6807311,"lon":32.9206439,"type":"village"},{"id":"29330319","name":"Κούκλια","lat":34.7087687,"lon":32.5749517,"type":"village"},{"id":"29377567","name":"Τάλα","lat":34.8361333,"lon":32.4309763,"type":"village"},{"id":"29377568","name":"Έμπα","lat":34.8087473,"lon":32.4235493,"type":"town"},{"id":"29705484","name":"Κίτι","lat":34.8456226,"lon":33.5726051,"type":"town"},{"id":"29705608","name":"Δρομολαξιά","lat":34.8730569,"lon":33.5871451,"type":"town"},{"id":"30354186","name":"Τρεμιθούσα","lat":34.8169375,"lon":32.4474273,"type":"village"},{"id":"30354208","name":"Χλώρακας","lat":34.7995901,"lon":32.4079198,"type":"town"},{"id":"38901613","name":"Κονιά","lat":34.784944,"lon":32.4575574,"type":"village"},{"id":"38902143","name":"Επισκοπή","lat":34.7956542,"lon":32.5255332,"type":"village"},{"id":"38974293","name":"Αγία Μαρινούδα","lat":34.7615904,"lon":32.4744804,"type":"village"},{"id":"38989452","name":"Προδρόμι","lat":35.0270159,"lon":32.4177522,"type":"village"},{"id":"38989632","name":"Πόλις","lat":35.034477,"lon":32.426471,"type":"town"},{"id":"38995277","name":"Μανδριά","lat":34.7157932,"lon":32.5322697,"type":"village"},{"id":"38996034","name":"Τίμη","lat":34.7316083,"lon":32.5160704,"type":"village"},{"id":"38997647","name":"Αναβαργός","lat":34.7945562,"lon":32.4510855,"type":"village"},{"id":"39530882","name":"Άρμου","lat":34.7993153,"lon":32.4798288,"type":"village"},{"id":"39531375","name":"Μαραθούντα","lat":34.7912106,"lon":32.4870257,"type":"village"},{"id":"39663578","name":"Γέρι","lat":35.1068501,"lon":33.4204148,"type":"town"},{"id":"41004747","name":"Κάθηκας","lat":34.9124489,"lon":32.4256458,"type":"village"},{"id":"41005573","name":"Πέγεια","lat":34.8835052,"lon":32.3803202,"type":"town"},{"id":"41005596","name":"Τσάδα","lat":34.8393811,"lon":32.4752365,"type":"village"},{"id":"41005634","name":"Στρουμπί","lat":34.8838593,"lon":32.4820085,"type":"village"},{"id":"41005643","name":"Αγία Βαρβάρα","lat":34.7506911,"lon":32.5104699,"type":"village"},{"id":"41006044","name":"Μεσόγη","lat":34.8146121,"lon":32.4577699,"type":"village"},{"id":"42846077","name":"Beyarmudu","lat":35.0431635,"lon":33.708323,"type":"village"},{"id":"43558937","name":"Άγιος Γεώργιος Πέγειας","lat":34.9022409,"lon":32.3258631,"type":"village"},{"id":"44946488","name":"Καμάρες","lat":34.8454483,"lon":32.4358996,"type":"village"},{"id":"46307277","name":"Μέσα Χωριό","lat":34.8094782,"lon":32.4616179,"type":"village"},{"id":"47186876","name":"Αχέλεια","lat":34.7385781,"lon":32.4860511,"type":"village"},{"id":"52927682","name":"Πισσούρι","lat":34.6689046,"lon":32.7010481,"type":"village"},{"id":"53980483","name":"Χολέτρια","lat":34.7628778,"lon":32.5991425,"type":"village"},{"id":"53987389","name":"Κοίλη","lat":34.8600454,"lon":32.454989,"type":"village"},{"id":"55444567","name":"Αστρομερίτης","lat":35.1399881,"lon":33.0374869,"type":"village"},{"id":"55444610","name":"Περιστερώνα","lat":35.1298755,"lon":33.0799994,"type":"village"},{"id":"55452951","name":"Αλάμπρα","lat":34.9893681,"lon":33.3991135,"type":"village"},{"id":"59739956","name":"Κολόσσι","lat":34.6781921,"lon":32.9388117,"type":"village"},{"id":"60057108","name":"Γερμασόγεια","lat":34.7130838,"lon":33.0879427,"type":"town"},{"id":"60060134","name":"Χούλου","lat":34.8718997,"lon":32.5579677,"type":"village"},{"id":"60061093","name":"Φοίτη","lat":34.9285633,"lon":32.5449928,"type":"village"},{"id":"60061183","name":"Δρύμου","lat":34.9254705,"lon":32.5131092,"type":"village"},{"id":"60061235","name":"Σίμου","lat":34.9413168,"lon":32.5038567,"type":"village"},{"id":"60170093","name":"Μέσα Γειτονιά","lat":34.701862,"lon":33.0449947,"type":"town"},{"id":"60170117","name":"Ακρωτήρι","lat":34.6008434,"lon":32.9561709,"type":"village"},{"id":"60187025","name":"Αυδήμου","lat":34.6958453,"lon":32.7620848,"type":"village"},{"id":"60207063","name":"Πολέμι","lat":34.8856273,"lon":32.5075477,"type":"village"},{"id":"60231693","name":"Δένεια","lat":35.1664041,"lon":33.1464455,"type":"village"},{"id":"60277286","name":"Λέμπα","lat":34.8109314,"lon":32.408413,"type":"village"},{"id":"60566309","name":"Μονή","lat":34.7379887,"lon":33.2020017,"type":"village"},{"id":"60566322","name":"Πύργος Λεμεσού","lat":34.7382188,"lon":33.183607,"type":"village"},{"id":"60566365","name":"Ακρούντα","lat":34.7657369,"lon":33.0817917,"type":"village"},{"id":"60566822","name":"Διερώνα","lat":34.8305956,"lon":33.1110726,"type":"village"},{"id":"60570415","name":"Παρεκκλησιά","lat":34.7428724,"lon":33.1613655,"type":"village"},{"id":"60571101","name":"Αρακαπάς","lat":34.8438066,"lon":33.1135959,"type":"village"},{"id":"60582142","name":"Άγιος Δημητριανός","lat":34.9067702,"lon":32.5507541,"type":"village"},{"id":"60582296","name":"Κανναβιού","lat":34.9155846,"lon":32.5747016,"type":"village"},{"id":"67322815","name":"Αραδίππου","lat":34.9496176,"lon":33.5926752,"type":"town"},{"id":"76466431","name":"Νικόκλεια","lat":34.7293213,"lon":32.5768352,"type":"village"},{"id":"76466926","name":"Νατά","lat":34.778942,"lon":32.5710631,"type":"village"},{"id":"81572660","name":"Αναρίτα","lat":34.7410195,"lon":32.5337696,"type":"village"},{"id":"95860714","name":"Δρούσια","lat":34.9622569,"lon":32.3986455,"type":"village"},{"id":"95860770","name":"Ίνεια","lat":34.956348,"lon":32.3931953,"type":"village"},{"id":"95860897","name":"Πάνω Αρόδες","lat":34.9361915,"lon":32.4071132,"type":"village"},{"id":"112649144","name":"Λεμώνα","lat":34.862611,"lon":32.5579505,"type":"village"},{"id":"114103666","name":"Γιόλου","lat":34.9246399,"lon":32.473288,"type":"village"},{"id":"155445007","name":"Πάνω Παναγιά","lat":34.9195604,"lon":32.6314999,"type":"village"},{"id":"155458770","name":"Κάτω Πύργος","lat":35.1812287,"lon":32.6845811,"type":"village"},{"id":"181306105","name":"Τραχυπέδουλα","lat":34.8009951,"lon":32.6789177,"type":"village"},{"id":"184019792","name":"Νέο Χωριό","lat":35.0265386,"lon":32.3634406,"type":"village"},{"id":"190527952","name":"Τρόοδος","lat":34.9239083,"lon":32.8817347,"type":"village"},{"id":"219483869","name":"Πρόδρομος","lat":34.9499503,"lon":32.8324861,"type":"village"},{"id":"219504232","name":"Μουτταγιάκα","lat":34.7207337,"lon":33.1009026,"type":"village"},{"id":"243453747","name":"Κοτσιάτης","lat":35.0129039,"lon":33.3502225,"type":"village"},{"id":"244219893","name":"Άγιος Γεώργιος","lat":34.7785315,"lon":32.6525473,"type":"village"},{"id":"246131536","name":"Γαλάτα","lat":34.9974031,"lon":32.8990748,"type":"village"},{"id":"247911647","name":"Πωμός","lat":35.1606505,"lon":32.5465357,"type":"village"},{"id":"255134741","name":"Erdemli","lat":35.084553,"lon":33.6085847,"type":"village"},{"id":"261184818","name":"Παλώδεια","lat":34.7484502,"lon":33.0047204,"type":"village"},{"id":"261186294","name":"Σπιτάλι","lat":34.7639005,"lon":33.003802,"type":"village"},{"id":"261186639","name":"Φασούλα","lat":34.7647569,"lon":33.0270503,"type":"village"},{"id":"266059819","name":"Κινούσα","lat":35.0329506,"lon":32.5071852,"type":"village"},{"id":"266360945","name":"Λετύμβου","lat":34.8565441,"lon":32.5139814,"type":"village"},{"id":"266436311","name":"Καλλέπεια","lat":34.84573,"lon":32.5008673,"type":"village"},{"id":"267185135","name":"Χρυσοχού","lat":35.0036879,"lon":32.4395104,"type":"village"},{"id":"267186187","name":"Γουδί","lat":34.9917512,"lon":32.44185,"type":"village"},{"id":"267187353","name":"Κρήτου Τέρρα","lat":34.9556729,"lon":32.4222236,"type":"village"},{"id":"268378362","name":"Παραμάλι","lat":34.6780746,"lon":32.7926051,"type":"village"},{"id":"268526913","name":"Επισκοπή","lat":34.6704337,"lon":32.9018553,"type":"town"},{"id":"268651408","name":"Πάνω Λεύκαρα","lat":34.8665517,"lon":33.3068524,"type":"town"},{"id":"268695276","name":"Άγιος Τύχωνας","lat":34.7264828,"lon":33.1409179,"type":"village"},{"id":"268702220","name":"Αρμενοχώρι","lat":34.7447822,"lon":33.1292372,"type":"village"},{"id":"268703495","name":"Κελλάκι","lat":34.8164304,"lon":33.1583933,"type":"village"},{"id":"268703628","name":"Σανίδα","lat":34.8076339,"lon":33.1891622,"type":"village"},{"id":"268703700","name":"Πραστειό","lat":34.81153,"lon":33.1430176,"type":"village"},{"id":"268703931","name":"Επταγώνια","lat":34.8467547,"lon":33.1583854,"type":"village"},{"id":"268847222","name":"Κόρνος","lat":34.9205368,"lon":33.3982991,"type":"village"},{"id":"268851668","name":"Μαθιάτης","lat":34.9624254,"lon":33.3362182,"type":"village"},{"id":"276379675","name":"Beylerbeyi","lat":35.3068057,"lon":33.3550954,"type":"village"},{"id":"276379677","name":"Karakum","lat":35.3326865,"lon":33.3420667,"type":"village"},{"id":"276379679","name":"Ozanköy","lat":35.3195514,"lon":33.3533516,"type":"village"},{"id":"276379681","name":"Hisarköy","lat":35.301416,"lon":33.1078601,"type":"village"},{"id":"276379684","name":"Özhan","lat":35.2753281,"lon":33.1077234,"type":"village"},{"id":"276379686","name":"Kılıçaslan","lat":35.2688732,"lon":33.1259076,"type":"village"},{"id":"276379688","name":"Karşıyaka","lat":35.3533056,"lon":33.1185224,"type":"village"},{"id":"276379695","name":"Şirinevler","lat":35.2784517,"lon":33.1727025,"type":"village"},{"id":"285165088","name":"Dağyolu","lat":35.2645645,"lon":33.2220905,"type":"village"},{"id":"285165348","name":"Göçeri","lat":35.2896806,"lon":33.216143,"type":"village"},{"id":"285165752","name":"Hamitköy","lat":35.2143491,"lon":33.3784008,"type":"village"},{"id":"285166016","name":"Aydınköy","lat":35.1754257,"lon":32.9396556,"type":"village"},{"id":"285166089","name":"Bağlıköy","lat":35.1203185,"lon":32.8040567,"type":"village"},{"id":"285166115","name":"Gaziveren","lat":35.1724843,"lon":32.9164496,"type":"village"},{"id":"285166169","name":"Taşköy","lat":35.1096671,"lon":32.9075871,"type":"village"},{"id":"285166236","name":"Yayla","lat":35.2251052,"lon":32.940156,"type":"village"},{"id":"285166269","name":"Erenköy","lat":35.1790022,"lon":32.6097115,"type":"village"},{"id":"289749677","name":"Alsancak","lat":35.3394085,"lon":33.1960746,"type":"village"},{"id":"290758168","name":"Άγιος Αμβρόσιος","lat":34.7812126,"lon":32.8272746,"type":"village"},{"id":"290758478","name":"Μαλλιά","lat":34.8166632,"lon":32.7827114,"type":"village"},{"id":"290759035","name":"Άγιος Θωμάς","lat":34.7165827,"lon":32.7251025,"type":"village"},{"id":"290790859","name":"Μαντριά","lat":34.869402,"lon":32.8307201,"type":"village"},{"id":"290791015","name":"Κάτω Πλάτρες","lat":34.8794314,"lon":32.840016,"type":"village"},{"id":"291058119","name":"Πεδουλάς","lat":34.9673935,"lon":32.828767,"type":"village"},{"id":"291069140","name":"Μουτουλάς","lat":34.9840395,"lon":32.824663,"type":"village"},{"id":"291069143","name":"Καλοπαναγιώτης","lat":34.9920101,"lon":32.8280767,"type":"village"},{"id":"291069146","name":"Οίκος","lat":34.9995357,"lon":32.8287115,"type":"village"},{"id":"291082844","name":"Παλαιχώρι Μόρφου","lat":34.9237946,"lon":33.090997,"type":"village"},{"id":"291082850","name":"Άγιος Επιφάνιος","lat":34.9956208,"lon":33.1199312,"type":"village"},{"id":"291151685","name":"Αγρός","lat":34.9176417,"lon":33.0184087,"type":"village"},{"id":"291151712","name":"Κυπερούντα","lat":34.9411917,"lon":32.9742528,"type":"village"},{"id":"291305944","name":"Καλό Χωριό Ορεινής","lat":35.0058428,"lon":33.1621586,"type":"village"},{"id":"291305960","name":"Κλήρου","lat":35.0203346,"lon":33.1778098,"type":"village"},{"id":"291306032","name":"Μαλούντα","lat":35.0354633,"lon":33.1832815,"type":"village"},{"id":"291306049","name":"Αγροκηπιά","lat":35.0450275,"lon":33.1549145,"type":"village"},{"id":"291306064","name":"Αρεδιού","lat":35.0478383,"lon":33.1949085,"type":"village"},{"id":"291311709","name":"Βαβατσινιά","lat":34.8934727,"lon":33.2289324,"type":"village"},{"id":"291356209","name":"Mevlevi","lat":35.2030998,"lon":33.0590762,"type":"village"},{"id":"291393674","name":"Πολύστυπος","lat":34.9394681,"lon":33.0181525,"type":"village"},{"id":"291393706","name":"Πλατανιστάσα","lat":34.9460719,"lon":33.0461421,"type":"village"},{"id":"291393714","name":"Λαγουδερά","lat":34.9622213,"lon":33.0108464,"type":"village"},{"id":"291393743","name":"Ξυλιάτος","lat":35.0294567,"lon":33.0426056,"type":"village"},{"id":"291407448","name":"Akçay","lat":35.1799595,"lon":33.0353237,"type":"village"},{"id":"291411512","name":"Μαμώνια","lat":34.7697936,"lon":32.6367208,"type":"village"},{"id":"291411689","name":"Κέδαρες","lat":34.8361073,"lon":32.7364315,"type":"village"},{"id":"291412638","name":"Άγιος Νικόλαος","lat":34.8613573,"lon":32.7544595,"type":"village"},{"id":"291468381","name":"Γερακιές","lat":34.9999527,"lon":32.8052967,"type":"village"},{"id":"291468394","name":"Μηλικούρι","lat":34.9621043,"lon":32.7507687,"type":"village"},{"id":"291468564","name":"Τσακίστρα","lat":35.0245183,"lon":32.72307,"type":"village"},{"id":"291468637","name":"Κάμπος","lat":35.0401531,"lon":32.7324952,"type":"village"},{"id":"291469818","name":"Πέρα Πεδί","lat":34.8606896,"lon":32.8743527,"type":"village"},{"id":"291469953","name":"Μονιάτης","lat":34.8691385,"lon":32.8952492,"type":"village"},{"id":"291469974","name":"Αμίαντος","lat":34.9179784,"lon":32.9357464,"type":"village"},{"id":"291469978","name":"Πελένδρι","lat":34.8955424,"lon":32.9667058,"type":"village"},{"id":"291485840","name":"Μαζωτός","lat":34.804063,"lon":33.4884218,"type":"village"},{"id":"291587418","name":"Κοφίνου","lat":34.8245908,"lon":33.3920208,"type":"village"},{"id":"291589386","name":"Σκαρίνου","lat":34.8213895,"lon":33.3571675,"type":"village"},{"id":"291648700","name":"Σαλαμιού","lat":34.8400323,"lon":32.6894709,"type":"village"},{"id":"291648804","name":"Όμοδος","lat":34.8480909,"lon":32.8078054,"type":"village"},{"id":"291834789","name":"Μιτσερό","lat":35.0431958,"lon":33.1241064,"type":"village"},{"id":"291837088","name":"Άγιος Θεοδώρος","lat":34.8957414,"lon":33.0341142,"type":"village"},{"id":"291853850","name":"Λεμύθου","lat":34.9501837,"lon":32.8119279,"type":"village"},{"id":"291949898","name":"Λιμνάτης","lat":34.8141887,"lon":32.9485137,"type":"village"},{"id":"292153221","name":"Αλέκτορα","lat":34.7094058,"lon":32.6831968,"type":"village"},{"id":"292183642","name":"Λουβαράς","lat":34.836624,"lon":33.0392094,"type":"village"},{"id":"292183927","name":"Άγιος Ιωάννης","lat":34.8958746,"lon":33.0204271,"type":"village"},{"id":"292183986","name":"Ποταμίτισσα","lat":34.907797,"lon":32.9897609,"type":"village"},{"id":"292184033","name":"Αγρίδια","lat":34.929326,"lon":32.9948565,"type":"village"},{"id":"292189582","name":"Οδού","lat":34.8852807,"lon":33.1506753,"type":"village"},{"id":"292189778","name":"Ορά","lat":34.8620739,"lon":33.1959956,"type":"village"},{"id":"292220531","name":"Λόφου","lat":34.8159027,"lon":32.8754162,"type":"village"},{"id":"292221782","name":"Λάνια","lat":34.824909,"lon":32.921085,"type":"village"},{"id":"292225161","name":"Βουνί","lat":34.8243571,"lon":32.8338373,"type":"village"},{"id":"292227635","name":"Άρσος","lat":34.8405459,"lon":32.7688904,"type":"village"},{"id":"292295272","name":"Καννάβια","lat":34.9835609,"lon":32.9769254,"type":"village"},{"id":"292340446","name":"Σπήλια","lat":34.9664839,"lon":32.9553024,"type":"village"},{"id":"292343486","name":"Βυζακιά","lat":35.0763566,"lon":33.0137472,"type":"village"},{"id":"292687002","name":"Νικητάρι","lat":35.0722348,"lon":32.9936092,"type":"village"},{"id":"292687467","name":"Φοινικάρια","lat":34.7530226,"lon":33.0983476,"type":"village"},{"id":"292744143","name":"Δύμες","lat":34.9182828,"lon":32.9836813,"type":"village"},{"id":"292749562","name":"Ζωοπηγή","lat":34.8628981,"lon":33.0151709,"type":"village"},{"id":"292750129","name":"Άλωνα","lat":34.9337842,"lon":33.0400272,"type":"village"},{"id":"292750461","name":"Ασκάς","lat":34.9296295,"lon":33.0782487,"type":"village"},{"id":"293222948","name":"Κελοκέδαρα","lat":34.8126108,"lon":32.6516507,"type":"village"},{"id":"293222951","name":"Σταυροκόννου","lat":34.7853452,"lon":32.6178124,"type":"village"},{"id":"293237094","name":"Büyükkonuk","lat":35.4104388,"lon":33.9935574,"type":"village"},{"id":"293237096","name":"Sazlıköy","lat":35.3992848,"lon":34.0259024,"type":"village"},{"id":"293237107","name":"Çayırova","lat":35.3660363,"lon":34.0297851,"type":"village"},{"id":"293237108","name":"Pamuklu","lat":35.3977953,"lon":34.0765548,"type":"village"},{"id":"293237109","name":"Bafra","lat":35.379518,"lon":34.0712539,"type":"village"},{"id":"293237110","name":"Kumyalı","lat":35.4276576,"lon":34.1316404,"type":"village"},{"id":"293237111","name":"Ziyamet","lat":35.4685128,"lon":34.1382889,"type":"village"},{"id":"293237112","name":"Gelincik","lat":35.4729595,"lon":34.150295,"type":"village"},{"id":"293237125","name":"Esenköy","lat":35.4928658,"lon":34.1433772,"type":"village"},{"id":"293237126","name":"Boltaşlı","lat":35.4780938,"lon":34.1674017,"type":"village"},{"id":"293237127","name":"Derince","lat":35.4837899,"lon":34.1876376,"type":"village"},{"id":"293237128","name":"Yeşilköy","lat":35.5050355,"lon":34.1624713,"type":"village"},{"id":"293241219","name":"Yenierenköy","lat":35.5343185,"lon":34.188649,"type":"village"},{"id":"293713031","name":"Zümrütköy","lat":35.1747025,"lon":33.0517775,"type":"village"},{"id":"293713039","name":"Serhatköy","lat":35.1882752,"lon":33.0922433,"type":"village"},{"id":"293713049","name":"Şahinler","lat":35.185611,"lon":33.0754053,"type":"village"},{"id":"293757538","name":"Ψεματισμένος","lat":34.7668947,"lon":33.3445309,"type":"village"},{"id":"297969999","name":"Σιά","lat":34.9554394,"lon":33.3899141,"type":"village"},{"id":"297998437","name":"Κοράκου","lat":35.040466,"lon":32.8870005,"type":"village"},{"id":"299052758","name":"Συκόπετρα","lat":34.8790506,"lon":33.1127995,"type":"village"},{"id":"299290537","name":"Akçiçek","lat":35.299424,"lon":33.1729456,"type":"village"},{"id":"299290538","name":"Lapta","lat":35.3387318,"lon":33.1722789,"type":"town"},{"id":"299290543","name":"Malatya","lat":35.3270993,"lon":33.207022,"type":"village"},{"id":"299290548","name":"Pınarbaşı","lat":35.2871477,"lon":33.2374567,"type":"village"},{"id":"299290576","name":"Demirhan","lat":35.2233822,"lon":33.4793482,"type":"village"},{"id":"299290584","name":"Kayalar","lat":35.3597382,"lon":33.0336704,"type":"village"},{"id":"299290585","name":"Geçitköy","lat":35.336326,"lon":33.0681663,"type":"village"},{"id":"299290586","name":"Çamlıbel","lat":35.3072059,"lon":33.0751473,"type":"village"},{"id":"299290593","name":"Aşağı Bostancı","lat":35.1685572,"lon":33.0066204,"type":"village"},{"id":"299290597","name":"Yukarı Bostancı","lat":35.1621325,"lon":33.0159382,"type":"village"},{"id":"299290608","name":"Doğancı","lat":35.1331227,"lon":32.913372,"type":"village"},{"id":"299290616","name":"Cengizköy","lat":35.1318489,"lon":32.8651117,"type":"village"},{"id":"299290636","name":"Paşaköy","lat":35.1581388,"lon":33.6090186,"type":"village"},{"id":"302027321","name":"Άγιος Θεόδωρος Σκαρίνου","lat":34.7997975,"lon":33.3838122,"type":"village"},{"id":"302027372","name":"Αλαμηνός","lat":34.8068728,"lon":33.4344219,"type":"village"},{"id":"302309663","name":"Ψευδάς","lat":34.9441101,"lon":33.4593762,"type":"village"},{"id":"302309669","name":"Αγία Άννα","lat":34.9426236,"lon":33.4810625,"type":"village"},{"id":"302716086","name":"Αγία Βαρβάρα","lat":34.9962366,"lon":33.3692242,"type":"village"},{"id":"304059562","name":"Φτερικούδι","lat":34.9435407,"lon":33.0690566,"type":"village"},{"id":"304288208","name":"Güngör","lat":35.2658497,"lon":33.4208571,"type":"village"},{"id":"304288221","name":"Akdeniz","lat":35.2986814,"lon":32.9635543,"type":"village"},{"id":"306213427","name":"Aşağı Dikmen","lat":35.2665616,"lon":33.322729,"type":"village"},{"id":"306213431","name":"Çatalköy","lat":35.3213447,"lon":33.3906576,"type":"town"},{"id":"306213498","name":"Lefke","lat":35.1137814,"lon":32.8495971,"type":"town"},{"id":"306213518","name":"Gaziköy","lat":35.1581193,"lon":33.5863515,"type":"village"},{"id":"306213529","name":"Gazimağusa","lat":35.1205261,"lon":33.9387919,"type":"city"},{"id":"307695409","name":"Ilgaz","lat":35.3232543,"lon":33.2210123,"type":"village"},{"id":"307695410","name":"İncesu","lat":35.3351157,"lon":33.2073533,"type":"village"},{"id":"307695419","name":"Edremit","lat":35.330743,"lon":33.2605742,"type":"village"},{"id":"307695427","name":"Aşağıtaşkent","lat":35.2790318,"lon":33.3776927,"type":"village"},{"id":"307695435","name":"Haspolat","lat":35.2063724,"lon":33.4200196,"type":"village"},{"id":"307695436","name":"Balıkesir","lat":35.2084883,"lon":33.4934366,"type":"village"},{"id":"307695449","name":"Sadrazamköy","lat":35.3832534,"lon":32.9529962,"type":"village"},{"id":"316962550","name":"Kalavaç","lat":35.2577589,"lon":33.5486665,"type":"village"},{"id":"316962567","name":"Yeniceköy","lat":35.2385523,"lon":33.54679,"type":"village"},{"id":"316999535","name":"Kaplıca","lat":35.4214136,"lon":33.904832,"type":"village"},{"id":"317005021","name":"Zeybekköy","lat":35.389416,"lon":34.0143602,"type":"village"},{"id":"317006765","name":"Avtepe","lat":35.4911828,"lon":34.2184691,"type":"village"},{"id":"317794242","name":"Değirmenlik","lat":35.2476457,"lon":33.4806933,"type":"town"},{"id":"317805539","name":"Vadili","lat":35.1337935,"lon":33.6557314,"type":"village"},{"id":"317809498","name":"Akdoğan","lat":35.1062416,"lon":33.6822908,"type":"village"},{"id":"317809992","name":"Türkmenköy","lat":35.105122,"lon":33.7166764,"type":"village"},{"id":"317810076","name":"İnönü","lat":35.1576104,"lon":33.7005485,"type":"village"},{"id":"317810078","name":"Turunçlu","lat":35.1666524,"lon":33.6390995,"type":"village"},{"id":"317810484","name":"Kurudere","lat":35.1927809,"lon":33.6408025,"type":"village"},{"id":"317810485","name":"Aslanköy","lat":35.2043581,"lon":33.5892324,"type":"village"},{"id":"317810486","name":"Ulukışla","lat":35.222767,"lon":33.6168368,"type":"village"},{"id":"317810487","name":"Meriç","lat":35.1730011,"lon":33.5441836,"type":"village"},{"id":"317810648","name":"Kırklar","lat":35.1345211,"lon":33.5124917,"type":"village"},{"id":"334278854","name":"Ανώγυρα","lat":34.7397962,"lon":32.7340617,"type":"village"},{"id":"340008322","name":"Κισσόνεργα","lat":34.822866,"lon":32.4019223,"type":"village"},{"id":"356262302","name":"Μοναγρούλλι","lat":34.7487946,"lon":33.2129877,"type":"village"},{"id":"356264479","name":"Ασγάτα","lat":34.7785435,"lon":33.2552835,"type":"village"},{"id":"356265992","name":"Βάσα","lat":34.8031078,"lon":33.215339,"type":"village"},{"id":"360273067","name":"Yiğitler","lat":35.0899187,"lon":33.627897,"type":"village"},{"id":"360349618","name":"Kozan","lat":35.3107054,"lon":33.140665,"type":"village"},{"id":"360349619","name":"Alemdağ","lat":35.3081648,"lon":33.1519331,"type":"village"},{"id":"365541957","name":"Στατός - Άγιος Φώτιος","lat":34.8853217,"lon":32.6214949,"type":"village"},{"id":"366508281","name":"Güneşköy","lat":35.1765353,"lon":32.9567145,"type":"village"},{"id":"366531518","name":"Taşpınar","lat":35.118146,"lon":32.948238,"type":"village"},{"id":"366812588","name":"Karaman","lat":35.3176653,"lon":33.2568389,"type":"village"},{"id":"366817161","name":"Arapköy","lat":35.3066986,"lon":33.4334742,"type":"village"},{"id":"366817171","name":"Tatlısu","lat":35.3726129,"lon":33.7533656,"type":"village"},{"id":"366821573","name":"Yukarıtaşkent","lat":35.271896,"lon":33.3909142,"type":"village"},{"id":"394758126","name":"Τόχνη","lat":34.7799219,"lon":33.3226715,"type":"village"},{"id":"394761075","name":"Καλαβασός","lat":34.7735864,"lon":33.2959037,"type":"village"},{"id":"395251891","name":"Χοιροκοιτία","lat":34.7982318,"lon":33.3346161,"type":"village"},{"id":"412448107","name":"Doğanköy","lat":35.3256596,"lon":33.3344148,"type":"village"},{"id":"567181814","name":"Περβόλια","lat":34.8174917,"lon":33.6012128,"type":"village"},{"id":"602098229","name":"Σινάoρος","lat":35.0110918,"lon":32.8999442,"type":"village"},{"id":"602099676","name":"Τεμβριά","lat":35.0271945,"lon":32.8916215,"type":"village"},{"id":"602099677","name":"Ευρύχου","lat":35.0411954,"lon":32.9021784,"type":"village"},{"id":"602099900","name":"Άγιος Θεόδωρος Σολέας","lat":35.042093,"lon":32.9274417,"type":"village"},{"id":"602100265","name":"Φλάσου","lat":35.0651177,"lon":32.8885414,"type":"village"},{"id":"602100267","name":"Λινού","lat":35.0733259,"lon":32.89291,"type":"village"},{"id":"616333020","name":"Φοινί","lat":34.8938411,"lon":32.8380605,"type":"village"},{"id":"676672956","name":"Girne","lat":35.3396291,"lon":33.3205287,"type":"city"},{"id":"701970743","name":"Μενεού","lat":34.8368023,"lon":33.6054263,"type":"village"},{"id":"701997347","name":"Αναφωτία","lat":34.8251103,"lon":33.4634744,"type":"village"},{"id":"702717433","name":"Ορμήδεια","lat":34.9935097,"lon":33.7756282,"type":"village"},{"id":"706275310","name":"Άγιος Θεράπων","lat":34.7979839,"lon":32.8405515,"type":"village"},{"id":"706346818","name":"Μαθηκολώνη","lat":34.7753434,"lon":33.0473822,"type":"village"},{"id":"706346839","name":"Αψιού","lat":34.7972839,"lon":33.0171054,"type":"village"},{"id":"893276436","name":"Γεράσα","lat":34.8027217,"lon":32.9983734,"type":"village"},{"id":"979253396","name":"Περιστερώνα","lat":34.9902568,"lon":32.4893339,"type":"village"},{"id":"1012748135","name":"Yılmazköy","lat":35.2304802,"lon":33.1652475,"type":"village"},{"id":"1012748136","name":"Türkeli","lat":35.2190573,"lon":33.1844303,"type":"village"},{"id":"1057638797","name":"Καλό Χωριό Λεμεσού","lat":34.8495055,"lon":33.0238099,"type":"village"},{"id":"1057661574","name":"Άγιος Παύλος","lat":34.8640936,"lon":33.0457843,"type":"village"},{"id":"1057684901","name":"Άγιος Κωνσταντίνος","lat":34.8677154,"lon":33.0667204,"type":"village"},{"id":"1080163344","name":"Dipkarpaz","lat":35.5977395,"lon":34.3806708,"type":"town"},{"id":"1082660242","name":"Μελίνη","lat":34.8675116,"lon":33.1576829,"type":"village"},{"id":"1082700561","name":"Αγίοι Βαβατσινιάς","lat":34.8803289,"lon":33.1912313,"type":"village"},{"id":"1090949551","name":"Mehmetçik","lat":35.4221242,"lon":34.0693265,"type":"village"},{"id":"1096941125","name":"Kalecik","lat":35.3424739,"lon":33.9998073,"type":"village"},{"id":"1096997765","name":"Boğaz","lat":35.3150319,"lon":33.9505624,"type":"village"},{"id":"1097007425","name":"İskele","lat":35.285677,"lon":33.8930603,"type":"town"},{"id":"1097029713","name":"Mormenekşe","lat":35.2018399,"lon":33.8596954,"type":"village"},{"id":"1097029716","name":"Sınırüstü","lat":35.2723811,"lon":33.8520394,"type":"village"},{"id":"1097029732","name":"Ardahan","lat":35.3568042,"lon":33.8860095,"type":"village"},{"id":"1097029735","name":"Ötüken","lat":35.2346419,"lon":33.8723517,"type":"village"},{"id":"1097029742","name":"Aygün","lat":35.2561997,"lon":33.8627363,"type":"village"},{"id":"1097029747","name":"Kuzucuk","lat":35.2373465,"lon":33.8609648,"type":"village"},{"id":"1097029749","name":"Topçuköy","lat":35.3397904,"lon":33.8734104,"type":"village"},{"id":"1097038376","name":"Geçitkale","lat":35.2605334,"lon":33.7321988,"type":"town"},{"id":"1097038380","name":"Alaniçi","lat":35.2201529,"lon":33.7599435,"type":"village"},{"id":"1097038389","name":"Nergisli","lat":35.2180124,"lon":33.6984999,"type":"village"},{"id":"1097038394","name":"Akova","lat":35.2601669,"lon":33.7861636,"type":"village"},{"id":"1097038403","name":"Pınarlı","lat":35.2442596,"lon":33.6465368,"type":"village"},{"id":"1097038428","name":"Gönendere","lat":35.2640771,"lon":33.6614828,"type":"village"},{"id":"1097038439","name":"Serdarlı","lat":35.2545945,"lon":33.6022318,"type":"village"},{"id":"1097038442","name":"Yıldırım","lat":35.2395041,"lon":33.7808514,"type":"village"},{"id":"1097040478","name":"Çamlıca","lat":35.2826438,"lon":33.6879107,"type":"village"},{"id":"1103515284","name":"Kaleburnu","lat":35.5224385,"lon":34.3026647,"type":"village"},{"id":"1103515286","name":"Kuruova","lat":35.5108618,"lon":34.2741346,"type":"village"},{"id":"1103673072","name":"Adaçay","lat":35.5143199,"lon":34.1990045,"type":"village"},{"id":"1103679267","name":"Taşlıca","lat":35.4697834,"lon":34.2140289,"type":"village"},{"id":"1103732228","name":"Balalan","lat":35.4783568,"lon":34.1069526,"type":"village"},{"id":"1103732362","name":"Yedikonuk","lat":35.4459392,"lon":34.0312656,"type":"village"},{"id":"1104413738","name":"Ağıllar","lat":35.3467225,"lon":33.799342,"type":"village"},{"id":"1104416509","name":"Çınarlı","lat":35.3334464,"lon":33.7515081,"type":"village"},{"id":"1104416511","name":"Altınova","lat":35.3267871,"lon":33.8143125,"type":"village"},{"id":"1104503207","name":"Kurtuluş","lat":35.355337,"lon":33.9624173,"type":"village"},{"id":"1104503296","name":"Tuzluca","lat":35.3629784,"lon":33.9970998,"type":"village"},{"id":"1104503409","name":"Turnalar","lat":35.3598968,"lon":33.9219379,"type":"village"},{"id":"1104503426","name":"Yarköy","lat":35.3284553,"lon":33.9289152,"type":"village"},{"id":"1104503434","name":"Ergazi","lat":35.3656835,"lon":33.9378592,"type":"village"},{"id":"1104503435","name":"Kilitkaya","lat":35.3944713,"lon":33.9734023,"type":"village"},{"id":"1104560071","name":"Mallıdağ","lat":35.3327387,"lon":33.6890575,"type":"village"},{"id":"1104560108","name":"Tirmen","lat":35.3100676,"lon":33.6341154,"type":"village"},{"id":"1104560340","name":"Yamaçköy","lat":35.3287957,"lon":33.6780386,"type":"village"},{"id":"1104560350","name":"Ergenekon","lat":35.3051173,"lon":33.6041113,"type":"village"},{"id":"1104578427","name":"Görneç","lat":35.2827073,"lon":33.5730768,"type":"village"},{"id":"1104808157","name":"Mutluyaka","lat":35.1724218,"lon":33.834864,"type":"village"},{"id":"1104808174","name":"Dörtyol","lat":35.1755782,"lon":33.7568549,"type":"village"},{"id":"1104808216","name":"Korkuteli","lat":35.1673022,"lon":33.7889157,"type":"village"},{"id":"1104808281","name":"Pirhan","lat":35.1841366,"lon":33.7259042,"type":"village"},{"id":"1104837762","name":"Tuzla","lat":35.1611026,"lon":33.8830887,"type":"village"},{"id":"1104852042","name":"Köprülü","lat":35.1086164,"lon":33.7504572,"type":"village"},{"id":"1104852052","name":"Güvercinlik","lat":35.100633,"lon":33.8614166,"type":"village"},{"id":"1104852059","name":"Çayönü","lat":35.0959841,"lon":33.7945153,"type":"village"},{"id":"1104852062","name":"İncirli","lat":35.0738889,"lon":33.7624405,"type":"village"},{"id":"1123793544","name":"Gayretköy","lat":35.1616976,"lon":33.1060206,"type":"village"},{"id":"1142547046","name":"Çamlıköy","lat":35.1156597,"lon":32.8769913,"type":"village"},{"id":"1161637155","name":"Akıncılar","lat":35.011537,"lon":33.4643102,"type":"village"},{"id":"1190030297","name":"Αξύλου","lat":34.8061045,"lon":32.5646814,"type":"village"},{"id":"1190030382","name":"Αμαργέτη","lat":34.8236254,"lon":32.5832481,"type":"village"},{"id":"1190030422","name":"Πενταλιά","lat":34.8558443,"lon":32.6204468,"type":"village"},{"id":"1191410619","name":"Πυργά","lat":34.9261652,"lon":33.4321092,"type":"village"},{"id":"1213650597","name":"Καμπιά","lat":35.0076349,"lon":33.2566691,"type":"village"},{"id":"1213802673","name":"Κάτω Μονή","lat":35.0607146,"lon":33.092081,"type":"village"},{"id":"1276258948","name":"Alayköy","lat":35.1806595,"lon":33.2533088,"type":"village"},{"id":"1288838940","name":"Mersinlik","lat":35.3965417,"lon":33.8571123,"type":"village"},{"id":"1431928107","name":"Άγιος Γεώργιος","lat":34.8152174,"lon":32.8987457,"type":"village"},{"id":"1431928112","name":"Συλίκου","lat":34.8325216,"lon":32.8893413,"type":"village"},{"id":"1457525456","name":"Yeniboğaziçi","lat":35.1961975,"lon":33.8780416,"type":"village"},{"id":"1469497807","name":"Παραμύθα","lat":34.7595486,"lon":32.9932998,"type":"village"},{"id":"1469591588","name":"Τριμίκλινη","lat":34.8467832,"lon":32.9117657,"type":"village"},{"id":"1484820026","name":"Άγιος Δημήτριος","lat":34.9261189,"lon":32.8097143,"type":"village"},{"id":"1484869463","name":"Κοιλάνι","lat":34.8444858,"lon":32.8598519,"type":"village"},{"id":"1484869468","name":"Ποταμιού","lat":34.8243616,"lon":32.8069588,"type":"village"},{"id":"1621220303","name":"Μαρώνι","lat":34.7565688,"lon":33.3558762,"type":"village"},{"id":"1621220322","name":"Ξυλοτύμβου","lat":35.0181296,"lon":33.74417,"type":"village"},{"id":"1621752518","name":"Ύψωνας","lat":34.6903956,"lon":32.9631519,"type":"town"},{"id":"1621755475","name":"Κάτω Πολεμίδια","lat":34.690548,"lon":33.0034555,"type":"town"},{"id":"1621756875","name":"Πάνω Πολεμίδια","lat":34.7016072,"lon":32.9986708,"type":"village"},{"id":"1625150586","name":"Καλό Χωριό Λάρνακας","lat":34.9284681,"lon":33.5374212,"type":"village"},{"id":"1625160790","name":"Ορόκλινη","lat":34.9822755,"lon":33.6558552,"type":"town"},{"id":"1629971213","name":"Κάτω Δρυς","lat":34.8510676,"lon":33.3045079,"type":"village"},{"id":"1637455036","name":"Ψημολόφου","lat":35.0602179,"lon":33.2597771,"type":"village"},{"id":"1637465419","name":"Ασώματος","lat":34.6376992,"lon":32.9604641,"type":"village"},{"id":"1637467513","name":"Γεροσκήπου","lat":34.7611753,"lon":32.4526968,"type":"town"},{"id":"1637506794","name":"Αθηένου","lat":35.0618614,"lon":33.5404951,"type":"town"},{"id":"1637523760","name":"Πάνω Πλάτρες","lat":34.8886206,"lon":32.8648641,"type":"village"},{"id":"1637869319","name":"Δερύνεια","lat":35.064867,"lon":33.9609128,"type":"town"},{"id":"1637967390","name":"Μοσφιλωτή","lat":34.9530469,"lon":33.4240273,"type":"village"},{"id":"1638971821","name":"Άγιος Αθανάσιος","lat":34.7094757,"lon":33.0507518,"type":"town"},{"id":"1642020200","name":"Κάρβουνα","lat":34.9424578,"lon":32.9302763,"type":"village"},{"id":"1653191441","name":"Φαρμακάς","lat":34.9128289,"lon":33.136079,"type":"village"},{"id":"1653191446","name":"Γουρρι","lat":34.9574557,"lon":33.1585565,"type":"village"},{"id":"1678141504","name":"Κελλιά","lat":34.975592,"lon":33.6227281,"type":"village"},{"id":"1678143439","name":"Αβδελλερό","lat":35.0079121,"lon":33.5702779,"type":"village"},{"id":"1678143440","name":"Τρούλλοι","lat":35.0329827,"lon":33.6158915,"type":"village"},{"id":"1684737279","name":"Tepebaşı","lat":35.306155,"lon":33.0537706,"type":"village"},{"id":"1685716214","name":"Bademliköy","lat":35.1588297,"lon":32.763247,"type":"village"},{"id":"1685716216","name":"Gemikonağı","lat":35.140713,"lon":32.8338857,"type":"village"},{"id":"1685716220","name":"Yedidalga","lat":35.1449071,"lon":32.8012981,"type":"village"},{"id":"1685716221","name":"Yeşilırmak","lat":35.1675235,"lon":32.7394894,"type":"village"},{"id":"1685716222","name":"Yeşilyurt","lat":35.1531147,"lon":32.8844033,"type":"village"},{"id":"1685780618","name":"Ağırdağ","lat":35.2965684,"lon":33.2677231,"type":"village"},{"id":"1706239301","name":"Πεντάκωμο","lat":34.7398781,"lon":33.2412261,"type":"village"},{"id":"1706258907","name":"Μαρί","lat":34.7406697,"lon":33.298627,"type":"village"},{"id":"1867922309","name":"Ποτάμι","lat":35.104428,"lon":33.0298827,"type":"village"},{"id":"1893015330","name":"Λευκωσία - Lefkoşa","lat":35.1746503,"lon":33.3638783,"type":"city"},{"id":"1939509422","name":"Λάρνακα","lat":34.9236095,"lon":33.6236184,"type":"city"},{"id":"1939725647","name":"Πραστειό Αυδήμου","lat":34.7303191,"lon":32.7785352,"type":"village"},{"id":"1965609853","name":"Εργάτες","lat":35.0540476,"lon":33.2430192,"type":"village"},{"id":"1965609858","name":"Πέρα","lat":35.031929,"lon":33.2535955,"type":"village"},{"id":"1979795086","name":"Koruçam","lat":35.3428446,"lon":33.0097099,"type":"village"},{"id":"1996068753","name":"Λύμπια","lat":34.9978686,"lon":33.4626265,"type":"village"},{"id":"2004974597","name":"Αγίοι Τριμιθιάς","lat":35.1145639,"lon":33.2107283,"type":"village"},{"id":"2004974598","name":"Παλαιομέτοχο","lat":35.1247026,"lon":33.1916489,"type":"village"},{"id":"2005282392","name":"Ακάκι","lat":35.1345292,"lon":33.129655,"type":"village"},{"id":"2005524215","name":"Μάμμαρι","lat":35.1755943,"lon":33.2050646,"type":"village"},{"id":"2005564796","name":"Κοκκινοτριμιθιά","lat":35.1542715,"lon":33.1986543,"type":"village"},{"id":"2011086710","name":"Δάλι","lat":35.0225693,"lon":33.4218073,"type":"town"},{"id":"2016928969","name":"Αγγλισίδες","lat":34.8536508,"lon":33.45742,"type":"village"},{"id":"2052006010","name":"Λακατάμεια","lat":35.1200946,"lon":33.3078496,"type":"town"},{"id":"2052006016","name":"Στρόβολος","lat":35.1328993,"lon":33.3454972,"type":"town"},{"id":"2057562429","name":"Λατσιά","lat":35.0995648,"lon":33.3815988,"type":"town"},{"id":"2076700112","name":"Αγία Μαρίνα Χρυσοχούς","lat":35.1203055,"lon":32.5146806,"type":"village"},{"id":"2076704753","name":"Αργάκα","lat":35.0652434,"lon":32.4929344,"type":"village"},{"id":"2078563118","name":"Άλασσα","lat":34.7635333,"lon":32.9274178,"type":"village"},{"id":"2080553185","name":"Sipahi","lat":35.5426055,"lon":34.2245714,"type":"village"},{"id":"2102124003","name":"Κλαυδιά","lat":34.8927149,"lon":33.5150114,"type":"village"},{"id":"2109601903","name":"Νήσου","lat":35.0211386,"lon":33.3892486,"type":"village"},{"id":"2109601904","name":"Πέρα Χωριό","lat":35.0128179,"lon":33.3935699,"type":"village"},{"id":"2109675460","name":"Τσέρι","lat":35.0726972,"lon":33.324669,"type":"town"},{"id":"2266654510","name":"Πελαθούσα","lat":35.0280112,"lon":32.4755601,"type":"village"},{"id":"2520343900","name":"Αναλιόντας","lat":35.0074752,"lon":33.2911678,"type":"village"},{"id":"2521183632","name":"Κάτω Δευτερά","lat":35.0879555,"lon":33.2828625,"type":"village"},{"id":"3220337776","name":"Στενή","lat":34.9970388,"lon":32.4721942,"type":"village"},{"id":"3371877952","name":"Kırıkkale","lat":35.0773102,"lon":33.5840897,"type":"village"},{"id":"3371883097","name":"Dilekkaya","lat":35.1108692,"lon":33.5662154,"type":"village"},{"id":"3544630052","name":"Σουνίου-Ζανατζιάς","lat":34.7349277,"lon":32.8824703,"type":"village"},{"id":"4334316605","name":"Minareliköy","lat":35.2346275,"lon":33.4766108,"type":"village"},{"id":"4335457149","name":"Boğaziçi","lat":35.2693567,"lon":33.8256878,"type":"village"},{"id":"4335457189","name":"Atlılar","lat":35.2100603,"lon":33.8264904,"type":"village"},{"id":"4337271267","name":"Kömürcü","lat":35.292523,"lon":33.2566988,"type":"village"},{"id":"4338167188","name":"Yukarı Dikmen","lat":35.2772582,"lon":33.3223474,"type":"village"},{"id":"4340685458","name":"Cihangir","lat":35.2274826,"lon":33.5134937,"type":"village"},{"id":"4364225740","name":"Düzova","lat":35.2149111,"lon":33.5266241,"type":"village"},{"id":"5041094050","name":"Πάχνα","lat":34.7765856,"lon":32.7929747,"type":"village"},{"id":"5083820224","name":"Καντού","lat":34.6897525,"lon":32.9066357,"type":"village"},{"id":"5085969909","name":"Κυβίδες","lat":34.7574185,"lon":32.8564382,"type":"village"},{"id":"5414897026","name":"Κατύδατα","lat":35.0819799,"lon":32.887752,"type":"village"},{"id":"5417334084","name":"Κακοπετριά","lat":34.9895489,"lon":32.9032403,"type":"village"},{"id":"5613568254","name":"Κορφή","lat":34.795226,"lon":32.9652005,"type":"village"},{"id":"5613568255","name":"Απεσιά","lat":34.7890387,"lon":32.9787002,"type":"village"},{"id":"5613591391","name":"Χανδριά","lat":34.9437396,"lon":32.9942063,"type":"village"},{"id":"5613617489","name":"Άγιος Μάμας","lat":34.8501423,"lon":32.948452,"type":"village"},{"id":"5613635126","name":"Δωρός","lat":34.815221,"lon":32.909086,"type":"village"},{"id":"5613637046","name":"Μονάγρι","lat":34.8093824,"lon":32.9104574,"type":"village"},{"id":"5613669841","name":"Τραχώνι","lat":34.6585518,"lon":32.9608575,"type":"town"},{"id":"5613976234","name":"Βάσα","lat":34.8336757,"lon":32.7917266,"type":"village"},{"id":"5614350943","name":"Πάφος","lat":34.7743988,"lon":32.4231586,"type":"city"},{"id":"5617036163","name":"Λυσός","lat":34.9949067,"lon":32.5120068,"type":"village"},{"id":"5617950399","name":"Κιβισίλι","lat":34.8398759,"lon":33.5050894,"type":"village"},{"id":"5617962778","name":"Αλεθρικό","lat":34.8615027,"lon":33.4942286,"type":"village"},{"id":"5619864945","name":"Αγία Μαρίνα","lat":35.0491643,"lon":33.0576311,"type":"village"},{"id":"5619876572","name":"Ορούντα","lat":35.1014243,"lon":33.0938391,"type":"village"},{"id":"5619880766","name":"Μένοικο","lat":35.1108509,"lon":33.1455587,"type":"village"},{"id":"5621392553","name":"Λυθροδόντας","lat":34.9513523,"lon":33.2980471,"type":"village"},{"id":"5621392554","name":"Καπέδες","lat":34.9760125,"lon":33.2535243,"type":"village"},{"id":"5621417517","name":"Ανάγυια","lat":35.0755572,"lon":33.2489878,"type":"village"},{"id":"5621692665","name":"Ποταμιά","lat":35.0423494,"lon":33.4455637,"type":"village"},{"id":"6029501335","name":"Kantara","lat":35.387272,"lon":33.8984756,"type":"village"},{"id":"6139402128","name":"Yeşiltepe","lat":35.3339021,"lon":33.217005,"type":"village"},{"id":"6521513880","name":"Λόφοι Αφροδίτης","lat":34.6839888,"lon":32.6130111,"type":"village"},{"id":"6564469753","name":"Düzce","lat":35.0553123,"lon":33.7836324,"type":"village"},{"id":"6572625863","name":"Gönyeli","lat":35.216417,"lon":33.3058171,"type":"town"},{"id":"6598779238","name":"Boğazköy","lat":35.2895141,"lon":33.2793908,"type":"village"},{"id":"6615980502","name":"Güzelyurt","lat":35.1993042,"lon":32.9928829,"type":"town"},{"id":"6618800594","name":"Sütlüce","lat":35.253814,"lon":33.6869593,"type":"village"},{"id":"6806956130","name":"Esentepe","lat":35.3394007,"lon":33.5831724,"type":"village"},{"id":"6821429066","name":"Άγιος Ιωάννης Μαλούντας","lat":35.065989,"lon":33.1836112,"type":"village"},{"id":"6845686726","name":"Kanlıköy","lat":35.2221797,"lon":33.2615141,"type":"village"},{"id":"6845699442","name":"Karaağaç","lat":35.3193306,"lon":33.5559197,"type":"village"},{"id":"6845755519","name":"Bahçeli","lat":35.3383116,"lon":33.6302703,"type":"village"},{"id":"6852836531","name":"Sandallar","lat":35.2120574,"lon":33.7991837,"type":"village"},{"id":"6852836532","name":"Muratağa","lat":35.2105353,"lon":33.7764211,"type":"village"},{"id":"6852853342","name":"Çukurova","lat":35.2245314,"lon":33.5557493,"type":"village"},{"id":"6852885470","name":"Karpaşa","lat":35.297798,"lon":33.0704157,"type":"village"},{"id":"6856262836","name":"Beşparmak","lat":35.3083895,"lon":33.4686864,"type":"village"},{"id":"6859197330","name":"Zeytinlik","lat":35.3331826,"lon":33.2914856,"type":"village"},{"id":"6859217178","name":"Karaoğlanoğlu","lat":35.3424212,"lon":33.2716623,"type":"village"},{"id":"6872495497","name":"Δορά","lat":34.7806411,"lon":32.7381299,"type":"village"},{"id":"6876003510","name":"Άγιοι Κωνσταντινος και Ελενης","lat":35.0704075,"lon":33.3917078,"type":"village"},{"id":"6899043705","name":"Boğaztepe","lat":35.320503,"lon":33.9455111,"type":"village"},{"id":"6899069668","name":"Beyköy","lat":35.2365979,"lon":33.5010085,"type":"village"},{"id":"6899075918","name":"Gökhan","lat":35.2313682,"lon":33.4955565,"type":"village"},{"id":"6899079320","name":"Bahçeler","lat":35.2863782,"lon":33.9125832,"type":"village"},{"id":"7233012007","name":"Αγία Θέκλα","lat":34.9804935,"lon":33.9275406,"type":"village"},{"id":"7275623402","name":"Arıdamı","lat":35.3203526,"lon":33.7104416,"type":"village"},{"id":"8218159759","name":"Κάππαρης","lat":35.0542724,"lon":34.0087699,"type":"village"},{"id":"8246071721","name":"Episkopi Cantonment","lat":34.6764955,"lon":32.8370213,"type":"village"},{"id":"8256260116","name":"Πάνω Δευτερά","lat":35.0804995,"lon":33.2692635,"type":"village"},{"id":"9499429924","name":"Τερσεφάνου","lat":34.8542663,"lon":33.5481056,"type":"village"},{"id":"9856187221","name":"Electrical Authority of Cyprus Refugee Settlement","lat":34.9839276,"lon":33.7448023,"type":"village"},{"id":"10248185788","name":"Θελέτρα","lat":34.9121679,"lon":32.4472614,"type":"village"},{"id":"10820154751","name":"Kalkanlı","lat":35.2463559,"lon":33.0371325,"type":"village"},{"id":"11691620562","name":"Dikmen","lat":35.2687477,"lon":33.3235946,"type":"town"},{"id":"11691620564","name":"Denizli","lat":35.1429608,"lon":32.8088418,"type":"village"},{"id":"12301626909","name":"Συνοικισμός Ανθούπολης","lat":35.1041099,"lon":33.2907957,"type":"village"},{"id":"13371274329","name":"Dhekelia","lat":34.9914983,"lon":33.7325045,"type":"village"}]