[{"id":"240266371","name":"Pointe Michel","lat":15.2604939,"lon":-61.376678,"type":"town"},{"id":"240267620","name":"Loubiere","lat":15.275216,"lon":-61.373425,"type":"village"},{"id":"242414018","name":"Bellevue Chopin","lat":15.2659927,"lon":-61.3470927,"type":"village"},{"id":"242414039","name":"Pichelin","lat":15.2642236,"lon":-61.3260009,"type":"village"},{"id":"242414054","name":"Canefield","lat":15.3380393,"lon":-61.3886297,"type":"town"},{"id":"242414055","name":"Massacre","lat":15.3475066,"lon":-61.3917472,"type":"village"},{"id":"242414057","name":"Mahaut","lat":15.3633066,"lon":-61.3974541,"type":"town"},{"id":"242414058","name":"Scotts Head","lat":15.212357,"lon":-61.3676566,"type":"village"},{"id":"242414059","name":"Galion","lat":15.2236703,"lon":-61.3576058,"type":"village"},{"id":"242414184","name":"Soufriere","lat":15.2331529,"lon":-61.3603695,"type":"village"},{"id":"242414515","name":"Berekua","lat":15.239927,"lon":-61.3153342,"type":"town"},{"id":"242414521","name":"Tête Morne","lat":15.2352476,"lon":-61.3334485,"type":"village"},{"id":"245509269","name":"Fond St. Jean","lat":15.2444336,"lon":-61.2814673,"type":"village"},{"id":"245509376","name":"Salisbury","lat":15.4365938,"lon":-61.4363057,"type":"village"},{"id":"245509606","name":"Vieille Case","lat":15.6143053,"lon":-61.4046943,"type":"village"},{"id":"245509766","name":"Marigot","lat":15.5364632,"lon":-61.2793643,"type":"village"},{"id":"245916285","name":"Wesley","lat":15.5637551,"lon":-61.3107321,"type":"village"},{"id":"245923070","name":"Woodford Hill","lat":15.5796674,"lon":-61.3311087,"type":"village"},{"id":"245923104","name":"Calibishie","lat":15.5925836,"lon":-61.3493294,"type":"village"},{"id":"245923187","name":"Thibaud","lat":15.5998689,"lon":-61.397605,"type":"village"},{"id":"245923286","name":"Saint Joseph","lat":15.4063155,"lon":-61.4239093,"type":"town"},{"id":"245923388","name":"Layou","lat":15.3972216,"lon":-61.4251937,"type":"village"},{"id":"245923409","name":"Jimmit","lat":15.3718606,"lon":-61.4027037,"type":"village"},{"id":"245923661","name":"Morne Prosper","lat":15.3115664,"lon":-61.3452484,"type":"village"},{"id":"245923882","name":"Trafalgar","lat":15.323694,"lon":-61.3467932,"type":"village"},{"id":"245923982","name":"Castle Comfort","lat":15.2840561,"lon":-61.3704916,"type":"village"},{"id":"245925854","name":"Bagatelle","lat":15.2477819,"lon":-61.2847355,"type":"village"},{"id":"245925891","name":"Delices","lat":15.2876922,"lon":-61.2641361,"type":"village"},{"id":"245925926","name":"La Plaine","lat":15.3287537,"lon":-61.2463692,"type":"village"},{"id":"245926011","name":"Castle Bruce","lat":15.4421277,"lon":-61.2571838,"type":"village"},{"id":"246183994","name":"Dubuc","lat":15.2466506,"lon":-61.3037615,"type":"village"},{"id":"246184557","name":"Stowe","lat":15.2465429,"lon":-61.2941914,"type":"village"},{"id":"246573529","name":"Petite Savanne","lat":15.2544166,"lon":-61.2681718,"type":"village"},{"id":"246573560","name":"Boetica","lat":15.3083235,"lon":-61.2510772,"type":"village"},{"id":"246573563","name":"Grand Fond","lat":15.361975,"lon":-61.2740309,"type":"village"},{"id":"246573565","name":"Rosalie","lat":15.3739552,"lon":-61.2540098,"type":"village"},{"id":"246573670","name":"Petite Soufriere","lat":15.3910029,"lon":-61.2562414,"type":"village"},{"id":"246573732","name":"Good Hope","lat":15.412352,"lon":-61.2541814,"type":"village"},{"id":"246573733","name":"Atkinson","lat":15.5154255,"lon":-61.2658544,"type":"village"},{"id":"246579112","name":"Colihaut","lat":15.4854849,"lon":-61.4624925,"type":"town"},{"id":"246579126","name":"Coulibistrie","lat":15.4602139,"lon":-61.45112,"type":"village"},{"id":"246579127","name":"Morne Rachette","lat":15.4566567,"lon":-61.4473863,"type":"village"},{"id":"246579132","name":"Bioche","lat":15.5091813,"lon":-61.466827,"type":"village"},{"id":"246579136","name":"Dublanc","lat":15.5148466,"lon":-61.4691444,"type":"village"},{"id":"246579154","name":"Capuchin","lat":15.6308335,"lon":-61.461403,"type":"village"},{"id":"246579156","name":"Tanetane","lat":15.5979016,"lon":-61.4606081,"type":"village"},{"id":"246579157","name":"Toucari","lat":15.6098092,"lon":-61.4637371,"type":"village"},{"id":"246579159","name":"Cottage","lat":15.6157465,"lon":-61.4635536,"type":"village"},{"id":"246579160","name":"Clifton","lat":15.6239175,"lon":-61.4636512,"type":"village"},{"id":"246579188","name":"Penville","lat":15.629787,"lon":-61.4193642,"type":"village"},{"id":"246579189","name":"Paix Bouche","lat":15.5926347,"lon":-61.4108499,"type":"village"},{"id":"246579190","name":"Dos D'Ane","lat":15.5857936,"lon":-61.413097,"type":"village"},{"id":"246579192","name":"La Source","lat":15.5887285,"lon":-61.4070459,"type":"village"},{"id":"246579245","name":"Borne","lat":15.5795102,"lon":-61.4212509,"type":"village"},{"id":"246579247","name":"Anse du Mé","lat":15.5935205,"lon":-61.3828026,"type":"village"},{"id":"246579248","name":"Bense","lat":15.5887285,"lon":-61.3753744,"type":"village"},{"id":"246770630","name":"Belles","lat":15.4232766,"lon":-61.3393098,"type":"village"},{"id":"293071425","name":"Morne a Louis","lat":15.6069188,"lon":-61.4634762,"type":"village"},{"id":"1471114533","name":"Sineku","lat":15.4677192,"lon":-61.2491649,"type":"village"},{"id":"1471115457","name":"Salybia","lat":15.4927724,"lon":-61.2570255,"type":"village"},{"id":"1471138024","name":"Bataka","lat":15.5061723,"lon":-61.2650936,"type":"village"},{"id":"1475021424","name":"Mero","lat":15.418949,"lon":-61.4287183,"type":"village"},{"id":"1479554529","name":"Morne Jaune","lat":15.3532124,"lon":-61.2634419,"type":"village"},{"id":"1557855026","name":"Giraudel","lat":15.2905511,"lon":-61.3487627,"type":"village"},{"id":"1557855685","name":"Eggleston","lat":15.2974227,"lon":-61.3568522,"type":"village"},{"id":"1562363352","name":"Laudat","lat":15.335229,"lon":-61.3330422,"type":"village"},{"id":"1562363356","name":"Cochrane","lat":15.3380169,"lon":-61.35984,"type":"village"},{"id":"1566779324","name":"Warner","lat":15.3915262,"lon":-61.3943203,"type":"village"},{"id":"1566779346","name":"Riviere Ciriques","lat":15.3669473,"lon":-61.2566049,"type":"village"},{"id":"1566779471","name":"Saint Sauveur","lat":15.4035663,"lon":-61.2542017,"type":"village"},{"id":"1566779601","name":"Campbell","lat":15.3743079,"lon":-61.3737262,"type":"village"},{"id":"1591355965","name":"Check Hall","lat":15.3452232,"lon":-61.3916317,"type":"village"},{"id":"1597316627","name":"Fond Cani","lat":15.3170661,"lon":-61.3576015,"type":"village"},{"id":"1832723691","name":"Wallhouse","lat":15.2818416,"lon":-61.370728,"type":"village"},{"id":"1834890746","name":"Tarreau","lat":15.3886885,"lon":-61.4153411,"type":"village"},{"id":"1956919272","name":"Cocoyer","lat":15.6209204,"lon":-61.4599081,"type":"village"},{"id":"2080157399","name":"Savane Paille","lat":15.6040896,"lon":-61.4623646,"type":"village"},{"id":"2121948236","name":"Pont Cassé","lat":15.3689215,"lon":-61.3524809,"type":"village"},{"id":"4950552057","name":"Roseau","lat":15.2991923,"lon":-61.3872868,"type":"town"},{"id":"5486352294","name":"Portsmouth","lat":15.575915,"lon":-61.455588,"type":"town"}]