[{"id":"242715809","name":"Matei","lat":-16.6934156,"lon":-179.8799501,"type":"town"},{"id":"258304775","name":"Lami","lat":-18.1132946,"lon":178.4067448,"type":"town"},{"id":"258304871","name":"Suvavou Village","lat":-18.1144373,"lon":178.4144206,"type":"village"},{"id":"259289305","name":"Lautoka","lat":-17.6046057,"lon":177.4482766,"type":"city"},{"id":"259291996","name":"Sigatoka","lat":-18.1381611,"lon":177.5077794,"type":"town"},{"id":"259294349","name":"Nausori","lat":-18.0287189,"lon":178.5289994,"type":"town"},{"id":"259294380","name":"Nasinu","lat":-18.0964402,"lon":178.4807568,"type":"town"},{"id":"262906892","name":"Levuka","lat":-17.6806903,"lon":178.8333993,"type":"town"},{"id":"262910069","name":"Ba","lat":-17.5457103,"lon":177.6840732,"type":"town"},{"id":"262910133","name":"Navua","lat":-18.2265812,"lon":178.1644067,"type":"town"},{"id":"268007467","name":"Vanuadina","lat":-18.0799928,"lon":178.5893392,"type":"village"},{"id":"268382272","name":"Labasa","lat":-16.4332753,"lon":179.3664854,"type":"town"},{"id":"341419436","name":"Vitogo Village","lat":-17.5921137,"lon":177.4952695,"type":"village"},{"id":"341419453","name":"Matawalu","lat":-17.564444,"lon":177.515556,"type":"village"},{"id":"341419461","name":"Natawarau Village","lat":-17.511667,"lon":177.555556,"type":"village"},{"id":"511971991","name":"Savusavu","lat":-16.7802184,"lon":179.3328955,"type":"town"},{"id":"524806327","name":"Nukumbalavu Village","lat":-16.814181,"lon":179.3149965,"type":"village"},{"id":"539909034","name":"Vuadomo","lat":-16.7121666,"lon":179.3088698,"type":"village"},{"id":"603456976","name":"Jerusalami Village","lat":-16.7351228,"lon":179.3618425,"type":"village"},{"id":"603458810","name":"Nagigi Village","lat":-16.7999605,"lon":179.479715,"type":"village"},{"id":"603459085","name":"Yaroi Village","lat":-16.7776126,"lon":179.3441376,"type":"village"},{"id":"603460063","name":"Lavukalili","lat":-16.7844929,"lon":179.5984716,"type":"village"},{"id":"603461605","name":"Urata Village","lat":-16.7288711,"lon":179.3386014,"type":"village"},{"id":"701582674","name":"Rakiraki","lat":-17.3780743,"lon":178.1531001,"type":"town"},{"id":"858168293","name":"Yasawairara","lat":-16.7050986,"lon":177.5783069,"type":"village"},{"id":"1144970711","name":"Navuniivi","lat":-17.4580514,"lon":178.2620945,"type":"village"},{"id":"1145350475","name":"Verevere","lat":-17.5481772,"lon":178.3770649,"type":"village"},{"id":"1145350476","name":"Namarai","lat":-17.5216785,"lon":178.3653103,"type":"village"},{"id":"1313508151","name":"Denimanu","lat":-16.804758,"lon":178.3213215,"type":"village"},{"id":"1557655182","name":"Vuinaqalutu Village","lat":-16.6384545,"lon":178.9791297,"type":"village"},{"id":"1557664929","name":"Namatadogo Settlement","lat":-16.6245919,"lon":178.9834158,"type":"village"},{"id":"1557665065","name":"Nadrano Settlement","lat":-16.6429621,"lon":178.9910065,"type":"village"},{"id":"1557690109","name":"Natoaika Village","lat":-17.950505,"lon":178.4538083,"type":"village"},{"id":"1557690718","name":"Deladamanu Village","lat":-17.9468408,"lon":178.4525852,"type":"village"},{"id":"1557696023","name":"Sawakasa Vou Village","lat":-17.7669314,"lon":178.5318713,"type":"village"},{"id":"1557696801","name":"Burerua Village","lat":-17.7670233,"lon":178.5332124,"type":"village"},{"id":"1747350047","name":"Nadi","lat":-17.7992725,"lon":177.4178549,"type":"city"},{"id":"1833040861","name":"Nalebaleba","lat":-17.9537096,"lon":177.6720564,"type":"village"},{"id":"1833055165","name":"Nasaucoko Village","lat":-17.8735452,"lon":177.6958586,"type":"village"},{"id":"1833089740","name":"Wauosi Village","lat":-17.8407704,"lon":177.7138989,"type":"village"},{"id":"1833123183","name":"Tonuve","lat":-17.9639558,"lon":177.7139904,"type":"village"},{"id":"1833123283","name":"Tuvu","lat":-17.9496882,"lon":177.7009706,"type":"village"},{"id":"1833123348","name":"Bemana","lat":-17.9540941,"lon":177.7029319,"type":"village"},{"id":"1833188497","name":"Sovi Settlement","lat":-18.0733996,"lon":177.6222534,"type":"village"},{"id":"1833232593","name":"Vatukarasa","lat":-18.182571,"lon":177.6049598,"type":"village"},{"id":"1837678185","name":"Nabouwalu","lat":-16.9951685,"lon":178.6890703,"type":"town"},{"id":"1839701352","name":"Douma","lat":-16.878094,"lon":178.6724866,"type":"village"},{"id":"1840748650","name":"Nakorotiki","lat":-16.8593366,"lon":178.8860241,"type":"village"},{"id":"1841419307","name":"Bua","lat":-16.7979838,"lon":178.6152813,"type":"village"},{"id":"1844827444","name":"Lovoni","lat":-17.6891301,"lon":178.7918753,"type":"town"},{"id":"1844827530","name":"Rukuruku","lat":-17.6425056,"lon":178.7559892,"type":"town"},{"id":"1844854115","name":"Taviya","lat":-17.6290747,"lon":178.7675883,"type":"village"},{"id":"1844854119","name":"Viro","lat":-17.6669413,"lon":178.7426558,"type":"village"},{"id":"1844855110","name":"Naicabecabe","lat":-17.7682911,"lon":178.7659691,"type":"village"},{"id":"1844858261","name":"Uluibau","lat":-17.7858094,"lon":178.7616966,"type":"village"},{"id":"1844858262","name":"Nasesara","lat":-17.755975,"lon":178.7490387,"type":"village"},{"id":"1844858264","name":"Nasauvuki","lat":-17.7652117,"lon":178.7567184,"type":"village"},{"id":"1844858265","name":"Daku","lat":-17.777854,"lon":178.7720307,"type":"village"},{"id":"1844863819","name":"Naigani Village","lat":-17.5842459,"lon":178.6709751,"type":"village"},{"id":"1846651695","name":"Vatoa","lat":-19.8222475,"lon":-178.2510868,"type":"village"},{"id":"1846723965","name":"Matukana","lat":-20.663665,"lon":-178.7454536,"type":"village"},{"id":"1846723976","name":"Lovoni","lat":-20.6606215,"lon":-178.720732,"type":"village"},{"id":"1846723983","name":"Doi","lat":-20.6355513,"lon":-178.7222979,"type":"village"},{"id":"1846763523","name":"Tovu","lat":-18.9570462,"lon":-179.8201538,"type":"village"},{"id":"1846809750","name":"Qalikarua","lat":-19.168332,"lon":179.7845206,"type":"village"},{"id":"1846809756","name":"Levukaidaku","lat":-19.1899339,"lon":179.7618956,"type":"village"},{"id":"1846809762","name":"Makadru","lat":-19.1727342,"lon":179.7353601,"type":"village"},{"id":"1846809765","name":"Yaroi","lat":-19.1320079,"lon":179.7415931,"type":"village"},{"id":"1846809766","name":"Lomati","lat":-19.1640953,"lon":179.754056,"type":"village"},{"id":"1846809769","name":"Natokalau","lat":-19.119646,"lon":179.7620535,"type":"village"},{"id":"1846851904","name":"Tubou","lat":-18.2365527,"lon":-178.8105369,"type":"town"},{"id":"1846855244","name":"Waciwaci","lat":-18.2404155,"lon":-178.7838938,"type":"village"},{"id":"1846855245","name":"Nasaqalau","lat":-18.1786233,"lon":-178.8092217,"type":"village"},{"id":"1846855246","name":"Vakano","lat":-18.1795885,"lon":-178.7924869,"type":"village"},{"id":"1846855247","name":"Nukunuku","lat":-18.2021208,"lon":-178.750682,"type":"village"},{"id":"1846855248","name":"Yadrana","lat":-18.1903746,"lon":-178.774273,"type":"village"},{"id":"1846855249","name":"Waitabu","lat":-18.2355357,"lon":-178.7729153,"type":"village"},{"id":"1846885646","name":"Tarakau","lat":-17.7249665,"lon":-179.3288406,"type":"village"},{"id":"1846885674","name":"Mabula","lat":-17.769113,"lon":-179.3273471,"type":"village"},{"id":"1846885680","name":"Lomati","lat":-17.7317112,"lon":-179.2932209,"type":"village"},{"id":"1849541438","name":"Namuka Village","lat":-17.9785903,"lon":178.595414,"type":"village"},{"id":"1849541480","name":"Bau","lat":-17.9723087,"lon":178.6154911,"type":"village"},{"id":"1852225724","name":"Dravuni","lat":-17.9119814,"lon":178.57729,"type":"village"},{"id":"1852378542","name":"Lawaki","lat":-17.6494207,"lon":178.5776832,"type":"village"},{"id":"1852605676","name":"Nakorovatu","lat":-17.8279152,"lon":178.3240312,"type":"village"},{"id":"1852655223","name":"Namatakula","lat":-18.2291883,"lon":177.7837773,"type":"village"},{"id":"1853590027","name":"Nambukelevu Village","lat":-18.1286311,"lon":177.8660569,"type":"village"},{"id":"1853599929","name":"Vunaniu","lat":-18.2490363,"lon":177.8642458,"type":"village"},{"id":"1853599956","name":"Balenabelo","lat":-18.1637796,"lon":177.6214764,"type":"village"},{"id":"1853683905","name":"Saru (Naivibuli) Village","lat":-18.1254094,"lon":177.6454974,"type":"village"},{"id":"1853707032","name":"Naboutini","lat":-18.2370542,"lon":177.8238181,"type":"village"},{"id":"1853726712","name":"Veivatuloa","lat":-18.1974303,"lon":178.215276,"type":"village"},{"id":"1853726718","name":"Wainiyabia Village","lat":-18.2621808,"lon":178.0331566,"type":"village"},{"id":"1853727408","name":"Namelimeli","lat":-18.1737011,"lon":178.2423555,"type":"village"},{"id":"1853727409","name":"Mau","lat":-18.1838266,"lon":178.2338175,"type":"village"},{"id":"1853945231","name":"Viani","lat":-16.7422284,"lon":179.5807813,"type":"village"},{"id":"1854263251","name":"Nawi","lat":-16.6981272,"lon":179.8734477,"type":"village"},{"id":"1854284520","name":"Buca","lat":-16.6519191,"lon":179.8431495,"type":"village"},{"id":"1858825508","name":"Vunidogoloa (old village)","lat":-16.6699275,"lon":179.5028894,"type":"village"},{"id":"1858825660","name":"Tabia Village","lat":-16.6687764,"lon":179.4868498,"type":"village"},{"id":"1863054513","name":"Lagi","lat":-16.2427459,"lon":179.8379615,"type":"village"},{"id":"1882538885","name":"Naceva","lat":-17.7727021,"lon":-179.2942029,"type":"village"},{"id":"1882538904","name":"Tokalau","lat":-17.7421883,"lon":-179.2811206,"type":"village"},{"id":"1934470071","name":"Tavua Town","lat":-17.4415042,"lon":177.8635733,"type":"town"},{"id":"1988167529","name":"Yamata","lat":-17.3254688,"lon":177.1349508,"type":"village"},{"id":"1988167543","name":"Nabukeru","lat":-16.8418224,"lon":177.4675454,"type":"village"},{"id":"1988167545","name":"Somosomo","lat":-17.1020869,"lon":177.2609616,"type":"village"},{"id":"1988167547","name":"Nacula","lat":-16.8919376,"lon":177.3979474,"type":"village"},{"id":"1988920999","name":"Wairiki","lat":-16.8048744,"lon":179.990617,"type":"village"},{"id":"2067995636","name":"Pacific Harbour","lat":-18.238151,"lon":178.0763283,"type":"village"},{"id":"2102312958","name":"Dravuni Village","lat":-18.7576869,"lon":178.5232765,"type":"village"},{"id":"2102313177","name":"Narikoso Village","lat":-18.9174115,"lon":178.5069594,"type":"village"},{"id":"2115184958","name":"Tamavua Village","lat":-18.1002348,"lon":178.4425968,"type":"village"},{"id":"2207194788","name":"Nawaisomo","lat":-18.3601346,"lon":178.1311995,"type":"village"},{"id":"2207194798","name":"Dakuni","lat":-18.4027911,"lon":178.1457588,"type":"village"},{"id":"2289652909","name":"Suva","lat":-18.1415884,"lon":178.4421662,"type":"city"},{"id":"2298248827","name":"Naqali Village","lat":-17.9543728,"lon":178.3826182,"type":"village"},{"id":"2398937723","name":"Draiba","lat":-17.868873,"lon":177.7691134,"type":"village"},{"id":"2398940514","name":"Nanoko Village","lat":-17.7566454,"lon":177.842151,"type":"village"},{"id":"2398940520","name":"Keiyasi","lat":-17.8859107,"lon":177.7518682,"type":"village"},{"id":"2466117731","name":"Lekutu","lat":-16.6690162,"lon":178.7193852,"type":"village"},{"id":"2466117732","name":"Naduri","lat":-16.4436158,"lon":179.1462116,"type":"town"},{"id":"2483381625","name":"Natuvu","lat":-16.7447429,"lon":179.1531649,"type":"village"},{"id":"2486753698","name":"Dreketi","lat":-16.696038,"lon":179.2580851,"type":"village"},{"id":"2489467774","name":"Navuti","lat":-17.7628585,"lon":178.7560945,"type":"village"},{"id":"2491314282","name":"Nasaga","lat":-17.7097389,"lon":178.7653449,"type":"town"},{"id":"2491314284","name":"Toki","lat":-17.6472199,"lon":178.8229118,"type":"village"},{"id":"2491314285","name":"Vatukalo","lat":-17.6428357,"lon":178.8209049,"type":"village"},{"id":"2491314286","name":"Yaravudi","lat":-17.6232608,"lon":178.7746655,"type":"village"},{"id":"2491314398","name":"Navuloa","lat":-17.7019391,"lon":178.7619351,"type":"village"},{"id":"2493507799","name":"Nathamaki","lat":-17.244947,"lon":179.4298658,"type":"village"},{"id":"2493507884","name":"Vatulele","lat":-17.2488587,"lon":179.3944274,"type":"village"},{"id":"2493507928","name":"Nabuna","lat":-17.250473,"lon":179.3838636,"type":"village"},{"id":"2493508735","name":"Nabasovi","lat":-17.2888685,"lon":179.3620764,"type":"village"},{"id":"2493508822","name":"Tuatua","lat":-17.2936608,"lon":179.4382658,"type":"village"},{"id":"2493508875","name":"Tavua","lat":-17.2960847,"lon":179.3629551,"type":"village"},{"id":"2493509086","name":"Navaga","lat":-17.3063788,"lon":179.3668194,"type":"village"},{"id":"2493509173","name":"Nasau","lat":-17.3076881,"lon":179.4384815,"type":"village"},{"id":"2493509477","name":"Naqaidamu","lat":-17.3212969,"lon":179.4345862,"type":"village"},{"id":"2493509771","name":"Sinuvaca","lat":-17.3340123,"lon":179.4329644,"type":"village"},{"id":"2493510224","name":"Namacu","lat":-17.3512264,"lon":179.4240724,"type":"village"},{"id":"2493510322","name":"Kade","lat":-17.3555192,"lon":179.3769086,"type":"village"},{"id":"2493510516","name":"Nakodu","lat":-17.3698166,"lon":179.4172524,"type":"village"},{"id":"2493510694","name":"Mudu","lat":-17.3768898,"lon":179.4094648,"type":"village"},{"id":"2497651621","name":"Tovulailai","lat":-17.8099552,"lon":179.3991447,"type":"village"},{"id":"2501083504","name":"Lomaviti village","lat":-17.9862085,"lon":179.3292243,"type":"village"},{"id":"2501083865","name":"Malawai","lat":-18.002874,"lon":179.3399772,"type":"village"},{"id":"2501083974","name":"Lamiti","lat":-18.0089507,"lon":179.3419506,"type":"village"},{"id":"2501084098","name":"Nawaikama","lat":-18.0219628,"lon":179.2656558,"type":"village"},{"id":"2501694966","name":"Somosomo","lat":-18.011255,"lon":179.2409467,"type":"village"},{"id":"2501695017","name":"Nukuloa","lat":-18.0540498,"lon":179.3002489,"type":"village"},{"id":"2501695058","name":"Nukuloa","lat":-18.0628543,"lon":179.3071343,"type":"village"},{"id":"2501695090","name":"Lovo","lat":-18.1135065,"lon":179.3268349,"type":"village"},{"id":"2504205524","name":"Vione","lat":-17.9413618,"lon":179.2937573,"type":"village"},{"id":"2504205553","name":"Qarani","lat":-17.9466672,"lon":179.2704206,"type":"village"},{"id":"2504205659","name":"Navukailagi","lat":-17.9572615,"lon":179.2602588,"type":"village"},{"id":"2504205758","name":"Vanuaso","lat":-17.9669121,"lon":179.3131135,"type":"village"},{"id":"2504205911","name":"Sawaieke","lat":-17.9869718,"lon":179.2526517,"type":"village"},{"id":"2505079833","name":"Nuku","lat":-18.5920832,"lon":179.8289766,"type":"village"},{"id":"2505079860","name":"Vadra","lat":-18.6026999,"lon":179.8349667,"type":"village"},{"id":"2517100898","name":"Dakuibeqa","lat":-18.4101668,"lon":178.1325197,"type":"village"},{"id":"2619440374","name":"Namuka","lat":-18.8514485,"lon":-178.6345397,"type":"village"},{"id":"2619440502","name":"Udu","lat":-18.9859644,"lon":-178.9441987,"type":"village"},{"id":"2641005677","name":"Dakuiloa","lat":-18.4407212,"lon":-178.4686672,"type":"village"},{"id":"2641005729","name":"Waiqori","lat":-18.4453966,"lon":-178.4877496,"type":"village"},{"id":"2668575846","name":"Tuvuca","lat":-17.6856027,"lon":-178.8233576,"type":"village"},{"id":"2689829327","name":"Ketei","lat":-18.9519241,"lon":-179.8196932,"type":"village"},{"id":"2691297478","name":"Kese","lat":-17.1290456,"lon":177.2404684,"type":"village"},{"id":"2691297482","name":"Muaira","lat":-17.132396,"lon":177.238705,"type":"village"},{"id":"2691297491","name":"Soso","lat":-17.1276441,"lon":177.2233358,"type":"village"},{"id":"2827376540","name":"Baidamudamu","lat":-19.0858662,"lon":178.1083752,"type":"village"},{"id":"2827377208","name":"Kabariki Village","lat":-19.1434281,"lon":178.0288392,"type":"village"},{"id":"2827377598","name":"Nasegai","lat":-19.1506332,"lon":178.074658,"type":"village"},{"id":"2844494600","name":"Narocivo","lat":-17.9645647,"lon":-179.042257,"type":"village"},{"id":"2844495744","name":"Salia","lat":-17.9800911,"lon":-179.0323372,"type":"village"},{"id":"2844495806","name":"Liku","lat":-17.9886963,"lon":-179.0642446,"type":"village"},{"id":"3113633535","name":"Solotavui","lat":-18.978875,"lon":178.4243229,"type":"village"},{"id":"3113633536","name":"Wainikaculoa","lat":-18.9776464,"lon":178.4299055,"type":"village"},{"id":"3113633537","name":"Nukutubu settlement","lat":-18.9837844,"lon":178.4342345,"type":"village"},{"id":"3113633538","name":"Naleca","lat":-18.9704149,"lon":178.4281927,"type":"village"},{"id":"3113633541","name":"Levuka","lat":-18.937518,"lon":178.3539291,"type":"village"},{"id":"3113633542","name":"Naioti","lat":-18.9386272,"lon":178.3438161,"type":"village"},{"id":"3113633543","name":"Rakiraki","lat":-18.9387865,"lon":178.3364732,"type":"village"},{"id":"3113633544","name":"Nauciwai","lat":-18.9529272,"lon":178.3063708,"type":"village"},{"id":"3113633545","name":"Gasele","lat":-18.9531256,"lon":178.3026933,"type":"village"},{"id":"3113633546","name":"Waiyavulailai","lat":-18.9479093,"lon":178.4009924,"type":"village"},{"id":"3113633558","name":"Naivakarauniniu","lat":-18.9666256,"lon":178.2550176,"type":"village"},{"id":"3113633559","name":"Vunisei","lat":-18.981681,"lon":178.2756051,"type":"village"},{"id":"3113633560","name":"Dravuwalu","lat":-18.9979382,"lon":178.2964808,"type":"village"},{"id":"3113633561","name":"Vukavu Village","lat":-19.0217354,"lon":178.3256525,"type":"village"},{"id":"3113633562","name":"Jioma","lat":-19.0247478,"lon":178.3378619,"type":"village"},{"id":"3283486685","name":"Viria Village","lat":-17.9170443,"lon":178.4064683,"type":"village"},{"id":"3613464126","name":"Rukurukulevu","lat":-18.1377203,"lon":177.4241282,"type":"village"},{"id":"3613464127","name":"Voua","lat":-18.1311945,"lon":177.4223875,"type":"village"},{"id":"3810402721","name":"Mualevu","lat":-17.2414237,"lon":-178.9375861,"type":"village"},{"id":"3810408726","name":"Lomaloma","lat":-17.2902186,"lon":-178.9872807,"type":"village"},{"id":"4020977566","name":"Namuaimada","lat":-17.4054801,"lon":178.2560899,"type":"village"},{"id":"4021259481","name":"Natunuku","lat":-17.4527156,"lon":177.7423867,"type":"village"},{"id":"4028015941","name":"Levukana","lat":-17.2682223,"lon":-178.9735503,"type":"village"},{"id":"4028015942","name":"Mavana","lat":-17.2126343,"lon":-178.9321825,"type":"village"},{"id":"4028015943","name":"Daliconi","lat":-17.2221343,"lon":-178.9629484,"type":"village"},{"id":"4028015945","name":"Uruone","lat":-17.2766031,"lon":-178.9795993,"type":"village"},{"id":"4028765991","name":"Muamua","lat":-17.2485022,"lon":-178.9780593,"type":"village"},{"id":"4030014172","name":"Navolau","lat":-17.3783158,"lon":178.2471443,"type":"village"},{"id":"4059627102","name":"Nabukadra","lat":-17.5431144,"lon":178.3919567,"type":"village"},{"id":"4059627103","name":"Naocobau","lat":-17.5137038,"lon":178.3564791,"type":"village"},{"id":"4059627104","name":"Nayavutoka","lat":-17.545654,"lon":178.4003654,"type":"village"},{"id":"4078831754","name":"Nanukuloa","lat":-17.4533179,"lon":178.2294524,"type":"village"},{"id":"4078849749","name":"Naiserelagi","lat":-17.4573875,"lon":178.2270679,"type":"village"},{"id":"4078849750","name":"Nanokonoko","lat":-17.4123187,"lon":178.2160333,"type":"village"},{"id":"4079902607","name":"Nakorokula","lat":-17.3529233,"lon":178.2290931,"type":"village"},{"id":"4079902608","name":"Narewa","lat":-17.3722705,"lon":178.1006327,"type":"village"},{"id":"4079902609","name":"Navuavuni","lat":-17.3753423,"lon":178.0908051,"type":"village"},{"id":"4079902610","name":"Rewasa","lat":-17.3960244,"lon":178.1803265,"type":"village"},{"id":"4079902611","name":"Vitawa","lat":-17.3717227,"lon":178.1117746,"type":"village"},{"id":"4092471195","name":"Votua","lat":-17.4902881,"lon":177.6652333,"type":"village"},{"id":"4092509320","name":"Korovou","lat":-17.4427351,"lon":177.8934477,"type":"village"},{"id":"4099541376","name":"Namosau","lat":-17.5343056,"lon":177.671106,"type":"village"},{"id":"4099628379","name":"Nasolo","lat":-17.5631011,"lon":177.6771711,"type":"village"},{"id":"4106611527","name":"Semo","lat":-18.0824336,"lon":177.3746781,"type":"village"},{"id":"4107805210","name":"Nabau","lat":-18.0789247,"lon":177.3757115,"type":"village"},{"id":"4226187126","name":"Malevu","lat":-17.1253996,"lon":177.2483313,"type":"village"},{"id":"4226187127","name":"Yawesa","lat":-17.1153331,"lon":177.2606664,"type":"village"},{"id":"4226187216","name":"Marou","lat":-17.1205596,"lon":177.2562927,"type":"village"},{"id":"4226187217","name":"Nasoqo","lat":-17.0929435,"lon":177.2476499,"type":"village"},{"id":"4360749876","name":"Lomawai","lat":-18.0298048,"lon":177.2964804,"type":"village"},{"id":"4431774055","name":"Emuri","lat":-18.0605659,"lon":177.3766469,"type":"village"},{"id":"4431800394","name":"Navutu","lat":-18.0106938,"lon":177.3262569,"type":"village"},{"id":"4431800413","name":"Bavu","lat":-17.9322521,"lon":177.3310456,"type":"village"},{"id":"4431804808","name":"Yadua","lat":-18.168148,"lon":177.4645093,"type":"village"},{"id":"4431807175","name":"Korokula","lat":-17.9803067,"lon":177.2728799,"type":"village"},{"id":"4431807184","name":"Tau","lat":-17.9697126,"lon":177.2802374,"type":"village"},{"id":"4432444476","name":"Navala","lat":-17.6594461,"lon":177.8127988,"type":"village"},{"id":"4440969748","name":"Abaca","lat":-17.6664801,"lon":177.5347473,"type":"village"},{"id":"4558121208","name":"Vunitogoloa","lat":-17.3701816,"lon":178.0586815,"type":"village"},{"id":"4558121209","name":"Togovere","lat":-17.4045987,"lon":178.0111192,"type":"village"},{"id":"4558140153","name":"Rabulu","lat":-17.4333488,"lon":177.941029,"type":"village"},{"id":"4558140173","name":"Drauniivi","lat":-17.4164483,"lon":177.9973501,"type":"village"},{"id":"4558148966","name":"Vadravadra","lat":-17.5124841,"lon":177.6956982,"type":"village"},{"id":"4558148984","name":"Sasa","lat":-17.4863917,"lon":177.7078432,"type":"village"},{"id":"4558148985","name":"Sorokoba","lat":-17.4903621,"lon":177.704174,"type":"village"},{"id":"4558149006","name":"Talecake","lat":-17.4993565,"lon":177.7050993,"type":"village"},{"id":"4572534001","name":"Volivoli Village","lat":-18.1581887,"lon":177.4892893,"type":"village"},{"id":"4721151433","name":"Nadonumai","lat":-18.1107479,"lon":178.4265827,"type":"village"},{"id":"4903059398","name":"Namotomoto Village","lat":-17.7968332,"lon":177.4166354,"type":"village"},{"id":"4903059399","name":"Saunaka Village","lat":-17.7924627,"lon":177.4303526,"type":"village"},{"id":"4903059400","name":"Nawaka Village","lat":-17.800655,"lon":177.4332907,"type":"village"},{"id":"4969796680","name":"Navutulevu","lat":-18.2373595,"lon":177.8063405,"type":"village"},{"id":"4973407637","name":"Namaqumaqua","lat":-18.2528293,"lon":177.831607,"type":"village"},{"id":"4973666918","name":"Deuba","lat":-18.2483344,"lon":177.8860931,"type":"village"},{"id":"4976647372","name":"Nakorovou","lat":-18.2429547,"lon":177.972576,"type":"village"},{"id":"4978122185","name":"Culanuku","lat":-18.267518,"lon":177.9868432,"type":"village"},{"id":"4978122874","name":"Galoa","lat":-18.2587952,"lon":178.0024423,"type":"village"},{"id":"4978936863","name":"Nakavu","lat":-18.1915144,"lon":178.1046626,"type":"village"},{"id":"4982368116","name":"Nabukavesi","lat":-18.161058,"lon":178.2386109,"type":"village"},{"id":"4982739732","name":"Kalokolevu","lat":-18.1334015,"lon":178.3137078,"type":"village"},{"id":"4982854439","name":"Togalevu","lat":-18.1245672,"lon":178.3189816,"type":"village"},{"id":"4986330994","name":"Muaivuso","lat":-18.1405127,"lon":178.3600649,"type":"village"},{"id":"4986330995","name":"Nabaka","lat":-18.1370929,"lon":178.3641319,"type":"village"},{"id":"4986330996","name":"Waiqanake","lat":-18.1338077,"lon":178.3689569,"type":"village"},{"id":"5018778582","name":"Matanimoli","lat":-18.0847559,"lon":178.6030789,"type":"village"},{"id":"5018778611","name":"Navaka","lat":-18.0846743,"lon":178.6022421,"type":"village"},{"id":"5018780732","name":"Nabudrau","lat":-18.1006118,"lon":178.5988303,"type":"village"},{"id":"5018786329","name":"Nadali","lat":-18.0364464,"lon":178.5470905,"type":"village"},{"id":"5018792346","name":"Bukama","lat":-16.7594586,"lon":177.5530746,"type":"village"},{"id":"5018792588","name":"Dalomo","lat":-16.7827361,"lon":177.5242355,"type":"village"},{"id":"5048169773","name":"Talenaua","lat":-18.2559303,"lon":177.916995,"type":"village"},{"id":"5767243083","name":"Dalice Settlement","lat":-17.8006085,"lon":179.3958656,"type":"village"},{"id":"5771942095","name":"Sadro Village","lat":-18.2478692,"lon":178.1345837,"type":"village"},{"id":"5771951566","name":"Lutu Village","lat":-17.803473,"lon":178.1136492,"type":"village"},{"id":"5781615259","name":"Niudua Village","lat":-19.0167231,"lon":178.337959,"type":"village"},{"id":"5797129688","name":"Naduru Village","lat":-18.0297931,"lon":178.5710615,"type":"village"},{"id":"5797129711","name":"Namolituva Village","lat":-18.028567,"lon":178.5685221,"type":"village"},{"id":"5797154389","name":"Waibogi","lat":-18.1176631,"lon":178.0096242,"type":"village"},{"id":"5797246899","name":"Toga","lat":-17.9775149,"lon":177.6068853,"type":"village"},{"id":"5797253641","name":"Nahou","lat":-17.9761122,"lon":177.5958195,"type":"village"},{"id":"5797257153","name":"Koronisagana","lat":-17.9715643,"lon":177.627988,"type":"village"},{"id":"5797258359","name":"Nahautabu","lat":-17.9684656,"lon":177.6338012,"type":"village"},{"id":"5797259553","name":"Namalawai","lat":-17.9705704,"lon":177.6359124,"type":"village"},{"id":"5797259702","name":"Vunaqoru","lat":-17.9745482,"lon":177.6454738,"type":"village"},{"id":"5797265436","name":"Naveyago","lat":-17.9651772,"lon":177.6487305,"type":"village"},{"id":"5797341832","name":"Matacaucau Village","lat":-17.7877074,"lon":178.5777496,"type":"village"},{"id":"5799960630","name":"Nadrau","lat":-17.813085,"lon":178.5285155,"type":"village"},{"id":"5800135267","name":"Vatuni Settlement","lat":-17.8179739,"lon":179.426157,"type":"village"},{"id":"5802744931","name":"Nakaulau","lat":-18.1218501,"lon":178.5580255,"type":"village"},{"id":"5802744932","name":"Taci","lat":-18.1119755,"lon":178.6007925,"type":"village"},{"id":"5803691631","name":"Naselesele","lat":-16.6976949,"lon":-179.8678479,"type":"village"},{"id":"5803691634","name":"Naimasimasi","lat":-17.9157519,"lon":178.5596258,"type":"village"},{"id":"5803691635","name":"Waikete","lat":-18.0487451,"lon":178.6072414,"type":"village"},{"id":"5803691636","name":"Tubalevu","lat":-17.9422918,"lon":178.5747657,"type":"village"},{"id":"5803691637","name":"Korovou","lat":-17.8079115,"lon":178.5395524,"type":"town"},{"id":"5813598218","name":"Tabuya Village","lat":-19.1544845,"lon":178.0545508,"type":"village"},{"id":"5814411595","name":"Navacau Settlement","lat":-18.2495056,"lon":177.8705681,"type":"village"},{"id":"5814411596","name":"Navaga","lat":-17.8106617,"lon":177.8872709,"type":"village"},{"id":"5814411597","name":"Drala","lat":-17.6926214,"lon":177.9149817,"type":"village"},{"id":"5814411598","name":"Buyabuya","lat":-17.6765475,"lon":177.9185369,"type":"village"},{"id":"5834057933","name":"Naivikasara","lat":-18.0953639,"lon":178.5839149,"type":"village"},{"id":"5866613424","name":"Korowiri Village","lat":-16.4779909,"lon":179.3913205,"type":"village"},{"id":"5898427617","name":"Waibasaga Village","lat":-17.8068858,"lon":178.1079941,"type":"village"},{"id":"6280075875","name":"Nadevo Village","lat":-17.8327,"lon":177.7755768,"type":"village"},{"id":"6601246547","name":"Nadaro Village","lat":-17.9391373,"lon":178.5575795,"type":"village"},{"id":"6775808387","name":"Draiba","lat":-17.6954016,"lon":178.8357962,"type":"village"},{"id":"6789696615","name":"Draubuta Village","lat":-17.9232871,"lon":177.9000519,"type":"village"},{"id":"7417548597","name":"Vunidogoloa (new village)","lat":-16.6625366,"lon":179.4972644,"type":"village"},{"id":"7467879432","name":"Lami Village","lat":-18.1057087,"lon":178.4148369,"type":"village"},{"id":"7597765636","name":"Naroi","lat":-18.5603583,"lon":179.9348212,"type":"village"},{"id":"7597766320","name":"Keteira","lat":-18.6205261,"lon":179.8932742,"type":"village"},{"id":"7597766463","name":"Nasoki","lat":-18.631882,"lon":179.9018851,"type":"village"},{"id":"7597766539","name":"Cakova","lat":-18.6281631,"lon":179.8724956,"type":"village"},{"id":"7597766652","name":"Naloku","lat":-18.5705363,"lon":179.8693943,"type":"village"},{"id":"7597766815","name":"Vunuku","lat":-18.5819984,"lon":179.9178377,"type":"village"},{"id":"7831475873","name":"Tubarua","lat":-17.8922676,"lon":178.0603982,"type":"village"},{"id":"7831475874","name":"Nasava","lat":-17.8850301,"lon":178.0809138,"type":"village"},{"id":"7831475876","name":"Nakorovou","lat":-17.8505213,"lon":178.104157,"type":"village"},{"id":"7831475879","name":"Botenaulu","lat":-17.8157748,"lon":178.1076822,"type":"village"},{"id":"8025154992","name":"Elsio","lat":-12.4805345,"lon":177.077001,"type":"village"},{"id":"8025155090","name":"Oinafa","lat":-12.4889591,"lon":177.1240166,"type":"village"},{"id":"8025155119","name":"Noa'tau","lat":-12.5131982,"lon":177.1370135,"type":"village"},{"id":"8025155180","name":"Uanheta","lat":-12.5207783,"lon":177.1028279,"type":"village"},{"id":"8025155181","name":"Pepjei","lat":-12.5227997,"lon":177.0939337,"type":"village"},{"id":"8025155204","name":"Juju","lat":-12.5216266,"lon":177.0812379,"type":"village"},{"id":"8025155230","name":"Itu'ti'u","lat":-12.5177723,"lon":177.0595764,"type":"village"},{"id":"8025155293","name":"Motusa","lat":-12.5078408,"lon":177.0382997,"type":"village"},{"id":"8025155374","name":"Ahau","lat":-12.5010421,"lon":177.0478913,"type":"village"},{"id":"8025155431","name":"Itu'muta","lat":-12.4975656,"lon":177.0299205,"type":"village"},{"id":"8253359625","name":"Varavu","lat":-17.4843279,"lon":177.7173494,"type":"village"},{"id":"8279670474","name":"Vadravadra","lat":-18.1089085,"lon":179.3558319,"type":"village"},{"id":"8674380432","name":"Naevuevu","lat":-18.1526307,"lon":177.4433139,"type":"village"},{"id":"8674380433","name":"Tore","lat":-18.1545728,"lon":177.436759,"type":"village"},{"id":"8674380434","name":"Sila","lat":-18.1544199,"lon":177.4396773,"type":"village"},{"id":"8674380435","name":"Cuvu","lat":-18.1453871,"lon":177.4298496,"type":"village"},{"id":"8674380436","name":"Malomalo","lat":-18.1240637,"lon":177.3579384,"type":"village"},{"id":"8674380437","name":"Sanasana","lat":-18.1133227,"lon":177.3268923,"type":"village"},{"id":"8674380439","name":"Malaqere","lat":-18.1568415,"lon":177.4524734,"type":"village"},{"id":"8674380440","name":"Mataqe","lat":-18.1644551,"lon":177.4714859,"type":"village"},{"id":"8674380441","name":"Kulukulu","lat":-18.164482,"lon":177.4960055,"type":"village"},{"id":"8674380442","name":"Nasama","lat":-18.1556846,"lon":177.5014558,"type":"village"},{"id":"8674380444","name":"Yavulo","lat":-18.1442635,"lon":177.5068779,"type":"village"},{"id":"8674380445","name":"Olosara","lat":-18.1596125,"lon":177.5239651,"type":"village"},{"id":"8674380446","name":"Korotogo","lat":-18.1684231,"lon":177.5414346,"type":"village"},{"id":"9074839392","name":"Naivimagimagi","lat":-19.0349163,"lon":178.4046044,"type":"village"},{"id":"9075068135","name":"suva","lat":-17.443591,"lon":178.9547351,"type":"village"},{"id":"9164624838","name":"levuka","lat":-18.0624016,"lon":179.30786,"type":"village"},{"id":"9449310336","name":"Wailevu Village","lat":-16.434111,"lon":179.3284637,"type":"village"},{"id":"9451612721","name":"Nasekula Village","lat":-16.437137,"lon":179.3617051,"type":"village"},{"id":"9517968093","name":"Navesidrua Village","lat":-16.558527,"lon":179.1327875,"type":"village"},{"id":"9517968094","name":"Naivaka Village","lat":-16.6479791,"lon":178.5236767,"type":"village"},{"id":"9518533557","name":"Vuo Village","lat":-16.3675377,"lon":179.3755394,"type":"village"},{"id":"9518989905","name":"Nacula Village","lat":-16.4357908,"lon":179.3729288,"type":"village"},{"id":"9520387786","name":"Tabia","lat":-16.4583132,"lon":179.2449987,"type":"village"},{"id":"9520568157","name":"Galoa Village","lat":-16.6155247,"lon":178.6805766,"type":"village"},{"id":"9520568159","name":"Tavea Village","lat":-16.6254847,"lon":178.7263656,"type":"village"},{"id":"9520568160","name":"Naviqiri Village","lat":-16.6627228,"lon":178.5941683,"type":"village"},{"id":"9520568161","name":"Nasau Village","lat":-16.6714264,"lon":178.5801388,"type":"village"},{"id":"9520819170","name":"Vatudova","lat":-16.4304759,"lon":179.2819359,"type":"village"},{"id":"9522527427","name":"Uma Village","lat":-16.5002761,"lon":179.9884619,"type":"village"},{"id":"9522527428","name":"Buakonikai Village","lat":-16.5363251,"lon":179.9752255,"type":"village"},{"id":"9522527429","name":"Salia Village","lat":-16.6685143,"lon":179.9015934,"type":"village"},{"id":"9522527430","name":"Koroivonu Village","lat":-16.5711869,"lon":179.8856103,"type":"village"},{"id":"9522527431","name":"Karoko Village","lat":-16.5105348,"lon":179.9153734,"type":"village"},{"id":"9522527432","name":"Nailou Village","lat":-16.4850614,"lon":179.8938889,"type":"village"},{"id":"9522527433","name":"Salia Village","lat":-16.5130414,"lon":179.8493568,"type":"village"},{"id":"9522527436","name":"Natewa Village","lat":-16.5920986,"lon":179.7343343,"type":"village"},{"id":"9522527437","name":"Dawa Village","lat":-16.6044908,"lon":179.7193585,"type":"village"},{"id":"9522527438","name":"Drekeniwai Village","lat":-16.6723956,"lon":179.677792,"type":"village"},{"id":"9528618160","name":"Vuna Village","lat":-16.970664,"lon":179.8943761,"type":"village"},{"id":"9528618170","name":"Nanenivuda Village","lat":-16.5231689,"lon":179.1634763,"type":"village"},{"id":"9528618171","name":"Naravuka Village","lat":-16.6109597,"lon":179.0991261,"type":"village"},{"id":"9528618173","name":"Batiri Village","lat":-16.6056468,"lon":179.0350489,"type":"village"},{"id":"9530936835","name":"Welagi Village","lat":-16.7349032,"lon":-179.9411131,"type":"village"},{"id":"9637951507","name":"Momi","lat":-17.9131231,"lon":177.2852248,"type":"village"},{"id":"9638357892","name":"Korolevu","lat":-18.2140676,"lon":177.7305987,"type":"village"},{"id":"10226368834","name":"Narata Village","lat":-17.9687246,"lon":177.5463094,"type":"village"},{"id":"10226407592","name":"Rarabahaga","lat":-17.9614428,"lon":177.6432575,"type":"village"},{"id":"10226407603","name":"Navula","lat":-17.9273111,"lon":177.7260099,"type":"village"},{"id":"10226461500","name":"Nakorosule","lat":-17.7745562,"lon":178.2510757,"type":"village"},{"id":"10226478287","name":"Taulevu","lat":-17.8268117,"lon":178.2934439,"type":"village"},{"id":"10226478288","name":"Nairukuruku","lat":-17.8140081,"lon":178.2853924,"type":"village"},{"id":"10226495279","name":"Waibalavu","lat":-17.7662572,"lon":178.2349192,"type":"village"},{"id":"10226517416","name":"Nawaisomo","lat":-17.7290372,"lon":178.20844,"type":"village"},{"id":"10226601608","name":"Nabena","lat":-17.8215671,"lon":178.3161753,"type":"village"},{"id":"10226892453","name":"Navuniyasi","lat":-17.7953726,"lon":178.2643889,"type":"village"},{"id":"10226911311","name":"Matailobau","lat":-17.8187983,"lon":178.3095638,"type":"village"},{"id":"10226914046","name":"Delaitoga","lat":-17.827082,"lon":178.3128585,"type":"village"},{"id":"10239636973","name":"Nakida","lat":-17.7033556,"lon":178.239375,"type":"village"},{"id":"10312045715","name":"Lokia","lat":-18.0903382,"lon":178.5526781,"type":"village"},{"id":"10729328449","name":"Yaro","lat":-17.7351668,"lon":177.1756238,"type":"village"},{"id":"10729328450","name":"Solevu","lat":-17.7453594,"lon":177.1829532,"type":"village"},{"id":"10740483520","name":"Cuvu Top","lat":-18.1111505,"lon":177.4046142,"type":"village"},{"id":"10740483525","name":"Togovere","lat":-18.1044726,"lon":177.4178516,"type":"village"},{"id":"10740483531","name":"Tulasewa","lat":-18.0443643,"lon":177.4301331,"type":"village"},{"id":"10740483539","name":"Vavinaqiri","lat":-18.0373832,"lon":177.3679935,"type":"village"},{"id":"10740483547","name":"Kabisi","lat":-18.0582131,"lon":177.3703817,"type":"village"},{"id":"10740483548","name":"Nalele","lat":-18.0538878,"lon":177.3812389,"type":"village"},{"id":"10740483554","name":"Dayala","lat":-18.063095,"lon":177.3747583,"type":"village"},{"id":"10740483575","name":"Togobula","lat":-18.0515382,"lon":177.3264203,"type":"village"},{"id":"10740483591","name":"Basiri","lat":-18.0735383,"lon":177.3213723,"type":"village"},{"id":"10740483600","name":"Vuhama","lat":-18.0799701,"lon":177.3149588,"type":"village"},{"id":"10740483608","name":"Navihabahaba","lat":-18.084211,"lon":177.3290239,"type":"village"},{"id":"10740483609","name":"Nalele","lat":-18.0869724,"lon":177.3456649,"type":"village"},{"id":"10740483626","name":"Nahoho","lat":-18.12544,"lon":177.3599273,"type":"village"},{"id":"10740490006","name":"Vunatovau","lat":-18.0959909,"lon":177.4837515,"type":"village"},{"id":"10740490013","name":"Silivalevu","lat":-18.0736512,"lon":177.4856735,"type":"village"},{"id":"10740490018","name":"Naduri","lat":-18.0813378,"lon":177.5611493,"type":"village"},{"id":"11061558227","name":"Gunu","lat":-17.08819,"lon":177.2443869,"type":"village"},{"id":"11203597918","name":"Dreketi","lat":-17.5606828,"lon":178.274565,"type":"village"},{"id":"11203609982","name":"Dobuilevu Agricultural Station","lat":-17.5611212,"lon":178.2463392,"type":"village"},{"id":"11203625973","name":"Rokovuaka","lat":-17.6376597,"lon":178.2600509,"type":"village"},{"id":"11203661912","name":"Barotu","lat":-17.4874493,"lon":178.2391598,"type":"village"},{"id":"11203706513","name":"Vunisea","lat":-17.490597,"lon":178.1396573,"type":"village"},{"id":"11306270778","name":"Nadavacia","lat":-17.5399714,"lon":178.3612187,"type":"village"},{"id":"11306274516","name":"Saioko","lat":-17.5412421,"lon":178.3733333,"type":"village"},{"id":"11700209934","name":"Vitadra Village","lat":-16.436668,"lon":179.3992154,"type":"village"},{"id":"12357088095","name":"Nuku","lat":-19.0722129,"lon":178.1595497,"type":"village"},{"id":"12357088096","name":"Naikorokoro","lat":-18.9796924,"lon":178.1994011,"type":"village"},{"id":"12357121009","name":"Daku","lat":-18.9622841,"lon":178.2778167,"type":"village"},{"id":"12357121018","name":"Lawaki","lat":-18.9841411,"lon":178.4076937,"type":"village"},{"id":"12357121019","name":"Vunivaivai","lat":-18.9836133,"lon":178.4215111,"type":"village"},{"id":"12357121020","name":"Namuanaira","lat":-18.9728177,"lon":178.4304104,"type":"village"},{"id":"12357121031","name":"Solotina","lat":-18.9614913,"lon":178.4408397,"type":"village"},{"id":"12360257468","name":"Soso","lat":-19.0122774,"lon":178.3204882,"type":"village"},{"id":"12360257476","name":"Yavitu","lat":-19.0078986,"lon":178.3159424,"type":"village"},{"id":"13165521062","name":"Naiviteitei","lat":-17.7101205,"lon":178.7636505,"type":"village"},{"id":"13165521084","name":"Vuniivasavu","lat":-17.6902983,"lon":178.7935583,"type":"village"},{"id":"13165521085","name":"Nasaumatua","lat":-17.6893698,"lon":178.791241,"type":"village"},{"id":"13165626645","name":"Wainaloka","lat":-17.7329714,"lon":178.7742336,"type":"village"},{"id":"13165626648","name":"Visoto","lat":-17.726861,"lon":178.8051005,"type":"village"},{"id":"13165626649","name":"Nacobo","lat":-17.7235908,"lon":178.803918,"type":"village"},{"id":"13165626650","name":"Nukutocia","lat":-17.7279194,"lon":178.7923026,"type":"village"},{"id":"13166704908","name":"Nasinu","lat":-17.713541,"lon":178.8320283,"type":"village"},{"id":"13166704919","name":"Naikorokoro","lat":-17.7011914,"lon":178.8337195,"type":"village"},{"id":"13168649323","name":"Yanuca","lat":-17.7653044,"lon":178.7811776,"type":"village"},{"id":"13172146686","name":"Nukuni","lat":-20.6635977,"lon":-178.721554,"type":"village"}]