[{"id":"27565068","name":"Libreville","lat":0.4086518,"lon":9.4418849,"type":"city"},{"id":"254528943","name":"Franceville","lat":-1.6343979,"lon":13.5894808,"type":"city"},{"id":"331139689","name":"Bitam","lat":2.0786422,"lon":11.4944412,"type":"city"},{"id":"331139740","name":"Oyem","lat":1.5997904,"lon":11.5751003,"type":"city"},{"id":"331142069","name":"Ntoum","lat":0.3913154,"lon":9.7588716,"type":"town"},{"id":"331144234","name":"Lambaréné","lat":-0.6942603,"lon":10.2236482,"type":"city"},{"id":"331151099","name":"Fougamou","lat":-1.2164737,"lon":10.591374,"type":"town"},{"id":"331155527","name":"Mouila","lat":-1.8627018,"lon":11.058713,"type":"city"},{"id":"331157135","name":"Ndendé","lat":-2.3962846,"lon":11.3580781,"type":"town"},{"id":"339582598","name":"Port-Gentil","lat":-0.7151966,"lon":8.7787919,"type":"city"},{"id":"667654938","name":"Medouneu","lat":1.0180464,"lon":10.7961746,"type":"town"},{"id":"667664658","name":"Edoum","lat":0.9613209,"lon":10.6846203,"type":"village"},{"id":"667673760","name":"Cocobeach","lat":1.0055667,"lon":9.5842085,"type":"town"},{"id":"925697533","name":"Alembé","lat":-0.0776964,"lon":10.958121,"type":"village"},{"id":"925710565","name":"Mitzic","lat":0.7825965,"lon":11.5485892,"type":"town"},{"id":"925714106","name":"Bibassé","lat":1.4380117,"lon":11.6050185,"type":"village"},{"id":"925723766","name":"Ndjolé","lat":-0.1838081,"lon":10.7658311,"type":"city"},{"id":"925724571","name":"Lalara","lat":0.3549002,"lon":11.45221,"type":"village"},{"id":"925725587","name":"Bifoun","lat":-0.2513477,"lon":10.4148002,"type":"town"},{"id":"926024447","name":"Kango","lat":0.1909771,"lon":10.0869569,"type":"town"},{"id":"926027458","name":"Minvoul","lat":2.1522607,"lon":12.1332191,"type":"town"},{"id":"926800039","name":"Lébamba","lat":-2.212479,"lon":11.47056,"type":"town"},{"id":"926835172","name":"Sindara","lat":-1.0394823,"lon":10.6614468,"type":"town"},{"id":"926860006","name":"Makokou","lat":0.5619085,"lon":12.8525045,"type":"city"},{"id":"927078063","name":"Mékambo","lat":1.0149805,"lon":13.9564561,"type":"town"},{"id":"927113108","name":"Ovan","lat":0.3092055,"lon":12.1835787,"type":"village"},{"id":"1253870271","name":"Owendo","lat":0.3208235,"lon":9.4952738,"type":"city"},{"id":"2035490237","name":"Tchibanga","lat":-2.9170995,"lon":10.9955955,"type":"city"},{"id":"2178082104","name":"Akiéni","lat":-1.1726011,"lon":13.8752887,"type":"village"},{"id":"2178082107","name":"Bongoville","lat":-1.645746,"lon":13.8600077,"type":"town"},{"id":"2178082108","name":"Booué","lat":-0.1015728,"lon":11.9481458,"type":"city"},{"id":"2178082109","name":"Mbouda","lat":-2.8274667,"lon":10.3146701,"type":"village"},{"id":"2178082113","name":"Gamba","lat":-2.7201331,"lon":10.0189421,"type":"city"},{"id":"2178082114","name":"Ntchongorové","lat":-1.9106047,"lon":9.3225734,"type":"village"},{"id":"2178082115","name":"Koulamoutou","lat":-1.1341133,"lon":12.4673015,"type":"city"},{"id":"2178082117","name":"Lastoursville","lat":-0.8104398,"lon":12.7303782,"type":"city"},{"id":"2178082119","name":"Lékoni","lat":-1.584647,"lon":14.2650802,"type":"city"},{"id":"2178082121","name":"Mayumba","lat":-3.4315661,"lon":10.6545667,"type":"city"},{"id":"2178082122","name":"Mayébout","lat":1.1144673,"lon":13.1107607,"type":"village"},{"id":"2178082127","name":"Moabi","lat":-2.4451709,"lon":10.9239525,"type":"town"},{"id":"2178082128","name":"Bakoumba","lat":-1.8257303,"lon":13.0102425,"type":"town"},{"id":"2178082130","name":"Mounana","lat":-1.383312,"lon":13.1565077,"type":"town"},{"id":"2178082132","name":"Ndougou","lat":-1.6541583,"lon":9.6662698,"type":"village"},{"id":"2178082133","name":"Ngouoni","lat":-1.49841,"lon":13.7929,"type":"village"},{"id":"2178082134","name":"Okondja","lat":-0.6551217,"lon":13.6821819,"type":"city"},{"id":"2178082135","name":"Omboué","lat":-1.5744332,"lon":9.2605955,"type":"town"},{"id":"2178082138","name":"Pana","lat":-1.6714439,"lon":12.6296494,"type":"village"},{"id":"2178082139","name":"Setté Cama","lat":-2.5240413,"lon":9.7545155,"type":"village"},{"id":"2178082144","name":"Yéno","lat":-1.3472488,"lon":9.3454865,"type":"village"},{"id":"2178090546","name":"Moanda","lat":-1.554764,"lon":13.2218993,"type":"city"},{"id":"2511509409","name":"Nyonié","lat":-0.0419057,"lon":9.3395721,"type":"village"},{"id":"2562335437","name":"Ozouri","lat":-1.0187173,"lon":8.9005472,"type":"village"},{"id":"2583534323","name":"Pointe Denis","lat":0.3291854,"lon":9.3654242,"type":"village"},{"id":"2751567368","name":"Akok","lat":0.5124047,"lon":9.7372913,"type":"village"},{"id":"2751567369","name":"Bengole","lat":0.7505082,"lon":9.6587812,"type":"village"},{"id":"2751567373","name":"Mebba","lat":0.4480947,"lon":9.7557944,"type":"village"},{"id":"2751567375","name":"No Ayong","lat":0.6155292,"lon":9.6762533,"type":"village"},{"id":"3013074953","name":"Mandji","lat":-1.7057965,"lon":10.3886503,"type":"town"},{"id":"3300964529","name":"Cotivindou","lat":-3.6796968,"lon":11.7594939,"type":"village"},{"id":"3300964548","name":"Dilemba","lat":-3.3271713,"lon":11.713489,"type":"village"},{"id":"3300965072","name":"Doumanga","lat":-3.3811435,"lon":11.5923654,"type":"village"},{"id":"3450710257","name":"Mbigou","lat":-1.8961162,"lon":11.9095546,"type":"town"},{"id":"3601427741","name":"Guidouma","lat":-1.6153617,"lon":10.6903558,"type":"village"},{"id":"3601434595","name":"Elonga","lat":-1.7724517,"lon":10.9123542,"type":"village"},{"id":"3601977206","name":"Loubomo","lat":-3.2176878,"lon":10.6335054,"type":"village"},{"id":"3601998352","name":"Mourindi","lat":-2.5579006,"lon":10.7375144,"type":"village"},{"id":"3602059225","name":"Samba","lat":-1.020915,"lon":10.6740182,"type":"village"},{"id":"3602066621","name":"Manga","lat":-0.9679574,"lon":10.6324895,"type":"village"},{"id":"3602084492","name":"Bissone","lat":-0.1798575,"lon":10.7764625,"type":"village"},{"id":"3602159393","name":"Junkville","lat":-0.0628674,"lon":11.1597341,"type":"village"},{"id":"3602161392","name":"Ayem","lat":-0.1158199,"lon":11.4357011,"type":"village"},{"id":"3602168413","name":"Achouka","lat":-0.100982,"lon":11.7750972,"type":"village"},{"id":"3602190233","name":"Motodiene","lat":-0.8497271,"lon":12.1414869,"type":"village"},{"id":"3602255419","name":"Roungassa","lat":-1.0149416,"lon":12.5311611,"type":"village"},{"id":"3602339828","name":"Mindili","lat":-1.4973734,"lon":13.5279798,"type":"village"},{"id":"3602437996","name":"Lékori","lat":-0.9640553,"lon":13.800283,"type":"village"},{"id":"3602451363","name":"Choua","lat":-0.7328886,"lon":13.7477921,"type":"village"},{"id":"3602470461","name":"Babili","lat":-0.9396461,"lon":13.3604516,"type":"village"},{"id":"3602473309","name":"Kopengoi","lat":-0.6360478,"lon":13.7685886,"type":"village"},{"id":"3602476247","name":"Likoko","lat":-0.8349452,"lon":13.3213128,"type":"village"},{"id":"3613007265","name":"Yombi","lat":-2.2338462,"lon":11.9031875,"type":"village"},{"id":"3616299454","name":"Fera","lat":-2.3014492,"lon":11.3165374,"type":"village"},{"id":"3616301221","name":"Moukanza","lat":-2.1997326,"lon":11.6012378,"type":"village"},{"id":"3616301222","name":"Mbengué","lat":-1.9831995,"lon":11.0628199,"type":"village"},{"id":"3616303318","name":"Mboungou","lat":-2.04856,"lon":11.1386319,"type":"village"},{"id":"3616328847","name":"Makabana","lat":-2.2499057,"lon":11.4512058,"type":"village"},{"id":"3616337912","name":"Kokolo","lat":-1.7016122,"lon":10.7737227,"type":"village"},{"id":"3616364165","name":"Moutassou","lat":-2.0333347,"lon":11.0165592,"type":"village"},{"id":"3616370639","name":"Ibamba","lat":-2.2336961,"lon":11.1169811,"type":"village"},{"id":"3616372572","name":"mouamba","lat":-2.4664445,"lon":11.5346332,"type":"village"},{"id":"3616448776","name":"Dounguila","lat":-2.6996666,"lon":11.5004726,"type":"village"},{"id":"3616463030","name":"Nyanga Moubighou","lat":-1.9007187,"lon":11.3839145,"type":"village"},{"id":"3616464353","name":"Yetsou II","lat":-2.1508443,"lon":10.6675716,"type":"village"},{"id":"3616479711","name":"Iléka","lat":-2.4336871,"lon":10.9666057,"type":"village"},{"id":"3616479712","name":"Doussala","lat":-2.3373254,"lon":10.5920802,"type":"village"},{"id":"3616494863","name":"Diéla Vievi","lat":-2.3661976,"lon":10.1513,"type":"village"},{"id":"3616524088","name":"Bongo","lat":-2.1557975,"lon":10.205384,"type":"village"},{"id":"3616571421","name":"Malaba","lat":-1.9170174,"lon":11.1003299,"type":"village"},{"id":"3616575413","name":"Guiétsou","lat":-2.1887899,"lon":10.6672728,"type":"village"},{"id":"3616600262","name":"Nangha","lat":-2.166969,"lon":11.217403,"type":"village"},{"id":"3616739650","name":"Issibou","lat":-2.7010384,"lon":11.1665912,"type":"village"},{"id":"3616742872","name":"Tono Sangana","lat":-2.7000095,"lon":11.3827129,"type":"village"},{"id":"3616971465","name":"Kouri","lat":-3.3451871,"lon":11.6307528,"type":"village"},{"id":"3617020731","name":"Kembélé","lat":-1.6821271,"lon":11.4489434,"type":"village"},{"id":"3617046129","name":"Yeno","lat":-1.6755275,"lon":11.4859493,"type":"village"},{"id":"3617060217","name":"Mimongo","lat":-1.6251588,"lon":11.6003701,"type":"town"},{"id":"3618561132","name":"Tsogni","lat":-2.7941674,"lon":10.0987875,"type":"village"},{"id":"3844304757","name":"Nkok","lat":0.3883065,"lon":9.6235883,"type":"village"},{"id":"4040662091","name":"Kalikak","lat":0.4317305,"lon":9.423805,"type":"city_block"},{"id":"4216958053","name":"Eyouga","lat":-1.5569235,"lon":13.7772073,"type":"village"},{"id":"4861855742","name":"Nkoltang","lat":0.3638137,"lon":9.6742652,"type":"village"},{"id":"4866796403","name":"Ivindo","lat":-0.1954066,"lon":12.1989816,"type":"village"},{"id":"4986576600","name":"Pahon","lat":-0.8075971,"lon":12.7441621,"type":"village"},{"id":"4986576602","name":"Bamboro","lat":-0.8228734,"lon":12.7024913,"type":"village"},{"id":"4987046415","name":"Donguila","lat":0.199869,"lon":9.7322961,"type":"village"},{"id":"4990916745","name":"Mbouma Oyali","lat":-1.6141973,"lon":13.6733007,"type":"village"},{"id":"4995306338","name":"Mouyabi","lat":-1.6707686,"lon":13.3262443,"type":"village"},{"id":"4995375968","name":"Ouéllé","lat":-1.7273276,"lon":13.3777428,"type":"village"},{"id":"4995525652","name":"Essassa","lat":0.3957138,"lon":9.6083674,"type":"village"},{"id":"4995554287","name":"Bélinga","lat":1.0938564,"lon":13.1991935,"type":"village"},{"id":"5156826217","name":"Ndindi","lat":-3.7840103,"lon":11.1770868,"type":"village"},{"id":"5157553366","name":"Kala Boubote","lat":-3.7963203,"lon":11.1307826,"type":"village"},{"id":"5157557275","name":"Kayes","lat":-3.7102756,"lon":11.0982307,"type":"village"},{"id":"5157597702","name":"Malembé","lat":-3.6171934,"lon":10.9158077,"type":"village"},{"id":"5157598159","name":"Mambi","lat":-3.5310716,"lon":10.7926237,"type":"village"},{"id":"5157600984","name":"Malounga I","lat":-3.0865672,"lon":10.7210724,"type":"village"},{"id":"5157601002","name":"Mivembe","lat":-3.149414,"lon":10.6764548,"type":"village"},{"id":"5157603172","name":"Milolo","lat":-3.0316317,"lon":10.8426335,"type":"village"},{"id":"5157604846","name":"Dousseoussou","lat":-3.0359982,"lon":10.8789611,"type":"village"},{"id":"5157605495","name":"Tono","lat":-3.078796,"lon":10.8319525,"type":"village"},{"id":"5157618944","name":"Mocabe","lat":-2.4775597,"lon":10.8615059,"type":"village"},{"id":"5158493391","name":"Mingola","lat":-2.1862753,"lon":10.8857439,"type":"village"},{"id":"5158493393","name":"Dibotsa","lat":-2.1858845,"lon":10.7376691,"type":"village"},{"id":"5158498295","name":"Loango","lat":-2.6690283,"lon":10.8186965,"type":"village"},{"id":"5158498910","name":"Boughoulou","lat":-2.4686354,"lon":10.6894887,"type":"village"},{"id":"5158499466","name":"Moukoualou","lat":-2.6045397,"lon":10.7725069,"type":"village"},{"id":"5158499758","name":"Dighoudou","lat":-2.7230462,"lon":10.6479199,"type":"village"},{"id":"5158500500","name":"Ikobey","lat":-1.0574581,"lon":10.9932198,"type":"village"},{"id":"5158502765","name":"Gongoué","lat":-0.5405234,"lon":9.1981271,"type":"village"},{"id":"5158503725","name":"Mbilapé","lat":-0.874148,"lon":9.147156,"type":"village"},{"id":"5158656720","name":"Mela","lat":0.5963184,"lon":10.2614433,"type":"village"},{"id":"5158656741","name":"Andok Foula","lat":0.3872439,"lon":10.2198546,"type":"village"},{"id":"5158657042","name":"Tchimbélé","lat":0.6234713,"lon":10.4032999,"type":"village"},{"id":"5158657163","name":"Song","lat":0.6481822,"lon":10.2682668,"type":"village"},{"id":"5158657361","name":"Engong Kouame","lat":0.4332201,"lon":10.1273393,"type":"village"},{"id":"5158657679","name":"Kinguélé","lat":0.4489692,"lon":10.2813201,"type":"village"},{"id":"5158659411","name":"Idjembo","lat":-1.8505445,"lon":9.3825468,"type":"village"},{"id":"5158660021","name":"Yombé","lat":-1.9568258,"lon":9.4849199,"type":"village"},{"id":"5158668269","name":"Doum","lat":0.8137846,"lon":11.5031251,"type":"village"},{"id":"5158675381","name":"Essong","lat":0.8200453,"lon":11.44124,"type":"village"},{"id":"5158677376","name":"Egneng Melen","lat":0.8142629,"lon":11.4045017,"type":"village"},{"id":"5158677997","name":"Sam","lat":0.9888546,"lon":11.2582034,"type":"village"},{"id":"5158680735","name":"Eyinane","lat":0.9449535,"lon":11.5253482,"type":"village"},{"id":"5183227844","name":"Oubendzi","lat":0.2171137,"lon":9.7567011,"type":"village"},{"id":"5183229365","name":"Massica","lat":0.3286868,"lon":9.7581118,"type":"village"},{"id":"5183231629","name":"Elong Eko","lat":0.2273268,"lon":9.7731114,"type":"village"},{"id":"5183241521","name":"Nzamaligue","lat":0.306376,"lon":9.7733411,"type":"village"},{"id":"5183269321","name":"Kafele","lat":0.1571578,"lon":10.1300612,"type":"village"},{"id":"5183283991","name":"Abela","lat":0.2639931,"lon":10.0749654,"type":"village"},{"id":"5183284662","name":"Mfang","lat":0.2787315,"lon":10.0630283,"type":"village"},{"id":"5233556246","name":"Nkiété","lat":0.4519227,"lon":13.0266429,"type":"village"},{"id":"5240167081","name":"Kénibéi","lat":-0.9829116,"lon":10.489414,"type":"village"},{"id":"5652185744","name":"Koumameyong","lat":0.2122465,"lon":11.866917,"type":"village"},{"id":"5664565673","name":"Ngomo","lat":-0.8356199,"lon":9.9849976,"type":"village"},{"id":"5664619126","name":"Nombedouma","lat":-0.9212454,"lon":10.045774,"type":"village"},{"id":"5681276201","name":"Yombi","lat":-1.4079353,"lon":10.6256295,"type":"village"},{"id":"5695509071","name":"Bongolo","lat":-2.23875,"lon":11.4621183,"type":"village"},{"id":"5860100786","name":"Dianongo","lat":-1.7199482,"lon":9.8367671,"type":"village"},{"id":"5860100907","name":"Idoupi","lat":-1.9143467,"lon":9.4659195,"type":"village"},{"id":"5860100908","name":"L'Ile Iloupi 2","lat":-1.931993,"lon":9.4745312,"type":"village"},{"id":"5860100909","name":"Rabi rive gauche (Banane)","lat":-1.8625948,"lon":9.5823386,"type":"village"},{"id":"5860100990","name":"Mpivié","lat":-1.7730501,"lon":9.3704673,"type":"village"},{"id":"5860100991","name":"Bonne Terre","lat":-2.0422297,"lon":9.5377958,"type":"village"},{"id":"5860100994","name":"Vedaréné","lat":-1.6505006,"lon":9.5571646,"type":"village"},{"id":"5860101300","name":"Yatouga","lat":-2.0776959,"lon":9.5441338,"type":"village"},{"id":"5860101304","name":"Rabi Mitsogo","lat":-1.8484597,"lon":9.5718097,"type":"village"},{"id":"5860102686","name":"Chez le Canton","lat":-1.9148225,"lon":9.3414691,"type":"village"},{"id":"6128134975","name":"Bindo","lat":-0.4385298,"lon":10.3884921,"type":"village"},{"id":"6128260148","name":"Makouké","lat":-0.4720205,"lon":10.4081511,"type":"village"},{"id":"6128535859","name":"Otoumbi","lat":-0.0815888,"lon":11.1245051,"type":"village"},{"id":"6128883497","name":"Assok Ngomo","lat":1.6932081,"lon":11.6442222,"type":"village"},{"id":"6129012404","name":"Bolossoville","lat":1.8215681,"lon":11.7948487,"type":"village"},{"id":"6140117330","name":"Akok","lat":1.6415577,"lon":11.608397,"type":"village"},{"id":"6142218117","name":"Medoumou","lat":1.7571378,"lon":11.6260031,"type":"village"},{"id":"6142218145","name":"Koumassi","lat":1.8168355,"lon":11.617623,"type":"village"},{"id":"6142218168","name":"Konoville les Deux Eglises","lat":1.8414804,"lon":11.6447674,"type":"village"},{"id":"6142289972","name":"Awoua","lat":1.8768821,"lon":11.6337157,"type":"village"},{"id":"6240244342","name":"Aboune","lat":0.8658503,"lon":9.8444888,"type":"village"},{"id":"6531621288","name":"Assok Seng","lat":1.905799,"lon":11.6057791,"type":"village"},{"id":"6531621289","name":"Tchimazok 1","lat":2.0034714,"lon":11.5274063,"type":"village"},{"id":"6531637785","name":"Akom","lat":1.890293,"lon":11.6236631,"type":"village"},{"id":"6531638385","name":"Tchimazone","lat":1.9546324,"lon":11.5701647,"type":"village"},{"id":"6533435591","name":"Ewong","lat":2.2579868,"lon":11.4840292,"type":"village"},{"id":"6533435592","name":"Melep","lat":2.2738877,"lon":11.473197,"type":"village"},{"id":"6533626086","name":"Major NDO","lat":2.2760115,"lon":11.5631243,"type":"village"},{"id":"6533626186","name":"Nkok-ébé effack","lat":2.2654356,"lon":11.5483164,"type":"village"},{"id":"6534999188","name":"Akim Assi","lat":1.72035,"lon":11.6491609,"type":"village"},{"id":"6540349317","name":"Tsika","lat":-1.5783262,"lon":9.9929238,"type":"village"},{"id":"6543443555","name":"Kengué","lat":-1.869672,"lon":9.2857969,"type":"village"},{"id":"6543653914","name":"Mougambi I","lat":-2.5586632,"lon":9.8786187,"type":"village"},{"id":"6543654626","name":"Pitonga","lat":-2.5006579,"lon":9.8436542,"type":"village"},{"id":"6547839681","name":"Malongo","lat":-1.417217,"lon":12.035558,"type":"village"},{"id":"6552718660","name":"Abam Eba","lat":1.5893419,"lon":11.363704,"type":"village"},{"id":"6553024890","name":"Gongué","lat":-0.7786648,"lon":11.9180203,"type":"village"},{"id":"6554805321","name":"Mikongo I","lat":-0.2933287,"lon":11.75493,"type":"village"},{"id":"6555011261","name":"Otsiami","lat":-0.6539553,"lon":14.4338708,"type":"village"},{"id":"6555011287","name":"Onga","lat":-0.7596737,"lon":14.3057247,"type":"village"},{"id":"6555011322","name":"Oloua","lat":-0.8547932,"lon":14.2692271,"type":"village"},{"id":"6555011336","name":"Mboui","lat":-0.8513378,"lon":14.3497557,"type":"village"},{"id":"6555011343","name":"Ossouele","lat":-1.0810417,"lon":14.3721089,"type":"village"},{"id":"6555011539","name":"Ayogo","lat":-0.8989107,"lon":14.2257713,"type":"village"},{"id":"6555663714","name":"Nyoye 1","lat":-1.0317055,"lon":11.0536689,"type":"village"},{"id":"6555663895","name":"Divindè","lat":-1.0378275,"lon":11.1560014,"type":"village"},{"id":"6555663932","name":"Nioyè 2","lat":-1.0359832,"lon":11.1846222,"type":"village"},{"id":"6555764009","name":"Lékita","lat":-0.8626882,"lon":10.5929397,"type":"village"},{"id":"6555846867","name":"Loa Loa","lat":0.5255012,"lon":12.8270915,"type":"village"},{"id":"6557098305","name":"La Lopé","lat":-0.1067508,"lon":11.6110615,"type":"village"},{"id":"6558457483","name":"Allonah","lat":-1.0155306,"lon":10.2294072,"type":"village"},{"id":"6558539877","name":"Dakar","lat":-1.1529284,"lon":10.0203134,"type":"village"},{"id":"6558595691","name":"Tsinginié Tsingi","lat":-1.5846246,"lon":10.1470416,"type":"village"},{"id":"6558595701","name":"Omengo","lat":-1.5725205,"lon":9.9704679,"type":"village"},{"id":"6558650287","name":"Kongo","lat":-1.6044468,"lon":9.4937563,"type":"village"},{"id":"6562637107","name":"Midouma","lat":-1.4484687,"lon":12.3642848,"type":"village"},{"id":"6562637168","name":"Nzenzélé","lat":-1.4563284,"lon":12.3632218,"type":"village"},{"id":"6562637181","name":"Nzambi II","lat":-1.4607947,"lon":12.352893,"type":"village"},{"id":"6562657496","name":"Nzambi I","lat":-1.4870005,"lon":12.3339322,"type":"village"},{"id":"6562657541","name":"Mbigou-Moréné","lat":-1.4174856,"lon":12.3802446,"type":"village"},{"id":"6562657542","name":"Boundzi","lat":-1.4214923,"lon":12.3750169,"type":"village"},{"id":"6562681369","name":"Ngoungui I","lat":-1.1044815,"lon":12.4197413,"type":"village"},{"id":"6564348105","name":"Bitono","lat":-1.7326347,"lon":13.6161279,"type":"village"},{"id":"6570678865","name":"Kelle","lat":-1.6032126,"lon":13.7683743,"type":"village"},{"id":"6583584357","name":"Assok","lat":0.7152705,"lon":10.3596866,"type":"village"},{"id":"6583621577","name":"Alen Komo","lat":0.3414592,"lon":10.1874199,"type":"village"},{"id":"6585020081","name":"Mbondou","lat":0.4072765,"lon":13.0693425,"type":"village"},{"id":"6585024134","name":"Ekobakoba","lat":0.3723417,"lon":13.1025964,"type":"village"},{"id":"6585381377","name":"Mebang","lat":-0.8186252,"lon":10.1773846,"type":"village"},{"id":"6724800280","name":"N'Gava","lat":0.1740054,"lon":9.8111558,"type":"village"},{"id":"6724967315","name":"Acondjo","lat":-0.1987352,"lon":9.9601096,"type":"village"},{"id":"6727132929","name":"Mokabou","lat":-1.6049151,"lon":10.1373392,"type":"village"},{"id":"6738443361","name":"Tchintchoua","lat":0.0186038,"lon":9.8083341,"type":"village"},{"id":"7021265946","name":"Oronga","lat":-0.8277157,"lon":9.9903676,"type":"village"},{"id":"7021265957","name":"Izolwè","lat":-0.8239865,"lon":9.9824148,"type":"village"},{"id":"7021655071","name":"Oyingo","lat":-0.8010183,"lon":9.6779425,"type":"village"},{"id":"7021655072","name":"Alégo","lat":-0.8152406,"lon":9.6490055,"type":"village"},{"id":"7021663798","name":"Issac","lat":-0.5081325,"lon":9.9726007,"type":"village"},{"id":"7021663802","name":"Etouk","lat":-0.5063301,"lon":10.0048971,"type":"village"},{"id":"7021663803","name":"Bonne Ville","lat":-0.5726421,"lon":10.0030035,"type":"village"},{"id":"7021686037","name":"Azendjé","lat":-1.7099548,"lon":9.8775888,"type":"village"},{"id":"7022332090","name":"Ndzek","lat":-0.6669484,"lon":9.8202431,"type":"village"},{"id":"7023269692","name":"Ekorodo","lat":0.9245227,"lon":9.9420315,"type":"village"},{"id":"7023287423","name":"Essoua","lat":0.945763,"lon":9.9041963,"type":"village"},{"id":"7023330718","name":"Nzog Bour","lat":0.5753618,"lon":9.697355,"type":"village"},{"id":"7023719266","name":"Malibé","lat":0.5437467,"lon":9.3789131,"type":"village"},{"id":"7023758664","name":"Achouka","lat":-1.0888656,"lon":10.0175075,"type":"village"},{"id":"7023758681","name":"Mbangi","lat":-1.1152176,"lon":10.0218326,"type":"village"},{"id":"7023758683","name":"Odimba","lat":-1.1577772,"lon":9.9980092,"type":"village"},{"id":"7023800330","name":"Saint-Martin","lat":-1.6920039,"lon":10.9552856,"type":"village"},{"id":"7031983699","name":"Boundji","lat":-0.7998811,"lon":12.5813546,"type":"village"},{"id":"7099988419","name":"Oyou","lat":-1.352743,"lon":13.7716601,"type":"village"},{"id":"7099988426","name":"Assiami","lat":-1.4325366,"lon":13.7776762,"type":"village"},{"id":"7099988434","name":"Ondili","lat":-1.5646419,"lon":13.7751425,"type":"village"},{"id":"7150372885","name":"Ngola","lat":-0.9755853,"lon":9.0473311,"type":"village"},{"id":"7152431186","name":"Oguewa","lat":-0.9708576,"lon":10.1329115,"type":"village"},{"id":"7429882905","name":"Nzenzélé","lat":-2.2517893,"lon":11.7065676,"type":"town"},{"id":"7429882906","name":"Malinga","lat":-2.4554115,"lon":12.1669849,"type":"town"},{"id":"7430129242","name":"Lékindou","lat":-2.3561681,"lon":11.7517194,"type":"village"},{"id":"7430129243","name":"Rébé","lat":-2.3634012,"lon":11.8819353,"type":"village"},{"id":"7430602802","name":"Mabanda","lat":-2.8270085,"lon":11.5299981,"type":"town"},{"id":"7460673544","name":"Ekouyi-Mbouma","lat":-1.7919662,"lon":14.0651542,"type":"village"},{"id":"7460673756","name":"Léwou","lat":-1.7756146,"lon":14.1318577,"type":"village"},{"id":"7460673757","name":"Saye","lat":-1.7367291,"lon":14.1763499,"type":"village"},{"id":"7460787047","name":"Yia","lat":-1.2947669,"lon":14.2296194,"type":"village"},{"id":"7460787054","name":"Abila","lat":-1.3561503,"lon":14.1613464,"type":"village"},{"id":"7649007549","name":"Mbomo","lat":0.1436965,"lon":9.5312056,"type":"village"},{"id":"7660956010","name":"Asséwé","lat":-1.5417837,"lon":9.486756,"type":"village"},{"id":"7660956011","name":"Aniambie","lat":-1.8085572,"lon":9.2997659,"type":"village"},{"id":"7660956013","name":"Odjingo","lat":-1.6741581,"lon":9.2958603,"type":"village"},{"id":"7661231787","name":"Odimba","lat":-1.6428472,"lon":9.4021802,"type":"village"},{"id":"7868886197","name":"Doussala","lat":-2.6576881,"lon":11.5878712,"type":"village"},{"id":"7893347765","name":"Bakwaka","lat":0.1613161,"lon":13.6397318,"type":"village"},{"id":"7911325872","name":"Mboua","lat":-2.1533086,"lon":13.6399249,"type":"village"},{"id":"7914822389","name":"Popa","lat":-1.6025649,"lon":12.3046013,"type":"village"},{"id":"8006997846","name":"Olloba","lat":0.6620821,"lon":14.3627916,"type":"village"},{"id":"8006997847","name":"Ekata","lat":0.6774635,"lon":14.2981692,"type":"village"},{"id":"8006997860","name":"Mazingo","lat":1.3746958,"lon":14.0884119,"type":"village"},{"id":"8023486923","name":"Aboumi","lat":-0.6581686,"lon":14.1372802,"type":"village"},{"id":"8023486949","name":"Ndzomoe","lat":-0.0697011,"lon":9.4342305,"type":"town"},{"id":"8085633684","name":"Ingouaka","lat":-2.4061266,"lon":10.1423645,"type":"village"},{"id":"8085633697","name":"Simbakouani","lat":-2.3871184,"lon":10.153949,"type":"village"},{"id":"8086311243","name":"Moutouyeni","lat":-0.9919847,"lon":12.1923303,"type":"village"},{"id":"8086311251","name":"Baniaty","lat":-0.9987559,"lon":12.195404,"type":"village"},{"id":"8086311265","name":"Mbegho","lat":-1.0736769,"lon":12.3181435,"type":"village"},{"id":"8086311295","name":"Pangalongo","lat":-1.0911699,"lon":12.3723054,"type":"village"},{"id":"8086311296","name":"Kabala","lat":-1.6710775,"lon":14.4201734,"type":"village"},{"id":"8086311298","name":"Akou-Akala","lat":-1.6827529,"lon":14.386448,"type":"village"},{"id":"8086390735","name":"Doumassi","lat":2.1072523,"lon":12.1878851,"type":"village"},{"id":"8086390751","name":"Bitouga","lat":2.118652,"lon":12.1295523,"type":"village"},{"id":"8086390934","name":"Nsak","lat":2.2784195,"lon":12.0639059,"type":"village"},{"id":"8086390991","name":"Mindoumou","lat":2.2082385,"lon":12.1216883,"type":"village"},{"id":"8086391016","name":"Avelmang","lat":2.2227692,"lon":11.7410572,"type":"village"},{"id":"8086391017","name":"Bikondom","lat":2.2313083,"lon":11.7502625,"type":"village"},{"id":"8086391083","name":"Eboro","lat":2.2839223,"lon":11.4513242,"type":"village"},{"id":"8086391084","name":"Meyo-Kyé","lat":2.1771869,"lon":11.3638787,"type":"village"},{"id":"8096948112","name":"Ndjounou-Longa I","lat":-0.1674384,"lon":13.7485013,"type":"village"},{"id":"8096948113","name":"Makatamangoye I","lat":-0.1589546,"lon":13.7208679,"type":"village"},{"id":"8165022559","name":"Ekembélé","lat":-1.7060373,"lon":11.3628032,"type":"village"},{"id":"8165022562","name":"Mokabo","lat":-1.9111105,"lon":11.1833688,"type":"village"},{"id":"8165022576","name":"Massima","lat":-1.4359619,"lon":11.58827,"type":"village"},{"id":"8165022581","name":"Etéké","lat":-1.493041,"lon":11.4761984,"type":"village"},{"id":"8165208473","name":"Mouenda","lat":-2.9123205,"lon":10.5014862,"type":"village"},{"id":"8165208484","name":"Igotchi","lat":-2.8951778,"lon":10.5021689,"type":"village"},{"id":"8168095417","name":"Nzinga","lat":-3.0497795,"lon":11.6493344,"type":"village"},{"id":"8178022834","name":"Mbadi","lat":-2.1157579,"lon":11.1767276,"type":"village"},{"id":"8367625800","name":"Ikengué","lat":-1.5087077,"lon":9.4633484,"type":"village"},{"id":"8401586469","name":"Koudakoua","lat":-1.4446195,"lon":9.2366052,"type":"village"},{"id":"8401586474","name":"Arondoué","lat":-1.5002053,"lon":9.2669919,"type":"village"},{"id":"8401586476","name":"Essogoué","lat":-1.4488071,"lon":9.2947984,"type":"village"},{"id":"8401599267","name":"Oguendjo","lat":-1.3719462,"lon":9.0730132,"type":"village"},{"id":"8401620051","name":"Achanga","lat":-1.2111015,"lon":9.0202126,"type":"village"},{"id":"8401620053","name":"Alembétogo","lat":-1.2523157,"lon":9.0361351,"type":"village"},{"id":"8401637174","name":"Sambinanga","lat":-1.3630129,"lon":9.3496495,"type":"village"},{"id":"8401637222","name":"Madaganga","lat":-1.3798471,"lon":9.340691,"type":"village"},{"id":"8401666138","name":"Ikolié","lat":-0.9270758,"lon":9.5402205,"type":"village"},{"id":"8401666139","name":"Okolo","lat":-0.9148304,"lon":9.552505,"type":"village"},{"id":"8401666140","name":"Mboumba","lat":-0.8980956,"lon":9.6157622,"type":"village"},{"id":"8401675919","name":"Esendé II","lat":-0.9159568,"lon":9.5956993,"type":"village"},{"id":"8401675920","name":"Esendé I","lat":-0.9188961,"lon":9.5969117,"type":"village"},{"id":"8401675921","name":"Ngoumbi","lat":-0.9389082,"lon":9.604497,"type":"village"},{"id":"8401675935","name":"Kazé","lat":-0.9161499,"lon":9.6178973,"type":"village"},{"id":"8401712933","name":"Ngouaviri","lat":-1.0970745,"lon":9.3692565,"type":"village"},{"id":"8401720028","name":"Bengué","lat":-0.9614088,"lon":9.1899884,"type":"village"},{"id":"8407884333","name":"Obando","lat":-1.1032317,"lon":9.2718065,"type":"village"},{"id":"8407895357","name":"Bordeaux","lat":-0.8243083,"lon":10.1822152,"type":"village"},{"id":"8407895368","name":"Ompomouéna","lat":-0.8391755,"lon":10.1680157,"type":"village"},{"id":"8407895375","name":"Saint Benoit","lat":-0.8366129,"lon":10.1750028,"type":"village"},{"id":"8407895382","name":"Junckville","lat":-0.7516488,"lon":10.2104308,"type":"village"},{"id":"8407935665","name":"N'Dong","lat":-0.703397,"lon":10.1859784,"type":"village"},{"id":"8407935666","name":"Méléné","lat":-0.6984621,"lon":10.1891863,"type":"village"},{"id":"8407935693","name":"Boualé","lat":-0.7412507,"lon":10.1071912,"type":"village"},{"id":"8408014616","name":"Doumba","lat":-0.9695481,"lon":9.6003932,"type":"village"},{"id":"8408041860","name":"Nganda","lat":-1.0991769,"lon":9.043816,"type":"village"},{"id":"8408148099","name":"Mandji","lat":-0.6892467,"lon":9.9784398,"type":"village"},{"id":"8408171880","name":"Saint François","lat":-0.7508254,"lon":9.697414,"type":"village"},{"id":"8438445940","name":"Abogotom","lat":1.0036528,"lon":10.7608912,"type":"village"},{"id":"8440260196","name":"Abouyi","lat":-1.5850908,"lon":14.2426126,"type":"village"},{"id":"8440291476","name":"Edjangoulou","lat":-1.4927631,"lon":14.4189873,"type":"village"},{"id":"8464707169","name":"Bilengui","lat":-1.9620446,"lon":11.4089108,"type":"village"},{"id":"8464707232","name":"Mandji","lat":-2.1152313,"lon":11.581884,"type":"village"},{"id":"8467216380","name":"Ndenguilila","lat":-2.6565964,"lon":11.117,"type":"village"},{"id":"8503757922","name":"Messebe","lat":0.6155975,"lon":12.9068077,"type":"village"},{"id":"8510599040","name":"Massouna","lat":0.0534498,"lon":12.378425,"type":"village"},{"id":"8681129841","name":"Etougué","lat":-0.6753331,"lon":10.2657852,"type":"village"},{"id":"8722533533","name":"Boutika","lat":1.0590785,"lon":9.6661924,"type":"village"},{"id":"8809117504","name":"Egoumbi","lat":-1.8409497,"lon":11.43879,"type":"village"},{"id":"8809419503","name":"Mayébout II","lat":1.1360281,"lon":13.1085265,"type":"village"},{"id":"8809439122","name":"Mvadi","lat":1.2119012,"lon":13.1870186,"type":"village"},{"id":"8878387247","name":"Cachimba","lat":-2.7687695,"lon":10.3706549,"type":"village"},{"id":"8893573555","name":"Moukoko Mbaka","lat":-2.2643978,"lon":11.0307819,"type":"village"},{"id":"8955428170","name":"Odjouma","lat":-1.2602135,"lon":14.4371146,"type":"village"},{"id":"8955428175","name":"Ossiélé","lat":-0.8626885,"lon":14.1869263,"type":"village"},{"id":"8955428178","name":"Alanga","lat":-0.7468217,"lon":13.7752718,"type":"village"},{"id":"8955428179","name":"Makatamangoye II","lat":-0.1087662,"lon":13.6998623,"type":"village"},{"id":"8955804850","name":"Obéli","lat":-0.4790879,"lon":14.1358549,"type":"village"},{"id":"8955805055","name":"Omboye Frontière","lat":-0.5588236,"lon":14.213156,"type":"village"},{"id":"8969230366","name":"Essono","lat":2.277963,"lon":11.5185803,"type":"village"},{"id":"8969230367","name":"Nkolmengboua","lat":2.2399186,"lon":11.4942701,"type":"village"},{"id":"9005721688","name":"Medoumane","lat":-0.0312966,"lon":10.9995495,"type":"village"},{"id":"9005737726","name":"Lékoko-Village","lat":-2.0484203,"lon":12.9068627,"type":"village"},{"id":"9005737749","name":"Kougouleu","lat":0.403814,"lon":9.8875248,"type":"village"},{"id":"9005737786","name":"Akam Essatouk","lat":1.8067652,"lon":11.4260817,"type":"village"},{"id":"9006045725","name":"Lébéghé","lat":-2.0121445,"lon":11.9055945,"type":"village"},{"id":"9006045756","name":"Miyanga","lat":-1.994535,"lon":11.9122495,"type":"village"},{"id":"9017710961","name":"Mamidi","lat":-0.7514592,"lon":13.5621803,"type":"village"},{"id":"9017710962","name":"Mbabiri","lat":-0.7493501,"lon":13.5824186,"type":"village"},{"id":"9017718214","name":"Bambidie","lat":-0.7447728,"lon":12.9730598,"type":"village"},{"id":"9037278574","name":"Ndongolo I","lat":1.0331041,"lon":11.4477995,"type":"village"},{"id":"9038867415","name":"Abelassi","lat":1.0115909,"lon":11.3849392,"type":"village"},{"id":"9041571748","name":"Égnieng Melen","lat":1.0236053,"lon":10.8542991,"type":"village"},{"id":"9044148528","name":"La Sciérie","lat":0.7018683,"lon":13.1068718,"type":"village"},{"id":"9044148529","name":"Ngazi","lat":0.7116415,"lon":13.1323206,"type":"village"},{"id":"9044148530","name":"Pont de la Zadié","lat":0.7633904,"lon":13.1361374,"type":"village"},{"id":"9044148533","name":"Massaha","lat":0.7400889,"lon":13.1955542,"type":"village"},{"id":"9044148535","name":"Batouala","lat":0.8058217,"lon":13.4333396,"type":"village"},{"id":"9044148562","name":"Ikei Boca-Boca","lat":0.918172,"lon":13.696652,"type":"village"},{"id":"9045491308","name":"Zoolendé","lat":0.2633246,"lon":13.4484391,"type":"village"},{"id":"9046386954","name":"Saint Germain","lat":0.7155699,"lon":11.6274734,"type":"village"},{"id":"9047202062","name":"Ekalla II","lat":-1.3673455,"lon":14.1353567,"type":"village"},{"id":"9047202065","name":"Popa","lat":-0.5004602,"lon":13.1296998,"type":"village"},{"id":"9047202069","name":"Venez-Voir","lat":-0.495373,"lon":13.115557,"type":"village"},{"id":"9047202071","name":"Ndangui-Chute","lat":-0.5014211,"lon":13.0969925,"type":"village"},{"id":"9047202084","name":"Mbelatamanene","lat":-0.666555,"lon":12.9385912,"type":"village"},{"id":"9047218227","name":"Akiéni","lat":-0.6067927,"lon":12.92263,"type":"village"},{"id":"9047218250","name":"Iwembe","lat":-0.521115,"lon":13.0270073,"type":"village"},{"id":"9054244443","name":"Etakanyabe","lat":0.5367136,"lon":12.958244,"type":"village"},{"id":"9054244444","name":"Okok","lat":2.0973096,"lon":11.6748007,"type":"village"},{"id":"9054244445","name":"Carrefour Rabi","lat":-1.7405027,"lon":9.9774986,"type":"village"},{"id":"9054244481","name":"Petit Village","lat":-1.736804,"lon":9.9524656,"type":"village"},{"id":"9058170927","name":"Boungounga","lat":-1.5053281,"lon":10.487238,"type":"village"},{"id":"9058170970","name":"Bemboudie","lat":-1.4728352,"lon":10.5407163,"type":"village"},{"id":"9058170971","name":"Malongo-Mabey","lat":-1.510489,"lon":10.4320656,"type":"village"},{"id":"9058170972","name":"Fanguindaka","lat":-1.5280792,"lon":10.4082723,"type":"village"},{"id":"9058170973","name":"Kili","lat":-1.5520975,"lon":10.3694859,"type":"village"},{"id":"9058171049","name":"Kanana","lat":-1.6269879,"lon":10.3847946,"type":"village"},{"id":"9058171260","name":"Péni 1","lat":-2.0007961,"lon":10.4558524,"type":"village"},{"id":"9062678107","name":"Yeno","lat":-1.7412479,"lon":9.9094627,"type":"village"},{"id":"9062819921","name":"Matsouka","lat":-1.6071328,"lon":9.9280165,"type":"village"},{"id":"9062819939","name":"Nzambinatsiengui","lat":-1.566919,"lon":9.9971739,"type":"village"},{"id":"9062819980","name":"Fouanou","lat":-1.5789845,"lon":9.9593032,"type":"village"},{"id":"9062820031","name":"Moukouna","lat":-1.6648795,"lon":9.884282,"type":"village"},{"id":"9075854823","name":"Djandja","lat":-0.1217615,"lon":12.0462137,"type":"village"},{"id":"9108779756","name":"Diyanga","lat":-1.5160644,"lon":11.7289579,"type":"village"},{"id":"9108779767","name":"Moudouma","lat":-1.433036,"lon":11.99743,"type":"village"},{"id":"9108779779","name":"Imeno Plateau","lat":-1.4226204,"lon":12.0997731,"type":"village"},{"id":"9126710941","name":"Ebel Abanga","lat":-0.2743338,"lon":10.4805515,"type":"village"},{"id":"9130272910","name":"Edoung Avion","lat":0.5396072,"lon":12.8332619,"type":"village"},{"id":"9130341614","name":"Evouta 1","lat":-1.0628417,"lon":11.1891874,"type":"village"},{"id":"9130341631","name":"Ghéghouba","lat":-1.0271622,"lon":11.135336,"type":"village"},{"id":"9130341633","name":"Tchibanga","lat":-1.0432723,"lon":11.0944765,"type":"village"},{"id":"9130341634","name":"Ossimba","lat":-1.0410759,"lon":11.0779894,"type":"village"},{"id":"9130341636","name":"Tranquille","lat":-1.0398242,"lon":11.0623002,"type":"village"},{"id":"9130341637","name":"Nimbie 1","lat":-0.944057,"lon":10.7757468,"type":"village"},{"id":"9130341638","name":"Nimbie 2","lat":-0.9508328,"lon":10.7614869,"type":"village"},{"id":"9130341639","name":"Matadi 7","lat":-1.0012814,"lon":10.6756186,"type":"village"},{"id":"9130341686","name":"Song Sindara","lat":-1.0186636,"lon":10.6671441,"type":"village"},{"id":"9130341741","name":"Eghono","lat":-1.0135145,"lon":10.6692905,"type":"village"},{"id":"9130341849","name":"Bellevue 2","lat":-0.6174837,"lon":10.3949277,"type":"village"},{"id":"9130341850","name":"Bellevue 1","lat":-0.6113953,"lon":10.3920969,"type":"village"},{"id":"9130341876","name":"Nzamata (Camp AGROGABON)","lat":-0.595018,"lon":10.3670783,"type":"village"},{"id":"9135427461","name":"Divende","lat":-1.205694,"lon":12.0384622,"type":"village"},{"id":"9135427478","name":"Moukouagno 1","lat":-1.22495,"lon":12.0891252,"type":"village"},{"id":"9135427498","name":"Ndanda","lat":-1.2692946,"lon":12.1322671,"type":"village"},{"id":"9135427499","name":"Mouila Pouvi","lat":-1.3283777,"lon":12.1920229,"type":"village"},{"id":"9135427500","name":"Dibouka","lat":-1.3154189,"lon":12.2155533,"type":"village"},{"id":"9135427501","name":"Makoko","lat":-1.0178896,"lon":11.2639648,"type":"village"},{"id":"9240914535","name":"Bilanga","lat":-3.3554767,"lon":10.6948934,"type":"village"},{"id":"9240914589","name":"Mangali","lat":-3.3884679,"lon":10.6785224,"type":"village"},{"id":"9240917406","name":"Mpila-Koumbi","lat":-3.4465026,"lon":10.6947225,"type":"village"},{"id":"9240917442","name":"Rina Nzala","lat":-3.6365408,"lon":10.9533586,"type":"village"},{"id":"9240917456","name":"Tiya","lat":-3.6596574,"lon":10.9728937,"type":"village"},{"id":"9341257218","name":"Zogongone","lat":1.5668138,"lon":11.5163169,"type":"village"},{"id":"9341257221","name":"Effak Bibeigne I","lat":1.9807637,"lon":11.4191452,"type":"village"},{"id":"9341257223","name":"Obout","lat":1.7173024,"lon":11.5730351,"type":"village"},{"id":"9349198124","name":"Nsimi Esseng","lat":2.1333283,"lon":11.3654063,"type":"village"},{"id":"9349198125","name":"Tho Esseng","lat":2.1131236,"lon":11.3599542,"type":"village"},{"id":"9349198128","name":"Fong Essandone I","lat":1.9459488,"lon":11.3498287,"type":"village"},{"id":"9349198129","name":"Fong Essandone II","lat":1.9471563,"lon":11.3458012,"type":"village"},{"id":"9349198130","name":"Ekolayop Essabeigne","lat":1.8993883,"lon":11.3843887,"type":"village"},{"id":"9349198132","name":"Akamsi-Effak","lat":2.2692805,"lon":11.3897023,"type":"village"},{"id":"9349198133","name":"Alene Effak","lat":2.2244513,"lon":11.3664752,"type":"village"},{"id":"9349198134","name":"Nkoum Nkondjé","lat":1.7422099,"lon":11.4065747,"type":"village"},{"id":"9349198137","name":"Mvane III","lat":1.8335372,"lon":11.404791,"type":"village"},{"id":"9349198149","name":"Mvane I","lat":1.8642755,"lon":11.4043081,"type":"village"},{"id":"9349198154","name":"Ngozo Essabeigne","lat":1.9168789,"lon":11.4401847,"type":"village"},{"id":"9415590052","name":"Moupata","lat":-1.698377,"lon":12.1075707,"type":"village"},{"id":"9415590107","name":"Ndongui","lat":-1.8225746,"lon":11.9087811,"type":"village"},{"id":"9425008174","name":"Moukandi","lat":-1.472667,"lon":11.851915,"type":"village"},{"id":"9425020618","name":"Boulembou","lat":-1.4503713,"lon":11.9334042,"type":"village"},{"id":"9425020619","name":"Mounongo","lat":-1.4557341,"lon":11.8883882,"type":"village"},{"id":"9426676206","name":"Makongonio","lat":-2.0361729,"lon":11.6239774,"type":"village"},{"id":"9426676209","name":"Mayani","lat":-1.9275038,"lon":11.7852039,"type":"village"},{"id":"9426693435","name":"Imenou-Mbila","lat":-1.6957443,"lon":11.8441895,"type":"village"},{"id":"9426693436","name":"Imenou-Nzinga","lat":-1.7765643,"lon":11.8382276,"type":"village"},{"id":"9426693488","name":"Dibandi","lat":-1.5928666,"lon":11.7295794,"type":"village"},{"id":"9426865448","name":"Ebomane","lat":2.1669655,"lon":12.0613928,"type":"village"},{"id":"9426885724","name":"Ntournessol","lat":1.5897249,"lon":11.9717688,"type":"village"},{"id":"9426885752","name":"Bignomi","lat":-1.6917367,"lon":13.6763764,"type":"village"},{"id":"9426885764","name":"Ndjokaye","lat":-1.7383799,"lon":13.7354189,"type":"village"},{"id":"9426885777","name":"Bangoué-Ville","lat":-1.7502851,"lon":13.7508281,"type":"village"},{"id":"9426885800","name":"Youlou","lat":-1.7686594,"lon":13.7755215,"type":"village"},{"id":"9426885829","name":"Onkoua","lat":-1.7947634,"lon":13.8321288,"type":"village"},{"id":"9426885857","name":"Kébiri","lat":-1.8398808,"lon":14.0185036,"type":"village"},{"id":"9434286464","name":"Mambonga","lat":-2.0435882,"lon":12.1515846,"type":"village"},{"id":"9434286536","name":"Moukoumbi 2","lat":-2.0375364,"lon":12.1682253,"type":"village"},{"id":"9434286561","name":"Mayigha Lembe","lat":-2.0481765,"lon":12.1453089,"type":"village"},{"id":"9434286676","name":"Baposso","lat":-2.0842871,"lon":12.1341443,"type":"village"},{"id":"9434286800","name":"Moukouagna","lat":-2.3105402,"lon":12.2306098,"type":"village"},{"id":"9434493825","name":"Kassiele","lat":-1.2122328,"lon":13.8949253,"type":"village"},{"id":"9441911252","name":"La Plaine Akanabour","lat":0.3355639,"lon":9.671984,"type":"village"},{"id":"9441911347","name":"Ayémé","lat":0.3160967,"lon":9.6762407,"type":"village"},{"id":"9446059470","name":"Boudianguila","lat":-1.3975067,"lon":12.1582721,"type":"village"},{"id":"9446059496","name":"Moughounda","lat":-1.3883889,"lon":12.1511222,"type":"village"},{"id":"9446059538","name":"Ndjolé","lat":-1.2829016,"lon":12.2904189,"type":"village"},{"id":"9455565951","name":"Eloun","lat":0.9986002,"lon":9.9992108,"type":"village"},{"id":"9458218260","name":"Bayadi","lat":-3.2162657,"lon":11.2707618,"type":"village"},{"id":"9620818746","name":"Ramba","lat":-0.3696821,"lon":11.7867373,"type":"village"},{"id":"9620818774","name":"Mikongo II","lat":-0.3223145,"lon":11.7563212,"type":"village"},{"id":"9698460672","name":"Ayémé Agoula","lat":0.4301583,"lon":9.9722051,"type":"village"},{"id":"9698460673","name":"Ndouanieng","lat":0.3044403,"lon":10.0287881,"type":"village"},{"id":"9727026076","name":"Ichinga 2","lat":-2.3330368,"lon":11.4892182,"type":"village"},{"id":"9727041158","name":"Ichinga 1","lat":-2.329828,"lon":11.4770874,"type":"village"},{"id":"9727041178","name":"Mourembou","lat":-2.3098999,"lon":11.4283965,"type":"village"},{"id":"9727041223","name":"Longo","lat":-2.4452467,"lon":12.171889,"type":"village"},{"id":"9727041441","name":"Mabanga","lat":-2.2810228,"lon":11.6029249,"type":"village"},{"id":"9727041442","name":"Mbelenaletembe","lat":-2.3472578,"lon":11.5978586,"type":"village"},{"id":"9727041443","name":"Nzingui","lat":-2.3524537,"lon":11.642364,"type":"village"},{"id":"9727041454","name":"Mbinambi","lat":-2.3441614,"lon":11.6686827,"type":"village"},{"id":"9727041500","name":"Nzoundou","lat":-2.2909774,"lon":11.4875363,"type":"village"},{"id":"9839880019","name":"Mipoundi","lat":-1.7744821,"lon":13.0377399,"type":"village"},{"id":"9942699307","name":"Maléba","lat":-0.2946905,"lon":10.516089,"type":"village"},{"id":"9942699309","name":"Mbilanten","lat":-0.3044569,"lon":10.4947412,"type":"village"},{"id":"9990460523","name":"Mvamzaman","lat":-0.9078239,"lon":10.1780744,"type":"village"},{"id":"9990460576","name":"Negue Ntogolo","lat":-0.9808922,"lon":10.0660844,"type":"village"},{"id":"10703920561","name":"Baka","lat":-0.1026216,"lon":11.7886087,"type":"village"},{"id":"10703922119","name":"Kazamabika","lat":-0.1199988,"lon":11.6965315,"type":"village"},{"id":"10703925806","name":"Makogué","lat":-0.162779,"lon":11.7487492,"type":"village"},{"id":"10711367665","name":"Viafé","lat":0.3239474,"lon":11.4142236,"type":"village"},{"id":"10712372888","name":"Mimbeng 1","lat":1.2920658,"lon":11.6837576,"type":"village"},{"id":"10727868802","name":"Elone","lat":0.1475052,"lon":9.3591775,"type":"village"},{"id":"10727878690","name":"Bissobinam","lat":0.028952,"lon":9.465498,"type":"village"},{"id":"10727897822","name":"Obeloville","lat":0.1153932,"lon":9.4180536,"type":"village"},{"id":"10727897918","name":"Oveng","lat":0.0900754,"lon":9.4246559,"type":"village"},{"id":"10727900239","name":"Alarmeke","lat":0.0811929,"lon":9.4206123,"type":"village"},{"id":"10727901816","name":"Matec Mavic","lat":0.0705526,"lon":9.4258432,"type":"village"},{"id":"10727908094","name":"Ayeme","lat":0.1340436,"lon":9.4231653,"type":"village"},{"id":"10752730139","name":"Oboui","lat":0.9793583,"lon":10.9555846,"type":"village"},{"id":"10771181665","name":"Ntchatanga","lat":-0.8251262,"lon":10.1191699,"type":"village"},{"id":"10829001157","name":"Adzap Essatop","lat":2.0755864,"lon":11.4324331,"type":"village"},{"id":"10829001162","name":"Melen III","lat":2.0605222,"lon":11.3702273,"type":"village"},{"id":"10967429110","name":"Nkonga","lat":0.0080474,"lon":9.5547447,"type":"village"},{"id":"10968195003","name":"Basile","lat":0.0836326,"lon":9.8942041,"type":"village"},{"id":"10968208883","name":"Atone Simba","lat":0.1397787,"lon":9.4980068,"type":"village"},{"id":"10968213007","name":"Mvong Ayong","lat":-0.0030778,"lon":9.8827338,"type":"village"},{"id":"10969119346","name":"Village d'Ekwata","lat":0.3256752,"lon":9.3156247,"type":"village"},{"id":"11007147850","name":"Moukoumbi","lat":-1.1231695,"lon":12.8994064,"type":"village"},{"id":"11007147851","name":"Mandjaye","lat":-1.3033102,"lon":13.0820732,"type":"village"},{"id":"11007147852","name":"Boundjoukou","lat":-1.139086,"lon":12.9493914,"type":"village"},{"id":"11007150982","name":"Kokomounguele","lat":-0.7550944,"lon":12.9391489,"type":"village"},{"id":"11007157681","name":"Tsaty","lat":-1.0341583,"lon":12.8661013,"type":"village"},{"id":"11007159178","name":"Tsotanzala","lat":-1.2821558,"lon":13.0284548,"type":"village"},{"id":"11007160192","name":"Lingara","lat":-0.8010013,"lon":12.7867012,"type":"village"},{"id":"11007160195","name":"Libongui","lat":-1.1250509,"lon":12.9138203,"type":"village"},{"id":"11007162243","name":"Souaka","lat":-0.8067728,"lon":12.7928982,"type":"village"},{"id":"11007166855","name":"Idiba Bambera","lat":-1.1838671,"lon":12.965107,"type":"village"},{"id":"11007166856","name":"Mafoungui","lat":-1.3024724,"lon":13.0676508,"type":"village"},{"id":"11007169871","name":"Miloba-Likéka","lat":-1.1956098,"lon":12.9709911,"type":"village"},{"id":"11007170680","name":"Lipaka 2","lat":-1.0242743,"lon":12.8360538,"type":"village"},{"id":"11007171962","name":"Bembicani","lat":-0.9615068,"lon":12.8108492,"type":"village"},{"id":"11007176498","name":"Manamana","lat":-1.0393089,"lon":12.8771191,"type":"village"},{"id":"11007177304","name":"Imono","lat":-0.7564267,"lon":12.9377899,"type":"village"},{"id":"11007178970","name":"Bassegha","lat":-0.8138491,"lon":12.8142691,"type":"village"},{"id":"11007178971","name":"Vouvou","lat":-1.1729099,"lon":12.961237,"type":"village"},{"id":"11007181205","name":"Mivengue","lat":-0.8274227,"lon":12.8970575,"type":"village"},{"id":"11007181206","name":"Matsatsa","lat":-1.244049,"lon":12.9983749,"type":"village"},{"id":"11028552887","name":"Iguendja","lat":-0.6891201,"lon":9.1256971,"type":"village"},{"id":"11028554185","name":"Mporaloko","lat":-0.7123357,"lon":9.1487989,"type":"village"},{"id":"11061139369","name":"Batanga","lat":-0.3452833,"lon":9.3050976,"type":"village"},{"id":"11061143989","name":"Emanagouga","lat":-0.7116818,"lon":9.1588259,"type":"village"},{"id":"11061148746","name":"Ekwa","lat":-0.7278427,"lon":9.1415148,"type":"village"},{"id":"11061173512","name":"Ekwata","lat":-0.2006489,"lon":9.3126488,"type":"village"},{"id":"11061173513","name":"Saint Pierre","lat":-0.7910809,"lon":9.1646395,"type":"village"},{"id":"11061174118","name":"Abélogo 1","lat":-0.9205686,"lon":9.4667101,"type":"village"},{"id":"11067339956","name":"Lekei","lat":-1.4967759,"lon":13.7968379,"type":"village"},{"id":"11085847559","name":"Enieng","lat":1.1584307,"lon":11.7026248,"type":"village"},{"id":"11586972264","name":"Panga","lat":-3.2282442,"lon":10.5570621,"type":"village"},{"id":"12162294097","name":"Camp de Police-Akournam","lat":0.3458147,"lon":9.4920479,"type":"city_block"},{"id":"12265423644","name":"Akanda","lat":0.5164243,"lon":9.3882201,"type":"city"},{"id":"12698328991","name":"Mbomo","lat":0.5077275,"lon":12.9995754,"type":"village"},{"id":"12698446910","name":"Indombo","lat":0.3356175,"lon":13.1597006,"type":"village"},{"id":"12698446911","name":"Mohoba","lat":0.3177543,"lon":13.2243901,"type":"village"},{"id":"12698454414","name":"Yoko","lat":0.0418907,"lon":13.6502874,"type":"village"},{"id":"12698454415","name":"Makébé","lat":0.1857695,"lon":13.6055964,"type":"village"},{"id":"12698454416","name":"Tourouwaya","lat":0.213321,"lon":13.5272276,"type":"village"},{"id":"12698454417","name":"Mélondo","lat":0.2261686,"lon":13.5033828,"type":"village"},{"id":"12698454418","name":"Mendjé","lat":0.2671578,"lon":13.3903599,"type":"village"},{"id":"12698454419","name":"Mbéla","lat":0.2886528,"lon":13.3263892,"type":"village"},{"id":"12951440206","name":"Nzamaligué","lat":-0.8408584,"lon":10.182513,"type":"village"},{"id":"12951440219","name":"Rondani","lat":-0.885488,"lon":10.1205298,"type":"village"},{"id":"12985464993","name":"Nlong","lat":-1.0663668,"lon":10.0474068,"type":"village"},{"id":"13246522220","name":"Makadioum","lat":-0.7482936,"lon":12.5856972,"type":"village"},{"id":"13294148127","name":"Woubele","lat":0.0800156,"lon":10.1959991,"type":"village"},{"id":"13294148156","name":"Ayeme","lat":0.0603712,"lon":10.2392954,"type":"village"},{"id":"13294148157","name":"Oyam","lat":0.0200146,"lon":10.3001708,"type":"village"},{"id":"13314241524","name":"Nzaswema","lat":-1.0714961,"lon":10.5866683,"type":"village"},{"id":"13314241525","name":"Baraka","lat":-1.0512436,"lon":10.5367792,"type":"village"},{"id":"13430297132","name":"Oundou","lat":-1.4959715,"lon":10.8516383,"type":"village"},{"id":"13752135924","name":"Moussambou","lat":-2.2606522,"lon":11.4110023,"type":"village"},{"id":"13755056257","name":"Vieux Tono","lat":-2.9200416,"lon":10.7286644,"type":"village"},{"id":"13798329107","name":"Nkoo","lat":-1.5781785,"lon":14.2045176,"type":"village"},{"id":"13799993951","name":"Nkô","lat":1.2047702,"lon":11.5059149,"type":"village"},{"id":"13812664742","name":"Kabaga","lat":-1.366102,"lon":13.91478,"type":"village"},{"id":"13823181277","name":"Doumvou","lat":-3.3589412,"lon":10.7433468,"type":"village"},{"id":"13830582051","name":"Boumango","lat":-2.2266866,"lon":13.613525,"type":"town"},{"id":"13855389437","name":"Mvoumou","lat":-2.2961178,"lon":13.4499478,"type":"village"},{"id":"13855389438","name":"Bafoumou 3","lat":-2.2364103,"lon":13.5848817,"type":"village"},{"id":"13855389439","name":"Mouyabi","lat":-2.2398838,"lon":13.5732758,"type":"village"},{"id":"13855389440","name":"Doumaye","lat":-2.2415026,"lon":13.5807162,"type":"village"},{"id":"13855389441","name":"Maloundou 1","lat":-2.1750922,"lon":13.6416936,"type":"village"},{"id":"13855389442","name":"Maloundou 2","lat":-2.1613825,"lon":13.6353207,"type":"village"},{"id":"13855389443","name":"Mougouango","lat":-2.0098926,"lon":13.6102152,"type":"village"},{"id":"13855389468","name":"Ndzakiville","lat":-1.9531924,"lon":13.5781011,"type":"village"},{"id":"13855389480","name":"Moupia","lat":-1.8159644,"lon":13.6075973,"type":"village"},{"id":"13855389486","name":"Mougnenguelé-Poubara","lat":-1.7616226,"lon":13.5444126,"type":"village"},{"id":"13855734493","name":"Benguia I","lat":-1.6258211,"lon":13.5153049,"type":"village"},{"id":"13855734494","name":"Benguia II","lat":-1.6326875,"lon":13.4915317,"type":"village"},{"id":"13855734495","name":"Moulende","lat":-1.62932,"lon":13.4538,"type":"village"},{"id":"13855734496","name":"Mapouba","lat":-1.6316836,"lon":13.4192586,"type":"village"},{"id":"13855734498","name":"Mouega","lat":-1.6701198,"lon":13.3562636,"type":"village"},{"id":"13855734499","name":"Djoutou","lat":-1.6724058,"lon":13.344904,"type":"village"},{"id":"13893253982","name":"Doumé","lat":-0.8434921,"lon":12.9617,"type":"village"},{"id":"13894147999","name":"Medzome","lat":1.4677588,"lon":11.4628547,"type":"village"},{"id":"13894209011","name":"Mbolenzok-Ngouh","lat":1.4749796,"lon":11.4635172,"type":"village"}]