[{"id":"246514396","name":"St. George's","lat":12.0535331,"lon":-61.751805,"type":"town"},{"id":"271610676","name":"Top Hill","lat":12.4769057,"lon":-61.4473766,"type":"village"},{"id":"279031056","name":"Grenville","lat":12.1228312,"lon":-61.6225151,"type":"town"},{"id":"279034145","name":"Grand Bay","lat":12.4736418,"lon":-61.4349593,"type":"village"},{"id":"279034393","name":"Hillsborough","lat":12.4833286,"lon":-61.4567557,"type":"town"},{"id":"279034508","name":"Sauteurs","lat":12.2251172,"lon":-61.6379798,"type":"town"},{"id":"279034512","name":"Victoria","lat":12.1952359,"lon":-61.7050822,"type":"town"},{"id":"279034566","name":"Gouyave","lat":12.1665178,"lon":-61.7297144,"type":"town"},{"id":"279035139","name":"Grand Roy","lat":12.1321235,"lon":-61.7458089,"type":"village"},{"id":"279035371","name":"Calivigny","lat":12.0166739,"lon":-61.7249223,"type":"town"},{"id":"279035834","name":"Marquis","lat":12.0965669,"lon":-61.6263412,"type":"village"},{"id":"279042771","name":"Tivoli","lat":12.1728809,"lon":-61.6197047,"type":"village"},{"id":"288863935","name":"Grand Anse","lat":12.0240306,"lon":-61.7570692,"type":"town"},{"id":"288865641","name":"Morne Rouge","lat":12.020477,"lon":-61.7706878,"type":"village"},{"id":"288878676","name":"Lance Aux Epines","lat":11.9960987,"lon":-61.7571328,"type":"village"},{"id":"288911384","name":"Westerhall Point","lat":12.0100923,"lon":-61.7023135,"type":"village"},{"id":"1012241053","name":"Westerhall","lat":12.0185962,"lon":-61.6964311,"type":"village"},{"id":"1012241057","name":"Marian","lat":12.0266553,"lon":-61.72615,"type":"village"},{"id":"1012241062","name":"Morne Jaloux","lat":12.0374843,"lon":-61.7338963,"type":"village"},{"id":"1012241064","name":"Fort Jeudy","lat":12.0088789,"lon":-61.7142839,"type":"village"},{"id":"1012878556","name":"Marlborough","lat":12.0444325,"lon":-61.7263938,"type":"village"},{"id":"1014178157","name":"New Westerhall","lat":12.0020043,"lon":-61.710365,"type":"village"},{"id":"1018050027","name":"Pomme Rose","lat":12.0594959,"lon":-61.6570538,"type":"village"},{"id":"1018050030","name":"Crochu","lat":12.0628534,"lon":-61.6477841,"type":"village"},{"id":"1018050033","name":"Mount Carmel","lat":12.0914738,"lon":-61.6389435,"type":"village"},{"id":"1018050035","name":"Soubise","lat":12.1079024,"lon":-61.6284255,"type":"village"},{"id":"1018050041","name":"Hope Vale","lat":12.0330966,"lon":-61.7266625,"type":"village"},{"id":"1018050045","name":"La Borie","lat":12.0420366,"lon":-61.728422,"type":"village"},{"id":"1018050050","name":"Providence","lat":12.0519415,"lon":-61.6779107,"type":"village"},{"id":"3073687240","name":"Windward","lat":12.5159402,"lon":-61.4314345,"type":"village"},{"id":"3092755093","name":"Bogles","lat":12.5026024,"lon":-61.449015,"type":"village"},{"id":"3092755094","name":"Dover","lat":12.5071194,"lon":-61.4325835,"type":"village"},{"id":"3092755095","name":"L'Esterre","lat":12.471685,"lon":-61.4830315,"type":"village"},{"id":"3092785448","name":"Belmont","lat":12.4502397,"lon":-61.4750305,"type":"village"},{"id":"3092785449","name":"Hermitage","lat":12.4508447,"lon":-61.4886372,"type":"village"},{"id":"3092785451","name":"Mount Pleasant","lat":12.4796018,"lon":-61.434828,"type":"village"},{"id":"3092785452","name":"Six Roads","lat":12.4680544,"lon":-61.4607345,"type":"village"},{"id":"3101780443","name":"Telescope","lat":12.1268937,"lon":-61.6161677,"type":"village"},{"id":"3101780444","name":"Harford","lat":12.1183044,"lon":-61.6381579,"type":"village"},{"id":"3116669167","name":"Grand Mal","lat":12.0797231,"lon":-61.7556107,"type":"village"},{"id":"3116669168","name":"Mount Moritz","lat":12.0815476,"lon":-61.7472944,"type":"village"},{"id":"3136145307","name":"Clozier","lat":12.1436196,"lon":-61.6978184,"type":"village"},{"id":"3136145308","name":"Florida","lat":12.1605209,"lon":-61.7045871,"type":"village"},{"id":"3136145309","name":"Saint Mary","lat":12.1498541,"lon":-61.7033476,"type":"village"},{"id":"3136152626","name":"Brizan","lat":12.1036566,"lon":-61.7515957,"type":"village"},{"id":"3136152627","name":"Happy Hill","lat":12.0916225,"lon":-61.7533519,"type":"village"},{"id":"3136152628","name":"Marigot","lat":12.1264886,"lon":-61.7464027,"type":"village"},{"id":"3136152829","name":"Moliniere","lat":12.0851046,"lon":-61.7587317,"type":"village"},{"id":"3136156129","name":"Hermitage","lat":12.1766094,"lon":-61.6353812,"type":"village"},{"id":"3136156130","name":"Morne Fendue","lat":12.2099918,"lon":-61.6309024,"type":"village"},{"id":"3136156131","name":"Mount Rich","lat":12.1910051,"lon":-61.6450934,"type":"village"},{"id":"3136156132","name":"River Sallee","lat":12.1980359,"lon":-61.6154241,"type":"village"},{"id":"3772090759","name":"Union","lat":12.2083817,"lon":-61.6612659,"type":"village"},{"id":"3865015437","name":"Grand Anse Housing Scheme","lat":12.0157144,"lon":-61.7620843,"type":"village"},{"id":"4354437167","name":"La Poterie","lat":12.1715978,"lon":-61.6084041,"type":"village"},{"id":"4365182479","name":"Simon","lat":12.1395717,"lon":-61.6134314,"type":"village"},{"id":"4436733463","name":"Loretto","lat":12.1619084,"lon":-61.7196212,"type":"village"},{"id":"4575827607","name":"Beausejour","lat":12.0988322,"lon":-61.7518363,"type":"village"},{"id":"4576156121","name":"Duquesne","lat":12.2195732,"lon":-61.6799997,"type":"village"},{"id":"4578046957","name":"Mount Parnassus","lat":12.0576767,"lon":-61.7259104,"type":"village"},{"id":"4578065293","name":"Woburn","lat":12.0225555,"lon":-61.7356054,"type":"village"},{"id":"4578065294","name":"Corinth","lat":12.036702,"lon":-61.6782976,"type":"village"},{"id":"4578065295","name":"La Sagesse","lat":12.0323484,"lon":-61.673316,"type":"village"},{"id":"4578065296","name":"Bellevue","lat":12.0525179,"lon":-61.6621146,"type":"village"},{"id":"4578065297","name":"Grand Bras","lat":12.1226065,"lon":-61.6319976,"type":"village"},{"id":"4578065298","name":"Clabony","lat":12.1355416,"lon":-61.6507609,"type":"village"},{"id":"4578065299","name":"Pearls","lat":12.148885,"lon":-61.6200127,"type":"village"},{"id":"4578065300","name":"Snell Hall","lat":12.2069661,"lon":-61.6350758,"type":"village"},{"id":"4578065301","name":"True Blue","lat":12.0013683,"lon":-61.7671994,"type":"village"},{"id":"4578076779","name":"Mount Craven","lat":12.2210233,"lon":-61.6474316,"type":"village"},{"id":"4578079192","name":"Mount Rodney","lat":12.2190215,"lon":-61.6485035,"type":"village"},{"id":"4578079193","name":"Mount Alexander","lat":12.2310082,"lon":-61.657771,"type":"village"},{"id":"4578133926","name":"Egmont","lat":12.0083197,"lon":-61.7265552,"type":"village"},{"id":"4578867313","name":"Perdmontemps","lat":12.0503961,"lon":-61.7070928,"type":"village"},{"id":"4578889246","name":"Old Westerhall","lat":12.0250767,"lon":-61.7049518,"type":"village"},{"id":"4578899555","name":"Mardigras","lat":12.0525432,"lon":-61.7209879,"type":"village"},{"id":"4579452361","name":"Waltham","lat":12.2071983,"lon":-61.6971805,"type":"village"},{"id":"4579453329","name":"Non Pariel","lat":12.2132047,"lon":-61.6895447,"type":"village"},{"id":"4579760775","name":"Marlmount","lat":12.0541854,"lon":-61.6585263,"type":"village"},{"id":"4579765566","name":"Maran","lat":12.1751951,"lon":-61.7232956,"type":"village"},{"id":"4579784056","name":"Concord","lat":12.1176003,"lon":-61.7387086,"type":"village"},{"id":"4579787286","name":"Cherry Hill","lat":12.063602,"lon":-61.7560773,"type":"village"},{"id":"4579790544","name":"River Road","lat":12.0588997,"lon":-61.7494013,"type":"village"},{"id":"4579794653","name":"Darbeau","lat":12.0658523,"lon":-61.7502019,"type":"village"},{"id":"4579803715","name":"Annandale","lat":12.0867946,"lon":-61.7168199,"type":"village"},{"id":"4579809128","name":"Willis","lat":12.0858023,"lon":-61.7193971,"type":"village"},{"id":"4580149854","name":"La Mode","lat":12.0669127,"lon":-61.7344865,"type":"village"},{"id":"4580150469","name":"Boca","lat":12.0761743,"lon":-61.7259168,"type":"village"},{"id":"4580150754","name":"Beaulieu","lat":12.0745469,"lon":-61.730845,"type":"village"},{"id":"4580154694","name":"Nianganfoix","lat":12.1195466,"lon":-61.6713777,"type":"village"},{"id":"4580314667","name":"Mount Hartman","lat":12.0087212,"lon":-61.7451633,"type":"village"},{"id":"4580335279","name":"Saint Paul's","lat":12.0500058,"lon":-61.7250332,"type":"village"},{"id":"4580781517","name":"Calliste","lat":12.0091847,"lon":-61.7772089,"type":"village"},{"id":"4580784422","name":"Frequente","lat":12.0110262,"lon":-61.7706754,"type":"village"},{"id":"4580785922","name":"Mont Toute","lat":12.0189885,"lon":-61.7553706,"type":"village"},{"id":"4580791467","name":"Vendome","lat":12.0821064,"lon":-61.7130325,"type":"village"},{"id":"4580794706","name":"Samaritan","lat":12.204573,"lon":-61.6696889,"type":"village"},{"id":"4580801918","name":"Birchgrove","lat":12.1119369,"lon":-61.6722062,"type":"village"},{"id":"4580804277","name":"Paradise","lat":12.1380629,"lon":-61.6218969,"type":"village"},{"id":"4580806965","name":"Laura","lat":12.0392535,"lon":-61.6987478,"type":"village"},{"id":"4580816377","name":"Conference","lat":12.1603548,"lon":-61.6173921,"type":"village"},{"id":"4580820137","name":"La Taste","lat":12.1978872,"lon":-61.6258367,"type":"village"},{"id":"4580828371","name":"Mount Rose","lat":12.1842357,"lon":-61.6260802,"type":"village"},{"id":"4580838978","name":"Mount Granby","lat":12.1423824,"lon":-61.7253123,"type":"village"},{"id":"4580840151","name":"Belvidere","lat":12.1306719,"lon":-61.6896298,"type":"village"},{"id":"4580845752","name":"Dougaldston","lat":12.1587595,"lon":-61.7294575,"type":"village"},{"id":"4580848192","name":"Chantimelle","lat":12.2088104,"lon":-61.6639626,"type":"village"},{"id":"4582408403","name":"Levera","lat":12.2226081,"lon":-61.6084447,"type":"village"},{"id":"4582408649","name":"Bathway","lat":12.2093939,"lon":-61.6166312,"type":"village"},{"id":"4582409262","name":"Mount Nesbit","lat":12.1486984,"lon":-61.7311551,"type":"village"},{"id":"4582629472","name":"Fontenoy","lat":12.0686128,"lon":-61.7527717,"type":"village"},{"id":"4583619374","name":"Moya","lat":12.1543674,"lon":-61.6242289,"type":"village"},{"id":"4583630224","name":"Paraclete","lat":12.1496403,"lon":-61.6442298,"type":"village"},{"id":"4583631547","name":"Mount Horne","lat":12.1437504,"lon":-61.6478898,"type":"village"},{"id":"4583633545","name":"La Filette","lat":12.1392768,"lon":-61.6349016,"type":"village"},{"id":"4586826519","name":"Black Bay","lat":12.1180782,"lon":-61.7410209,"type":"village"},{"id":"4594263015","name":"La Fortune","lat":12.2187365,"lon":-61.6347142,"type":"village"},{"id":"4594274402","name":"Rose Hill","lat":12.2102074,"lon":-61.624991,"type":"village"},{"id":"4594280609","name":"Marli","lat":12.2176822,"lon":-61.6444494,"type":"village"},{"id":"4783739389","name":"Morne Gazo","lat":12.0478775,"lon":-61.7088034,"type":"village"},{"id":"4798701418","name":"Mallfoot","lat":12.0837172,"lon":-61.7185516,"type":"village"},{"id":"4798774966","name":"Grenville Vale","lat":12.0883103,"lon":-61.7350511,"type":"village"},{"id":"7135279277","name":"Argyle","lat":12.4580069,"lon":-61.4795034,"type":"village"},{"id":"10782730130","name":"Confer","lat":12.0214075,"lon":-61.7232461,"type":"village"}]