[{"id":"27565080","name":"Accra","lat":5.5571096,"lon":-0.2012376,"type":"city"},{"id":"30933189","name":"Kogni","lat":9.5367996,"lon":-0.8375848,"type":"village"},{"id":"30933249","name":"Yilonayili","lat":9.5484879,"lon":-0.8370184,"type":"village"},{"id":"30933256","name":"Damankuyili","lat":9.5141827,"lon":-0.8410862,"type":"village"},{"id":"30933257","name":"Nyeshei","lat":9.5191976,"lon":-0.8404596,"type":"village"},{"id":"30933272","name":"Dungu","lat":9.4892844,"lon":-0.8450459,"type":"village"},{"id":"30933440","name":"Tamale","lat":9.4051992,"lon":-0.8423986,"type":"city"},{"id":"31211486","name":"Jabalpe","lat":9.3186076,"lon":-0.9460318,"type":"village"},{"id":"31211487","name":"Zanzugu","lat":9.3025988,"lon":-0.9578968,"type":"village"},{"id":"31211489","name":"Yipala","lat":9.289895,"lon":-0.9747159,"type":"village"},{"id":"31211493","name":"Datoyili","lat":9.345941,"lon":-0.9101804,"type":"village"},{"id":"31211498","name":"Yahayape","lat":9.2393211,"lon":-1.0388195,"type":"village"},{"id":"31211501","name":"Sakunpe","lat":9.2349565,"lon":-1.0427815,"type":"village"},{"id":"31211506","name":"Yapei","lat":9.151125,"lon":-1.149778,"type":"village"},{"id":"31211511","name":"Alipe","lat":9.1955001,"lon":-1.0864047,"type":"village"},{"id":"31211512","name":"Jiramoape","lat":9.2103995,"lon":-1.0707442,"type":"village"},{"id":"94075172","name":"Donkorkrom","lat":7.0471118,"lon":-0.0809551,"type":"town"},{"id":"132021012","name":"Takoradi","lat":4.887401,"lon":-1.7519316,"type":"town"},{"id":"132021927","name":"Sekondi","lat":4.937,"lon":-1.7127928,"type":"town"},{"id":"132045615","name":"Saltpond","lat":5.203008,"lon":-1.057419,"type":"town"},{"id":"132104571","name":"Kokrobite","lat":5.497718,"lon":-0.364879,"type":"village"},{"id":"132115667","name":"Oshiyie","lat":5.5006739,"lon":-0.3525536,"type":"village"},{"id":"132116626","name":"Bortianor","lat":5.5078931,"lon":-0.3362458,"type":"village"},{"id":"240023188","name":"Elmina","lat":5.085879,"lon":-1.350578,"type":"town"},{"id":"261702404","name":"Kumasi","lat":6.6985605,"lon":-1.6233086,"type":"city"},{"id":"318342092","name":"Mampong","lat":7.056139,"lon":-1.40425,"type":"town"},{"id":"326537526","name":"Yeji","lat":8.228573,"lon":-0.648912,"type":"town"},{"id":"329971473","name":"Lilikse","lat":10.7953551,"lon":-2.085358,"type":"village"},{"id":"330058453","name":"Wa","lat":10.0623261,"lon":-2.5054273,"type":"city"},{"id":"330232036","name":"Nkwanka","lat":7.2150632,"lon":-1.7924998,"type":"village"},{"id":"330232214","name":"Namong","lat":6.9645329,"lon":-1.6794021,"type":"village"},{"id":"330232218","name":"Adukro","lat":6.9502768,"lon":-1.6716345,"type":"village"},{"id":"330232269","name":"Akom","lat":6.8478866,"lon":-1.6491617,"type":"village"},{"id":"330232323","name":"Nkukua Buoho","lat":6.7947443,"lon":-1.6459123,"type":"village"},{"id":"330232703","name":"Techiman","lat":7.584971,"lon":-1.936401,"type":"city"},{"id":"330250076","name":"Wenchi","lat":7.738011,"lon":-2.103519,"type":"town"},{"id":"330593382","name":"Hohoe","lat":7.153187,"lon":0.477735,"type":"town"},{"id":"344158618","name":"Salaga","lat":8.550609,"lon":-0.519653,"type":"town"},{"id":"344193321","name":"Busunu","lat":9.1651292,"lon":-1.5064319,"type":"village"},{"id":"373425495","name":"Achimota","lat":5.6242019,"lon":-0.2276807,"type":"town"},{"id":"434389500","name":"Navrongo","lat":10.8928117,"lon":-1.0883729,"type":"town"},{"id":"434391959","name":"Pina","lat":10.8874226,"lon":-1.7490438,"type":"town"},{"id":"434392990","name":"Issa","lat":10.3922603,"lon":-2.3316625,"type":"village"},{"id":"434393018","name":"Wogu","lat":10.4178603,"lon":-2.3855958,"type":"village"},{"id":"434393034","name":"Bussie","lat":10.48075,"lon":-2.501745,"type":"village"},{"id":"434393064","name":"Daffiamah","lat":10.4203401,"lon":-2.5620214,"type":"town"},{"id":"434393192","name":"Owlo","lat":10.3883769,"lon":-2.52255,"type":"town"},{"id":"434393306","name":"Doung","lat":10.3411257,"lon":-2.5500088,"type":"town"},{"id":"434393372","name":"Sombo","lat":10.2588441,"lon":-2.5561956,"type":"village"},{"id":"434393424","name":"Kaleo","lat":10.173794,"lon":-2.540655,"type":"town"},{"id":"434393545","name":"Charia","lat":10.1106693,"lon":-2.5745634,"type":"town"},{"id":"434395104","name":"Dorimon","lat":10.033091,"lon":-2.6878599,"type":"village"},{"id":"434398085","name":"Hamile","lat":10.993704,"lon":-2.750726,"type":"town"},{"id":"434405934","name":"Bole","lat":9.0324846,"lon":-2.4895105,"type":"town"},{"id":"434406493","name":"Sawla","lat":9.2727455,"lon":-2.4139258,"type":"village"},{"id":"434406637","name":"Nyoli","lat":9.7568312,"lon":-2.4962,"type":"village"},{"id":"434407067","name":"Naro","lat":10.3305154,"lon":-2.4635897,"type":"village"},{"id":"434407240","name":"Han","lat":10.6898937,"lon":-2.4432385,"type":"town"},{"id":"434407463","name":"Jeffisi","lat":10.7786177,"lon":-2.2660221,"type":"town"},{"id":"434409542","name":"Funsi","lat":10.2947415,"lon":-1.9686583,"type":"town"},{"id":"434409612","name":"Yala","lat":10.1267821,"lon":-1.8390856,"type":"town"},{"id":"434411056","name":"Kpalworgu","lat":9.9509982,"lon":-1.8514559,"type":"village"},{"id":"434413530","name":"Yagaba","lat":10.2323816,"lon":-1.2835894,"type":"town"},{"id":"434414600","name":"Loagri","lat":10.2562,"lon":-1.1850557,"type":"town"},{"id":"434414748","name":"Kubori","lat":10.1399071,"lon":-1.2931318,"type":"village"},{"id":"434414844","name":"Kikaayiri","lat":10.0650427,"lon":-1.2819996,"type":"village"},{"id":"434414937","name":"Monkaringa","lat":10.030265,"lon":-1.2824144,"type":"town"},{"id":"434415958","name":"Fumbusi","lat":10.4548033,"lon":-1.3065309,"type":"village"},{"id":"434418370","name":"Kayoro","lat":10.9741142,"lon":-1.3325129,"type":"town"},{"id":"434420117","name":"Bolgatanga","lat":10.7853963,"lon":-0.8487322,"type":"city"},{"id":"434422086","name":"Wulugu","lat":10.471497,"lon":-0.792123,"type":"town"},{"id":"434422183","name":"Gbimsi","lat":10.3965965,"lon":-0.7854376,"type":"town"},{"id":"434422379","name":"Guabuliga","lat":10.4151079,"lon":-0.69631,"type":"village"},{"id":"434422622","name":"Langbensi","lat":10.4034625,"lon":-0.5612598,"type":"town"},{"id":"434423058","name":"Gambaga","lat":10.53091,"lon":-0.438157,"type":"town"},{"id":"434423265","name":"Nalerigu","lat":10.525509,"lon":-0.370179,"type":"town"},{"id":"434424011","name":"Bunkpurugu","lat":10.518794,"lon":0.0963092,"type":"town"},{"id":"434424244","name":"Sakogu","lat":10.578162,"lon":-0.2762804,"type":"town"},{"id":"434430040","name":"Walewale","lat":10.347691,"lon":-0.802274,"type":"town"},{"id":"434430550","name":"Diari","lat":9.8691688,"lon":-0.872104,"type":"town"},{"id":"434430582","name":"Pong Tamale","lat":9.690671,"lon":-0.8319567,"type":"town"},{"id":"434431143","name":"Savelugu","lat":9.6260647,"lon":-0.8258943,"type":"town"},{"id":"434438459","name":"Chamba","lat":8.694862,"lon":-0.13705,"type":"town"},{"id":"434438667","name":"Bimbilla","lat":8.859349,"lon":0.0557043,"type":"town"},{"id":"434439085","name":"Nakpayili","lat":8.7543434,"lon":0.0545026,"type":"town"},{"id":"434439093","name":"Wulensi","lat":8.654739,"lon":0.001288,"type":"town"},{"id":"434439098","name":"Lungni","lat":8.5529766,"lon":-0.0063885,"type":"town"},{"id":"434439111","name":"Kpandai","lat":8.4635789,"lon":-0.0119853,"type":"town"},{"id":"434439359","name":"Katiejeli","lat":8.4036597,"lon":-0.0242899,"type":"village"},{"id":"434440109","name":"Banda","lat":8.2966595,"lon":-0.0924395,"type":"town"},{"id":"434440622","name":"Buya","lat":8.3566088,"lon":-0.0618753,"type":"town"},{"id":"434440831","name":"Chinderi","lat":8.142732,"lon":-0.153036,"type":"town"},{"id":"434441123","name":"Borae","lat":8.1601405,"lon":-0.0421497,"type":"town"},{"id":"434441912","name":"Dambai","lat":8.067609,"lon":0.179472,"type":"town"},{"id":"434442815","name":"Kparepare","lat":7.9805855,"lon":0.2889921,"type":"town"},{"id":"434444541","name":"Nantwie Kura","lat":7.9001682,"lon":0.2948286,"type":"town"},{"id":"434444567","name":"Dormabin","lat":7.8394278,"lon":0.3099053,"type":"village"},{"id":"434445985","name":"Tokuroane","lat":7.7800549,"lon":0.312279,"type":"town"},{"id":"434446215","name":"Addo Nkwanta","lat":7.6727732,"lon":0.324011,"type":"town"},{"id":"434446586","name":"Asukawkaw","lat":7.6824702,"lon":0.366583,"type":"town"},{"id":"434446587","name":"Wawaso","lat":7.657802,"lon":0.4452039,"type":"town"},{"id":"434446595","name":"Papase","lat":7.7277198,"lon":0.5106069,"type":"town"},{"id":"434446768","name":"Ahamasu","lat":7.7292507,"lon":0.552149,"type":"town"},{"id":"434448018","name":"Kadjebi","lat":7.525931,"lon":0.476103,"type":"town"},{"id":"434448186","name":"Asatu","lat":7.5359713,"lon":0.4390241,"type":"town"},{"id":"434448279","name":"Worawora","lat":7.509593,"lon":0.375166,"type":"town"},{"id":"434448390","name":"Tapa Abotoase","lat":7.4507034,"lon":0.3413488,"type":"town"},{"id":"434448421","name":"Atonkor","lat":7.4285753,"lon":0.4264928,"type":"village"},{"id":"434448529","name":"Guaman","lat":7.4486608,"lon":0.4417707,"type":"village"},{"id":"434448706","name":"Tapa-Amanfrom","lat":7.4156383,"lon":0.3113081,"type":"town"},{"id":"434448854","name":"Tapa Abotoase","lat":7.4055949,"lon":0.3039266,"type":"town"},{"id":"434448890","name":"Kwamikrom","lat":7.291867,"lon":0.3227289,"type":"town"},{"id":"434449081","name":"Nkonya Wurupong","lat":7.1795419,"lon":0.3365959,"type":"village"},{"id":"434449158","name":"Tepo","lat":7.169935,"lon":0.324011,"type":"village"},{"id":"434449190","name":"Ahenkro","lat":7.1132152,"lon":0.3221267,"type":"town"},{"id":"434449260","name":"Sovie","lat":6.9346691,"lon":0.2870293,"type":"village"},{"id":"434449268","name":"Wusuta","lat":6.831557,"lon":0.2576717,"type":"village"},{"id":"434449745","name":"Ho","lat":6.6126598,"lon":0.4688932,"type":"city"},{"id":"434451330","name":"Shia","lat":6.7913314,"lon":0.5657102,"type":"town"},{"id":"434452555","name":"Sokode Gbogame","lat":6.5676688,"lon":0.401127,"type":"village"},{"id":"434455377","name":"Tokokoe","lat":6.7189821,"lon":0.5582811,"type":"town"},{"id":"434459255","name":"Sawaba","lat":8.1267573,"lon":-0.7902278,"type":"town"},{"id":"434459909","name":"Prang","lat":7.9914716,"lon":-0.8833817,"type":"town"},{"id":"434460562","name":"Atebubu","lat":7.753515,"lon":-0.987764,"type":"town"},{"id":"434461097","name":"Dama Nkwanta","lat":7.9857954,"lon":-1.0917907,"type":"town"},{"id":"434461100","name":"Kamompa","lat":8.0592273,"lon":-1.2710052,"type":"town"},{"id":"434461245","name":"Kintampo","lat":8.053714,"lon":-1.728919,"type":"town"},{"id":"434462884","name":"Dorbor","lat":8.0893102,"lon":-2.5164085,"type":"town"},{"id":"434462892","name":"Adadiem","lat":8.082682,"lon":-2.5519424,"type":"village"},{"id":"434462934","name":"Sampa","lat":7.947174,"lon":-2.694936,"type":"town"},{"id":"434463001","name":"Suma-Ahenkro","lat":7.916847,"lon":-2.7156757,"type":"town"},{"id":"434463013","name":"Duadaso","lat":7.9031687,"lon":-2.6305633,"type":"town"},{"id":"434463259","name":"Debibi","lat":7.8960273,"lon":-2.5418143,"type":"town"},{"id":"434463454","name":"Menji","lat":7.9254421,"lon":-2.3819976,"type":"town"},{"id":"434463476","name":"Nsawkaw","lat":7.8758694,"lon":-2.3135675,"type":"town"},{"id":"434463527","name":"Yabraso","lat":7.833939,"lon":-2.2365522,"type":"village"},{"id":"434463908","name":"Njau","lat":7.8567476,"lon":-2.3509269,"type":"village"},{"id":"434463914","name":"Hani","lat":7.8482449,"lon":-2.478128,"type":"village"},{"id":"434465489","name":"Jamera","lat":7.9686253,"lon":-2.6243835,"type":"village"},{"id":"434465518","name":"Kabile","lat":7.9621275,"lon":-2.6518016,"type":"village"},{"id":"434466149","name":"Mayera","lat":7.861509,"lon":-2.682405,"type":"town"},{"id":"434466174","name":"Kokoa","lat":7.8519862,"lon":-2.6473861,"type":"village"},{"id":"434466187","name":"Buni","lat":7.8041988,"lon":-2.6418929,"type":"village"},{"id":"434466200","name":"Asiri","lat":7.8006273,"lon":-2.7019744,"type":"village"},{"id":"434466204","name":"Dawiri","lat":7.8281782,"lon":-2.6806884,"type":"village"},{"id":"434466207","name":"Goka","lat":7.7589574,"lon":-2.6549392,"type":"town"},{"id":"434466217","name":"Nasana","lat":7.7848106,"lon":-2.5416488,"type":"village"},{"id":"434466949","name":"Adamsu","lat":7.743899,"lon":-2.8092447,"type":"town"},{"id":"434467047","name":"Mpuasu","lat":7.7228968,"lon":-2.8001647,"type":"village"},{"id":"434467096","name":"Dwenem","lat":7.6875562,"lon":-2.7826552,"type":"village"},{"id":"434467174","name":"Botokrom","lat":7.5195737,"lon":-2.7500396,"type":"village"},{"id":"434467200","name":"Fetentaa","lat":7.4668131,"lon":-2.6734786,"type":"village"},{"id":"434467375","name":"Berekum","lat":7.450473,"lon":-2.5824981,"type":"town"},{"id":"434467633","name":"Jinijini","lat":7.444516,"lon":-2.650133,"type":"town"},{"id":"434467978","name":"Wamfie","lat":7.2975961,"lon":-2.7007728,"type":"town"},{"id":"434467994","name":"Dormaa-Akwamu","lat":7.3193902,"lon":-2.7402549,"type":"village"},{"id":"434467995","name":"Wamanafo","lat":7.264392,"lon":-2.716394,"type":"town"},{"id":"434468041","name":"Nsoatre","lat":7.4030681,"lon":-2.4685232,"type":"town"},{"id":"434472368","name":"Atronie","lat":7.1533535,"lon":-2.4048286,"type":"town"},{"id":"434472369","name":"Yamfo","lat":7.221308,"lon":-2.240377,"type":"town"},{"id":"434472370","name":"Tanoso","lat":7.2780145,"lon":-2.2419219,"type":"town"},{"id":"434472869","name":"Duayaw Nkwanta","lat":7.172259,"lon":-2.102705,"type":"town"},{"id":"434472949","name":"Techimantia","lat":7.184352,"lon":-2.026487,"type":"town"},{"id":"434473521","name":"Dwomo","lat":7.15148,"lon":-2.0453696,"type":"village"},{"id":"434473563","name":"Bechem","lat":7.08778,"lon":-2.0246,"type":"town"},{"id":"434473576","name":"Pokukrom","lat":7.0012279,"lon":-1.9533591,"type":"town"},{"id":"434473578","name":"Nyamebekyere","lat":7.0129322,"lon":-1.9935587,"type":"town"},{"id":"434473588","name":"Fawumang","lat":6.9661281,"lon":-1.9277816,"type":"town"},{"id":"434473593","name":"Kunso","lat":6.8284295,"lon":-1.8888145,"type":"town"},{"id":"434473643","name":"Barniekrom","lat":6.8793954,"lon":-1.9533024,"type":"town"},{"id":"434473779","name":"Wioso","lat":6.9085313,"lon":-2.0309501,"type":"village"},{"id":"434474527","name":"Hwibaa","lat":6.9199635,"lon":-2.0451772,"type":"village"},{"id":"434474662","name":"Anyinasuso","lat":6.9561311,"lon":-2.0959609,"type":"town"},{"id":"434474675","name":"Tepa","lat":7.0048059,"lon":-2.163816,"type":"town"},{"id":"434474762","name":"New Brosankro","lat":7.0332585,"lon":-2.1008163,"type":"town"},{"id":"434474858","name":"Sabronum","lat":7.0870922,"lon":-1.8858962,"type":"village"},{"id":"434475298","name":"Acherensua","lat":6.9793867,"lon":-2.294622,"type":"town"},{"id":"434475461","name":"Gyedu","lat":7.0661333,"lon":-2.3229032,"type":"village"},{"id":"434477406","name":"Mpehi","lat":6.9288141,"lon":-1.6837257,"type":"village"},{"id":"434478386","name":"Chiraa","lat":7.3947502,"lon":-2.1821526,"type":"town"},{"id":"434479872","name":"Adumasa","lat":6.5588173,"lon":-1.3078911,"type":"village"},{"id":"434481227","name":"Nkoranza","lat":7.5624941,"lon":-1.703932,"type":"town"},{"id":"434482503","name":"Nkwaben","lat":7.4961582,"lon":-1.7395221,"type":"town"},{"id":"434482504","name":"Akropong","lat":7.5077312,"lon":-1.6991817,"type":"town"},{"id":"434482505","name":"Abountem","lat":7.4750536,"lon":-1.6993534,"type":"village"},{"id":"434482666","name":"Donkro Nkwanta","lat":7.4306285,"lon":-1.6583263,"type":"town"},{"id":"434482711","name":"Sekyedumase","lat":7.311118,"lon":-1.5773021,"type":"town"},{"id":"434482753","name":"Anyinasu","lat":7.2370463,"lon":-1.5769588,"type":"town"},{"id":"434482830","name":"Kofiase","lat":7.1406497,"lon":-1.4878665,"type":"town"},{"id":"434482946","name":"Asaam","lat":7.1195283,"lon":-1.4657222,"type":"village"},{"id":"434485912","name":"Kwame Danso","lat":7.732153,"lon":-0.676595,"type":"town"},{"id":"434487702","name":"Nyankontreh","lat":7.7949155,"lon":-0.3446018,"type":"village"},{"id":"434488010","name":"Premuase","lat":7.796106,"lon":-0.294305,"type":"village"},{"id":"434488034","name":"Kajaji","lat":7.7842006,"lon":-0.2280437,"type":"town"},{"id":"434488036","name":"Kojokrom","lat":7.777908,"lon":-0.173284,"type":"village"},{"id":"434490645","name":"Osramani","lat":7.9585594,"lon":-0.0108063,"type":"village"},{"id":"434490726","name":"Ntewusae","lat":7.9894465,"lon":0.0054668,"type":"town"},{"id":"434493003","name":"Katchebi","lat":8.2000051,"lon":0.3950871,"type":"town"},{"id":"434493035","name":"Nkwanta","lat":8.262696,"lon":0.52143,"type":"town"},{"id":"434493038","name":"Tutukpene","lat":8.0963488,"lon":0.3944005,"type":"town"},{"id":"434493443","name":"Katanga","lat":7.653219,"lon":0.3382672,"type":"town"},{"id":"442126257","name":"Frante","lat":7.3381893,"lon":-1.5144371,"type":"village"},{"id":"442162718","name":"Bonakye","lat":8.4005908,"lon":0.4076191,"type":"town"},{"id":"442162858","name":"Kpassa","lat":8.4892994,"lon":0.3094664,"type":"town"},{"id":"442162983","name":"Sibi","lat":8.5933568,"lon":0.2370842,"type":"town"},{"id":"442163053","name":"Damanko","lat":8.6918905,"lon":0.1811977,"type":"town"},{"id":"442167620","name":"Koue","lat":8.5065437,"lon":0.5849453,"type":"village"},{"id":"442169741","name":"Tinjassi","lat":8.6223112,"lon":0.4340549,"type":"village"},{"id":"443416948","name":"Axim","lat":4.865362,"lon":-2.242169,"type":"town"},{"id":"443417664","name":"Tarkwa","lat":5.310935,"lon":-1.992426,"type":"town"},{"id":"443418454","name":"Enchi","lat":5.8231755,"lon":-2.8237051,"type":"town"},{"id":"443419242","name":"Asankrangwa","lat":5.808673,"lon":-2.435268,"type":"town"},{"id":"443420363","name":"Awaso","lat":6.242526,"lon":-2.284566,"type":"town"},{"id":"443420369","name":"Sefwi Bekwai","lat":6.1946068,"lon":-2.3226969,"type":"town"},{"id":"443420490","name":"Asawinso","lat":6.4243281,"lon":-2.7090683,"type":"town"},{"id":"443420568","name":"Benchema","lat":6.4379753,"lon":-2.7725503,"type":"village"},{"id":"443423477","name":"Goaso","lat":6.8035466,"lon":-2.5172391,"type":"town"},{"id":"443426400","name":"Derma","lat":7.2107646,"lon":-1.9416102,"type":"town"},{"id":"443429499","name":"Brohani","lat":7.9801773,"lon":-2.4255456,"type":"village"},{"id":"443429744","name":"Nchiraa","lat":7.8944888,"lon":-1.9866075,"type":"village"},{"id":"443429749","name":"Ampoma","lat":7.9083782,"lon":-1.8056174,"type":"village"},{"id":"443429841","name":"Jema","lat":7.898678,"lon":-1.769662,"type":"town"},{"id":"443430251","name":"Jamasi","lat":6.9732864,"lon":-1.4743803,"type":"town"},{"id":"443430377","name":"Beposo","lat":6.9811243,"lon":-1.3523291,"type":"town"},{"id":"443430400","name":"Banko","lat":6.9390364,"lon":-1.3863181,"type":"village"},{"id":"443430401","name":"Asante Asamang","lat":6.9035298,"lon":-1.4359014,"type":"village"},{"id":"443430430","name":"Akrofonso","lat":6.9208028,"lon":-1.4682005,"type":"village"},{"id":"443430432","name":"Agona","lat":6.9327369,"lon":-1.4900327,"type":"town"},{"id":"443430434","name":"Tano Odumasi","lat":6.892173,"lon":-1.5015028,"type":"village"},{"id":"443430436","name":"Kona","lat":6.8744489,"lon":-1.5073393,"type":"village"},{"id":"443430512","name":"Wiamoase","lat":7.05183,"lon":-1.519527,"type":"village"},{"id":"443430634","name":"Bonwire","lat":6.7933367,"lon":-1.4732326,"type":"village"},{"id":"443430970","name":"Kasaam","lat":6.8446232,"lon":-1.4663123,"type":"village"},{"id":"443431103","name":"Effiduase","lat":6.8506256,"lon":-1.3953841,"type":"town"},{"id":"443431131","name":"Afamanso","lat":6.9497718,"lon":-1.508026,"type":"village"},{"id":"443431132","name":"Bedomase","lat":6.9572693,"lon":-1.5042494,"type":"village"},{"id":"443431283","name":"Juaben","lat":6.8156479,"lon":-1.4215086,"type":"town"},{"id":"443431293","name":"Dadease","lat":6.8799025,"lon":-1.3682936,"type":"village"},{"id":"443431322","name":"Soko","lat":6.9717021,"lon":-1.6184383,"type":"village"},{"id":"443431339","name":"Boamang","lat":6.9419641,"lon":-1.6178261,"type":"village"},{"id":"443431444","name":"Kwamang","lat":6.8870603,"lon":-1.6180609,"type":"village"},{"id":"443431445","name":"Tetrem","lat":7.0375196,"lon":-1.6338538,"type":"village"},{"id":"443431498","name":"Kyekyewere","lat":7.1422841,"lon":-1.6396903,"type":"village"},{"id":"443431586","name":"Kwapanin","lat":7.1775907,"lon":-1.6778171,"type":"village"},{"id":"443431587","name":"Abofour","lat":7.1349599,"lon":-1.7318724,"type":"village"},{"id":"443431588","name":"Kyebi","lat":7.1048101,"lon":-1.7730711,"type":"village"},{"id":"443431589","name":"Nkrampo","lat":7.359785,"lon":-1.5593259,"type":"village"},{"id":"692151122","name":"Gomoa Dawurampong","lat":5.4406645,"lon":-0.7871312,"type":"village"},{"id":"735505132","name":"Tema","lat":5.6596409,"lon":-0.0096771,"type":"city"},{"id":"735595404","name":"Larteh","lat":5.939456,"lon":-0.0688571,"type":"village"},{"id":"738942517","name":"Dodowa","lat":5.8800281,"lon":-0.1046646,"type":"town"},{"id":"738980909","name":"Kpong","lat":6.1573496,"lon":0.0603968,"type":"town"},{"id":"738980914","name":"Somanya","lat":6.104821,"lon":-0.01483,"type":"town"},{"id":"738980951","name":"Kpetoe","lat":6.547199,"lon":0.69721,"type":"town"},{"id":"738980962","name":"Kpone","lat":5.6896899,"lon":0.0570242,"type":"town"},{"id":"783906783","name":"Daffor","lat":6.5856023,"lon":0.283595,"type":"town"},{"id":"783926430","name":"Atimpoku","lat":6.2369,"lon":0.0990953,"type":"village"},{"id":"783927820","name":"Apaso","lat":6.2153826,"lon":0.0853835,"type":"village"},{"id":"783927969","name":"Juapong","lat":6.2545011,"lon":0.135253,"type":"town"},{"id":"784238663","name":"Gomoa Ankamu","lat":5.3385931,"lon":-0.7598644,"type":"village"},{"id":"784295375","name":"Fumso","lat":6.1098939,"lon":-1.4463019,"type":"village"},{"id":"784295452","name":"Dompoase","lat":6.3095235,"lon":-1.5309699,"type":"village"},{"id":"784295861","name":"New Ayasi","lat":6.2916896,"lon":-1.5188858,"type":"village"},{"id":"784377449","name":"Kuntanase","lat":6.5408465,"lon":-1.4768101,"type":"town"},{"id":"784377545","name":"Essumaja","lat":6.4933853,"lon":-1.555235,"type":"village"},{"id":"784377874","name":"Akokofe","lat":6.5147366,"lon":-1.5162033,"type":"village"},{"id":"784378115","name":"Kokofu","lat":6.502172,"lon":-1.534586,"type":"village"},{"id":"784378206","name":"Boaman","lat":6.4680312,"lon":-1.5609974,"type":"village"},{"id":"784378276","name":"Pramso","lat":6.5580096,"lon":-1.5096159,"type":"village"},{"id":"784464048","name":"Subinso No.1","lat":7.8983929,"lon":-2.0681747,"type":"village"},{"id":"784480215","name":"Branam","lat":7.9790965,"lon":-2.0649675,"type":"village"},{"id":"784480580","name":"Ayorya","lat":8.0501067,"lon":-2.0445875,"type":"village"},{"id":"784500748","name":"Bamboi","lat":8.164004,"lon":-2.032516,"type":"village"},{"id":"784500778","name":"Tinga","lat":8.5806175,"lon":-2.2239819,"type":"village"},{"id":"784603899","name":"Sakpa","lat":8.8699873,"lon":-2.344071,"type":"village"},{"id":"784606380","name":"Kilampobile","lat":8.9860911,"lon":-2.4563977,"type":"village"},{"id":"784646907","name":"Danivaar","lat":9.3967701,"lon":-2.45262,"type":"village"},{"id":"784646987","name":"Doume","lat":9.307247,"lon":-2.4236881,"type":"village"},{"id":"784647015","name":"Mankuma","lat":9.1724773,"lon":-2.4843652,"type":"village"},{"id":"784647037","name":"Yipala","lat":9.5748811,"lon":-2.4146804,"type":"village"},{"id":"784647101","name":"Tuna","lat":9.4958657,"lon":-2.4169136,"type":"village"},{"id":"784647127","name":"Nakwabi","lat":9.3789566,"lon":-2.4559509,"type":"village"},{"id":"784647228","name":"Kakiasi","lat":9.2203871,"lon":-2.4623547,"type":"village"},{"id":"784647277","name":"Blema","lat":9.3406158,"lon":-2.4343314,"type":"village"},{"id":"784647302","name":"Gindabour","lat":9.6343257,"lon":-2.4585108,"type":"village"},{"id":"784647349","name":"Bodi","lat":9.2357756,"lon":-2.4517591,"type":"village"},{"id":"784647374","name":"Kpangiri","lat":9.5874141,"lon":-2.4325088,"type":"village"},{"id":"784647448","name":"Nyoli","lat":9.7300333,"lon":-2.4909447,"type":"village"},{"id":"784674033","name":"Poyentanga","lat":9.8699577,"lon":-2.46147,"type":"village"},{"id":"784788316","name":"Nandom","lat":10.8520701,"lon":-2.760077,"type":"town"},{"id":"890386699","name":"Ahenkro","lat":6.8745359,"lon":-1.6405664,"type":"village"},{"id":"890386980","name":"Aduana","lat":7.022791,"lon":-1.7096132,"type":"village"},{"id":"890387071","name":"Kodie","lat":6.8255096,"lon":-1.6473015,"type":"village"},{"id":"890720555","name":"Akomadan","lat":7.397196,"lon":-1.954381,"type":"town"},{"id":"892156362","name":"Adansua","lat":6.600451,"lon":-0.882649,"type":"village"},{"id":"892156780","name":"Nnadieso","lat":6.5973205,"lon":-0.9152263,"type":"village"},{"id":"892156884","name":"Anyinam","lat":6.3753992,"lon":-0.5459097,"type":"village"},{"id":"892157010","name":"Konongo","lat":6.6231481,"lon":-1.2148111,"type":"town"},{"id":"892157529","name":"Awenade","lat":6.586867,"lon":-0.818717,"type":"village"},{"id":"892157781","name":"Nsutam","lat":6.3068363,"lon":-0.4701646,"type":"village"},{"id":"892157875","name":"Asona","lat":6.598994,"lon":-0.840002,"type":"village"},{"id":"892158327","name":"Hwereso","lat":6.677241,"lon":-1.382278,"type":"village"},{"id":"892158594","name":"Nkurakan","lat":6.1264003,"lon":-0.2126792,"type":"village"},{"id":"892158685","name":"Asamang Tamfoe","lat":6.3678519,"lon":-0.528368,"type":"village"},{"id":"892158815","name":"Krobo","lat":6.129948,"lon":0.001242,"type":"town"},{"id":"892159236","name":"Osiem","lat":6.25358,"lon":-0.421964,"type":"village"},{"id":"892159355","name":"Duampopo","lat":6.641098,"lon":-1.3404428,"type":"village"},{"id":"892160131","name":"Boankra","lat":6.6951423,"lon":-1.4040121,"type":"village"},{"id":"892160332","name":"Nkawanda No 1","lat":6.4931357,"lon":-0.6790913,"type":"village"},{"id":"892161251","name":"Nkawanda No 2","lat":6.498676,"lon":-0.693257,"type":"village"},{"id":"892161343","name":"Asenema","lat":6.064447,"lon":-0.09876,"type":"village"},{"id":"892161688","name":"Osino","lat":6.35011,"lon":-0.486608,"type":"village"},{"id":"892161825","name":"Breku","lat":6.6005695,"lon":-0.985962,"type":"village"},{"id":"892162294","name":"Amanfro","lat":6.51941,"lon":-0.709975,"type":"village"},{"id":"892162451","name":"Koforidua","lat":6.100334,"lon":-0.2614572,"type":"city"},{"id":"892163266","name":"Bunso","lat":6.28739,"lon":-0.466125,"type":"village"},{"id":"892163713","name":"Nobewam","lat":6.6261235,"lon":-1.2965388,"type":"village"},{"id":"892164629","name":"Peki New Adzek","lat":6.6222658,"lon":0.3094448,"type":"village"},{"id":"892164813","name":"Atimpoku","lat":6.227656,"lon":0.0903418,"type":"village"},{"id":"892165135","name":"New Jejeti","lat":6.4736263,"lon":-0.6495977,"type":"village"},{"id":"892228368","name":"New Akrade","lat":6.2060906,"lon":0.0801532,"type":"village"},{"id":"892228906","name":"Gbi Wegbe","lat":7.1127052,"lon":0.4565868,"type":"village"},{"id":"910448882","name":"Ada Foah","lat":5.781638,"lon":0.633197,"type":"town"},{"id":"910448935","name":"Big Ada","lat":5.816963,"lon":0.614866,"type":"town"},{"id":"910448957","name":"Anyanui","lat":5.782714,"lon":0.725745,"type":"town"},{"id":"910448981","name":"Atiteti","lat":5.7813069,"lon":0.720472,"type":"village"},{"id":"916585852","name":"Atorkor","lat":5.7784117,"lon":0.827653,"type":"village"},{"id":"916585885","name":"Srogbe","lat":5.7792065,"lon":0.8337611,"type":"village"},{"id":"916585969","name":"Anloga","lat":5.7936484,"lon":0.8984702,"type":"town"},{"id":"918988012","name":"Dzita","lat":5.7729212,"lon":0.7691525,"type":"village"},{"id":"919643953","name":"Whuti","lat":5.7813393,"lon":0.8406059,"type":"village"},{"id":"919645980","name":"Akplorwotorkor","lat":5.7723887,"lon":0.8005474,"type":"village"},{"id":"925866725","name":"Agavedzi","lat":6.0053632,"lon":1.0433772,"type":"village"},{"id":"925866732","name":"Honukope","lat":6.0592488,"lon":1.095876,"type":"village"},{"id":"925866735","name":"Adina","lat":6.0504129,"lon":1.0827457,"type":"village"},{"id":"925866755","name":"Amutinu","lat":6.0245425,"lon":1.0603541,"type":"village"},{"id":"925866757","name":"Woe","lat":5.8336832,"lon":0.9558367,"type":"village"},{"id":"936564954","name":"Dixcove","lat":4.794787,"lon":-1.9464,"type":"town"},{"id":"990128066","name":"Biriwa","lat":5.1635976,"lon":-1.150382,"type":"village"},{"id":"990128087","name":"Dendo","lat":6.0600193,"lon":0.6048304,"type":"village"},{"id":"990128103","name":"Essueshia","lat":5.304515,"lon":-0.8906139,"type":"village"},{"id":"990128143","name":"Feyito","lat":5.9659388,"lon":0.5323878,"type":"town"},{"id":"990128331","name":"Tojeh","lat":5.9548202,"lon":0.5245428,"type":"town"},{"id":"990128383","name":"Egyaa No.2","lat":5.1838519,"lon":-1.1051373,"type":"village"},{"id":"990128439","name":"Jukwa","lat":5.2577781,"lon":-1.3388004,"type":"town"},{"id":"990128538","name":"Koforidua","lat":5.237532,"lon":-1.3322884,"type":"village"},{"id":"990128575","name":"Mankessim","lat":5.267169,"lon":-1.018031,"type":"town"},{"id":"990128591","name":"Awutu Bereku","lat":5.512649,"lon":-0.5126557,"type":"town"},{"id":"990128619","name":"Abrafo Odumase","lat":5.3351566,"lon":-1.3810645,"type":"village"},{"id":"990128709","name":"Anomabu","lat":5.1783461,"lon":-1.1215406,"type":"village"},{"id":"990128751","name":"Matse","lat":6.6950609,"lon":0.4839804,"type":"town"},{"id":"990129055","name":"Buduburam","lat":5.5234971,"lon":-0.4776318,"type":"town"},{"id":"990129307","name":"Sogakope","lat":5.9989117,"lon":0.5951312,"type":"town"},{"id":"990129359","name":"Tefle","lat":6.0036374,"lon":0.5620622,"type":"town"},{"id":"990129400","name":"Bremang","lat":5.2939605,"lon":-1.3650029,"type":"village"},{"id":"990129470","name":"Bornikope","lat":5.8446039,"lon":0.4020252,"type":"town"},{"id":"990129647","name":"Fete Kraba","lat":5.514797,"lon":-0.5027552,"type":"village"},{"id":"990129709","name":"Cape Coast","lat":5.1080932,"lon":-1.2417103,"type":"city"},{"id":"990129883","name":"Aviefe","lat":6.6673678,"lon":0.4752594,"type":"town"},{"id":"990129940","name":"Kpotame","lat":5.9830258,"lon":0.526347,"type":"town"},{"id":"990130055","name":"Yamoransa","lat":5.1622995,"lon":-1.2012721,"type":"village"},{"id":"990130094","name":"Ekumfi Eyisam","lat":5.2851137,"lon":-0.9405672,"type":"village"},{"id":"990130114","name":"Kasoa","lat":5.532573,"lon":-0.437491,"type":"town"},{"id":"990130283","name":"Vume","lat":6.0078809,"lon":0.5539539,"type":"town"},{"id":"990130481","name":"Tegbi","lat":5.8536655,"lon":0.9733691,"type":"town"},{"id":"990130482","name":"Efutu","lat":5.2021935,"lon":-1.3204056,"type":"town"},{"id":"990130625","name":"Abonko","lat":5.2391792,"lon":-1.0293553,"type":"village"},{"id":"990130650","name":"Akotsi","lat":5.5013682,"lon":-0.5339385,"type":"village"},{"id":"990130699","name":"Frami","lat":5.3119436,"lon":-1.3742301,"type":"village"},{"id":"1118501085","name":"Atomkongu","lat":10.8383284,"lon":-1.0023611,"type":"village"},{"id":"1118501111","name":"Azinsum","lat":10.8109991,"lon":-0.9101345,"type":"village"},{"id":"1118501120","name":"Nasia","lat":10.1632592,"lon":-0.8034752,"type":"village"},{"id":"1118501129","name":"Pigu","lat":9.9809492,"lon":-0.824146,"type":"village"},{"id":"1118501139","name":"Kariminga","lat":10.5594059,"lon":-0.8319654,"type":"village"},{"id":"1118501151","name":"Disiga","lat":10.0137003,"lon":-0.8237006,"type":"village"},{"id":"1118501154","name":"Shia","lat":10.6462156,"lon":-0.8568691,"type":"village"},{"id":"1118501167","name":"Anateem","lat":10.8272692,"lon":-0.9762737,"type":"village"},{"id":"1118501202","name":"Gushie","lat":9.8076769,"lon":-0.8606241,"type":"village"},{"id":"1118501225","name":"Nabogu","lat":9.7446656,"lon":-0.8233139,"type":"village"},{"id":"1118501227","name":"Sumbrungu","lat":10.8225833,"lon":-0.9366817,"type":"village"},{"id":"1118501229","name":"Doba","lat":10.8667364,"lon":-1.0399618,"type":"village"},{"id":"1136669387","name":"Eguase","lat":5.1473966,"lon":-1.2115802,"type":"village"},{"id":"1193913920","name":"Brenu","lat":5.0674473,"lon":-1.4272899,"type":"village"},{"id":"1193913953","name":"Ampenyi","lat":5.0660438,"lon":-1.4361162,"type":"village"},{"id":"1193973004","name":"Bronyibima","lat":5.1043744,"lon":-1.3600932,"type":"village"},{"id":"1480555641","name":"Obame","lat":5.8050735,"lon":0.5936015,"type":"village"},{"id":"1485049271","name":"Akatsi","lat":6.131023,"lon":0.798211,"type":"town"},{"id":"1485049818","name":"Dzodze","lat":6.233809,"lon":0.994012,"type":"town"},{"id":"1485789826","name":"Totope","lat":5.7846841,"lon":0.5263762,"type":"village"},{"id":"1499351844","name":"Beyin","lat":4.987364,"lon":-2.589498,"type":"village"},{"id":"1499351848","name":"Nzulezo","lat":5.0209997,"lon":-2.5980103,"type":"village"},{"id":"1540762838","name":"Agona Swedru","lat":5.534454,"lon":-0.700763,"type":"town"},{"id":"1546904137","name":"Ashaiman","lat":5.694385,"lon":-0.029529,"type":"town"},{"id":"1596816121","name":"Appolonia","lat":5.7947746,"lon":-0.0702148,"type":"village"},{"id":"1648526618","name":"Gagbiri","lat":10.9005742,"lon":-0.1165627,"type":"town"},{"id":"1714856761","name":"Akroso","lat":5.7721451,"lon":-0.7679694,"type":"town"},{"id":"1783595776","name":"Kanato","lat":9.2367268,"lon":-2.0023829,"type":"village"},{"id":"1783595788","name":"Kapambe","lat":9.217205,"lon":-2.0283212,"type":"village"},{"id":"1783595790","name":"Mognori","lat":9.2903459,"lon":-1.7762289,"type":"village"},{"id":"1784525873","name":"Bulbia","lat":10.3458748,"lon":-1.0365674,"type":"village"},{"id":"1784525874","name":"Duu","lat":10.5004371,"lon":-0.9883694,"type":"town"},{"id":"1784672896","name":"Gomoa Afransi","lat":5.5083624,"lon":-0.748467,"type":"town"},{"id":"1784672897","name":"Ekumfi Atwa","lat":5.2328228,"lon":-0.9226817,"type":"village"},{"id":"1784672898","name":"Ekumfi Ebuakwa","lat":5.2399244,"lon":-0.9131288,"type":"village"},{"id":"1784672903","name":"Mensakrom","lat":5.5995183,"lon":-0.7190301,"type":"village"},{"id":"1784672905","name":"Jakobkrom","lat":5.5887404,"lon":-0.7176893,"type":"village"},{"id":"1793378388","name":"Balasi","lat":8.4840052,"lon":-0.0409515,"type":"village"},{"id":"1793378389","name":"Chakori","lat":8.3856362,"lon":-0.2247497,"type":"village"},{"id":"1793378390","name":"Gulubi","lat":8.2566476,"lon":-0.237774,"type":"village"},{"id":"1793378391","name":"Kakpeni","lat":8.3265794,"lon":-0.2250923,"type":"village"},{"id":"1793378392","name":"Nkanchina","lat":8.4616293,"lon":0.0655915,"type":"village"},{"id":"1793552479","name":"Akaniem","lat":8.139146,"lon":-0.2807602,"type":"village"},{"id":"1793552490","name":"Bato","lat":8.6263605,"lon":0.0890054,"type":"village"},{"id":"1793552523","name":"Bladjal","lat":8.3772855,"lon":0.1038421,"type":"village"},{"id":"1793552528","name":"Gbungbaliga","lat":8.6685533,"lon":0.063813,"type":"village"},{"id":"1793552535","name":"Jman","lat":8.6328181,"lon":0.1358283,"type":"village"},{"id":"1793876001","name":"Adumadum","lat":7.8269895,"lon":0.3649796,"type":"village"},{"id":"1793876002","name":"Ashiaye","lat":7.832842,"lon":0.3566918,"type":"village"},{"id":"1793876003","name":"Kunda","lat":7.8196208,"lon":0.3724231,"type":"village"},{"id":"1793876004","name":"Pelema","lat":7.9256722,"lon":0.2918089,"type":"village"},{"id":"1794366180","name":"Adeiso","lat":5.7971342,"lon":-0.4872364,"type":"town"},{"id":"1794366240","name":"Anfoega","lat":6.887494,"lon":0.276692,"type":"village"},{"id":"1794366246","name":"Betekpo","lat":6.1717823,"lon":0.1617682,"type":"village"},{"id":"1794366259","name":"Boso","lat":6.5483986,"lon":0.1743911,"type":"village"},{"id":"1794371184","name":"Tagaje","lat":6.1682875,"lon":0.2121198,"type":"village"},{"id":"1794371185","name":"Tsate","lat":6.6239495,"lon":0.26843,"type":"village"},{"id":"1794371186","name":"Vakpo","lat":6.856428,"lon":0.284712,"type":"town"},{"id":"1794955443","name":"Fotobi","lat":5.812035,"lon":-0.2693593,"type":"village"},{"id":"1794955448","name":"Doboro","lat":5.8147828,"lon":-0.2909686,"type":"village"},{"id":"1795564850","name":"Pekyerekye","lat":6.7160312,"lon":-1.1723846,"type":"village"},{"id":"1795564854","name":"Agogo","lat":6.8008746,"lon":-1.0847298,"type":"town"},{"id":"1795564881","name":"Asempaneye","lat":5.9845731,"lon":-0.5773811,"type":"village"},{"id":"1795564885","name":"Domeabra","lat":6.7223645,"lon":-1.1397159,"type":"town"},{"id":"1795564888","name":"Juansa","lat":6.7162534,"lon":-1.1300943,"type":"town"},{"id":"1795564891","name":"Juaso","lat":6.583384,"lon":-1.119395,"type":"town"},{"id":"1795564893","name":"Nkwantanang","lat":6.1686126,"lon":-0.8739047,"type":"town"},{"id":"1796808787","name":"Badu","lat":7.6946424,"lon":-2.2328354,"type":"town"},{"id":"1796808788","name":"Fiema","lat":7.7190883,"lon":-1.6937149,"type":"village"},{"id":"1796808789","name":"Bodom","lat":7.7219814,"lon":-1.7559805,"type":"village"},{"id":"1796808790","name":"Bonte","lat":7.7414518,"lon":-1.6673602,"type":"village"},{"id":"1796808791","name":"Bugubelle","lat":10.5773201,"lon":-1.9740825,"type":"town"},{"id":"1796808792","name":"Kyerehi","lat":7.9002429,"lon":-1.71772,"type":"village"},{"id":"1796808793","name":"Dumso","lat":7.8916801,"lon":-1.6547161,"type":"village"},{"id":"1796808794","name":"Nabuobelle","lat":10.7555974,"lon":-1.8912296,"type":"village"},{"id":"1796808795","name":"Nwomwom Konkomba","lat":7.8026994,"lon":-1.0114862,"type":"village"},{"id":"1796808796","name":"Nwanduano","lat":10.7055415,"lon":-1.8640887,"type":"village"},{"id":"1796809107","name":"Taliasi","lat":10.8115179,"lon":-1.9100093,"type":"village"},{"id":"1796809126","name":"Chincha","lat":10.8424395,"lon":-1.9239173,"type":"village"},{"id":"1796809484","name":"Kokuma","lat":7.8247027,"lon":-1.7579344,"type":"village"},{"id":"1796810339","name":"Senya","lat":7.780158,"lon":-1.7008614,"type":"village"},{"id":"1796810340","name":"Tanfliano No.1","lat":7.7753967,"lon":-1.7564618,"type":"village"},{"id":"1796810341","name":"Tantala","lat":10.1995301,"lon":-1.537623,"type":"village"},{"id":"1796810342","name":"Vembeli","lat":10.5704013,"lon":-1.9742664,"type":"village"},{"id":"1797113387","name":"Aburokyire","lat":7.0736872,"lon":-1.7138433,"type":"village"},{"id":"1797113392","name":"Bepoase","lat":7.0841184,"lon":-1.5621975,"type":"village"},{"id":"1797113714","name":"Samproso","lat":7.0528634,"lon":-1.711898,"type":"village"},{"id":"1801606339","name":"Eduamuyao","lat":6.9375831,"lon":-1.2067168,"type":"village"},{"id":"1801606340","name":"Ejian","lat":6.8460438,"lon":-1.0355936,"type":"village"},{"id":"1801739651","name":"Bachembeli","lat":10.5446093,"lon":-1.8665768,"type":"village"},{"id":"1801739655","name":"Gwasi","lat":10.4798698,"lon":-1.6477412,"type":"village"},{"id":"1801739659","name":"Hellembelle","lat":10.4215508,"lon":-1.8842491,"type":"village"},{"id":"1801739662","name":"Nmanduono","lat":10.6195073,"lon":-1.850579,"type":"village"},{"id":"1801740005","name":"Yigantu","lat":10.6462535,"lon":-1.7825251,"type":"village"},{"id":"1806015006","name":"Buabinso","lat":5.9555773,"lon":-1.7385396,"type":"village"},{"id":"1806015012","name":"Dunkwa-on-Offin","lat":5.9678765,"lon":-1.7873448,"type":"town"},{"id":"1806015014","name":"Kyekyewere","lat":5.9177779,"lon":-1.6801652,"type":"village"},{"id":"1808731496","name":"Buipe","lat":8.7894174,"lon":-1.4682039,"type":"town"},{"id":"1808814056","name":"Gbele","lat":10.5650413,"lon":-2.215491,"type":"village"},{"id":"1809897984","name":"Kusawgu","lat":9.1969368,"lon":-1.0439175,"type":"village"},{"id":"1809897985","name":"Lampel","lat":8.7679893,"lon":-1.2207563,"type":"village"},{"id":"1809897986","name":"Mpaha","lat":8.7489221,"lon":-1.1094738,"type":"village"},{"id":"1809899794","name":"Wambong","lat":9.3344959,"lon":-1.0468811,"type":"village"},{"id":"1809899795","name":"Yepelgu","lat":9.3708529,"lon":-1.0761742,"type":"village"},{"id":"1809899800","name":"Digma","lat":9.0288088,"lon":-0.8489214,"type":"village"},{"id":"1809899804","name":"Zaw","lat":9.0946972,"lon":-1.1556276,"type":"village"},{"id":"1809899811","name":"Kpandele","lat":9.2875647,"lon":-0.6634932,"type":"village"},{"id":"1810167987","name":"Gbetuinu","lat":5.9799696,"lon":0.8331458,"type":"village"},{"id":"1810168346","name":"Tsiame","lat":5.9992792,"lon":0.8576896,"type":"village"},{"id":"1810168349","name":"Weme","lat":5.8453175,"lon":0.8885074,"type":"village"},{"id":"1810168352","name":"Alakple","lat":5.8665738,"lon":0.8884906,"type":"village"},{"id":"1810168354","name":"Avenorpeme","lat":6.0108691,"lon":0.8246264,"type":"village"},{"id":"1811902902","name":"Gbedema","lat":10.5707337,"lon":-1.323798,"type":"village"},{"id":"1812694830","name":"Chereponi","lat":10.1385063,"lon":0.2900123,"type":"town"},{"id":"1812694832","name":"Gbintiri","lat":10.1330697,"lon":0.0635132,"type":"town"},{"id":"1812857415","name":"Tinguri","lat":10.3509142,"lon":-0.7018895,"type":"village"},{"id":"1812857419","name":"Bogdoo","lat":10.2378268,"lon":-0.7116824,"type":"village"},{"id":"1812857423","name":"Kaparigu","lat":10.2951352,"lon":-0.6344969,"type":"town"},{"id":"1812857426","name":"Kulugu","lat":10.5998701,"lon":-0.750323,"type":"village"},{"id":"1814097665","name":"Achiase","lat":6.4544121,"lon":-1.3129529,"type":"village"},{"id":"1814097666","name":"Akronwe","lat":6.4929329,"lon":-1.3071875,"type":"village"},{"id":"1814097667","name":"Dannso","lat":6.3888677,"lon":-1.3591273,"type":"village"},{"id":"1814097669","name":"Bomfa","lat":6.5992035,"lon":-1.3029493,"type":"village"},{"id":"1814097670","name":"Fomena","lat":6.281043,"lon":-1.512453,"type":"town"},{"id":"1814097671","name":"Dwease","lat":6.5341795,"lon":-1.2450613,"type":"village"},{"id":"1814097672","name":"Kafaba","lat":8.4604472,"lon":-0.7731689,"type":"village"},{"id":"1814097673","name":"Meduma","lat":6.3416882,"lon":-1.5466677,"type":"village"},{"id":"1814097674","name":"Mahame","lat":6.3374217,"lon":-1.469917,"type":"village"},{"id":"1814097675","name":"Nasia","lat":9.0296969,"lon":-0.1499876,"type":"village"},{"id":"1814097676","name":"Old Pusuga","lat":8.9250316,"lon":-0.0150437,"type":"village"},{"id":"1814097677","name":"Pemenase","lat":6.5251259,"lon":-1.3111988,"type":"village"},{"id":"1814097678","name":"Pipie","lat":6.5282004,"lon":-1.3823062,"type":"village"},{"id":"1814097679","name":"Praso","lat":6.5144805,"lon":-1.2659902,"type":"village"},{"id":"1814099341","name":"Pusuga","lat":8.9321029,"lon":-0.0151538,"type":"village"},{"id":"1814099343","name":"Asiwa","lat":6.426758,"lon":-1.331435,"type":"town"},{"id":"1814099347","name":"Anumso","lat":6.4298479,"lon":-1.3022707,"type":"village"},{"id":"1814099348","name":"Abodom","lat":6.4361731,"lon":-1.5336768,"type":"village"},{"id":"1814099350","name":"Asechere","lat":6.4409815,"lon":-1.5220536,"type":"village"},{"id":"1814099351","name":"Esaase","lat":6.4941834,"lon":-1.4464697,"type":"village"},{"id":"1814099353","name":"Kokobin","lat":6.4464817,"lon":-1.3665014,"type":"village"},{"id":"1814099355","name":"Dadiasi","lat":6.4501736,"lon":-1.5211285,"type":"village"},{"id":"1814099361","name":"Ahwirem","lat":6.4588454,"lon":-1.5014552,"type":"village"},{"id":"1814099362","name":"Ochereso","lat":6.459088,"lon":-1.4809841,"type":"village"},{"id":"1814099366","name":"Juasi","lat":6.4701334,"lon":-1.3948351,"type":"village"},{"id":"1814099367","name":"Banso","lat":6.4718696,"lon":-1.4295749,"type":"village"},{"id":"1814099368","name":"Dompa","lat":6.4721688,"lon":-1.4081347,"type":"village"},{"id":"1814099369","name":"Ankasi","lat":6.4764084,"lon":-1.3810153,"type":"village"},{"id":"1814099370","name":"Esaase","lat":6.4858929,"lon":-1.3245196,"type":"village"},{"id":"1814099371","name":"Amakom","lat":6.4879391,"lon":-1.3730069,"type":"village"},{"id":"1814099372","name":"Adjamam","lat":6.493609,"lon":-1.3721917,"type":"village"},{"id":"1814099373","name":"Beposo","lat":6.5068545,"lon":-1.3443304,"type":"village"},{"id":"1814099374","name":"Abaase","lat":6.5141918,"lon":-1.4426229,"type":"village"},{"id":"1814099375","name":"Konkoma","lat":6.5145997,"lon":-1.353165,"type":"village"},{"id":"1814099376","name":"Adwafo Krom","lat":6.5279645,"lon":-1.4381198,"type":"village"},{"id":"1814099377","name":"Abono","lat":6.5351065,"lon":-1.4301852,"type":"village"},{"id":"1814099378","name":"New Brodekwano","lat":6.5367272,"lon":-1.3526265,"type":"village"},{"id":"1814099379","name":"Obo","lat":6.5386101,"lon":-1.4156045,"type":"village"},{"id":"1814099380","name":"Patriensa","lat":6.5390453,"lon":-1.4556835,"type":"village"},{"id":"1814099381","name":"Nkowi","lat":6.5411367,"lon":-1.4027192,"type":"village"},{"id":"1814099382","name":"Mim","lat":6.5465604,"lon":-1.3712181,"type":"village"},{"id":"1814099383","name":"Swedru","lat":6.5511807,"lon":-1.500518,"type":"village"},{"id":"1814099385","name":"Asisiriwa","lat":6.5544095,"lon":-1.3829505,"type":"village"},{"id":"1814099398","name":"Nyamieni","lat":6.5646151,"lon":-1.4285811,"type":"village"},{"id":"1814099399","name":"Kokodei","lat":6.5659358,"lon":-1.4781702,"type":"village"},{"id":"1814099401","name":"Jachie","lat":6.5700264,"lon":-1.5200748,"type":"village"},{"id":"1814099403","name":"Akwaduo","lat":6.5957542,"lon":-1.5223664,"type":"village"},{"id":"1814099404","name":"Atobiase","lat":6.6076281,"lon":-1.5284183,"type":"village"},{"id":"1814099408","name":"Tetrefu","lat":6.6199757,"lon":-1.5176956,"type":"village"},{"id":"1814099411","name":"Homabenase","lat":6.6225894,"lon":-1.4958793,"type":"village"},{"id":"1814099413","name":"Sawua","lat":6.6255526,"lon":-1.5367907,"type":"village"},{"id":"1814099416","name":"Deduako","lat":6.6378991,"lon":-1.4748553,"type":"village"},{"id":"1814099433","name":"Prabon","lat":6.6384167,"lon":-1.5496696,"type":"village"},{"id":"1814099436","name":"Donyina","lat":6.6396629,"lon":-1.4933933,"type":"village"},{"id":"1814294557","name":"Abutia","lat":6.5418962,"lon":0.446727,"type":"village"},{"id":"1814294558","name":"Atsiati","lat":6.6562212,"lon":0.5123005,"type":"village"},{"id":"1814294572","name":"Boako","lat":6.398042,"lon":-2.5675743,"type":"town"},{"id":"1814294579","name":"Maste","lat":6.6606499,"lon":0.508367,"type":"village"},{"id":"1814297823","name":"Sokode Etoe","lat":6.5740764,"lon":0.4133276,"type":"village"},{"id":"1814297825","name":"Kiefe","lat":6.6200142,"lon":0.4474337,"type":"village"},{"id":"1814297828","name":"Akoefe Torkor","lat":6.6475663,"lon":0.4933393,"type":"village"},{"id":"1814297830","name":"Tanyigbe","lat":6.6986217,"lon":0.5262272,"type":"village"},{"id":"1814433112","name":"Sefwi Asafo","lat":6.3971615,"lon":-2.6597228,"type":"village"},{"id":"1814606099","name":"Lakpa","lat":6.0894763,"lon":-0.1747936,"type":"village"},{"id":"1814607898","name":"Nkyenoa","lat":6.0565954,"lon":-0.1515798,"type":"village"},{"id":"1814607899","name":"Adweso","lat":6.0633434,"lon":-0.2492703,"type":"town"},{"id":"1814607900","name":"Safo","lat":6.0751123,"lon":-0.1352955,"type":"village"},{"id":"1814607901","name":"Amafrom Akwapim","lat":6.1112226,"lon":-0.1238941,"type":"village"},{"id":"1814607902","name":"Okrakwadwo","lat":6.1113906,"lon":-0.1074255,"type":"town"},{"id":"1814607903","name":"Nsutam","lat":6.1161641,"lon":-0.1329214,"type":"village"},{"id":"1814607904","name":"Kobokobo","lat":6.1174111,"lon":-0.1421181,"type":"village"},{"id":"1814607905","name":"Onyamebekyere","lat":6.1196081,"lon":-0.1500606,"type":"village"},{"id":"1814607906","name":"Oyoko","lat":6.1372155,"lon":-0.2882317,"type":"town"},{"id":"1814607907","name":"Jumapo","lat":6.1598031,"lon":-0.298873,"type":"village"},{"id":"1814607908","name":"Suhyen","lat":6.1645892,"lon":-0.314666,"type":"village"},{"id":"1814607909","name":"Adimensa","lat":6.165307,"lon":-0.1335488,"type":"village"},{"id":"1814625848","name":"Wuwuso","lat":5.7065843,"lon":-1.8669663,"type":"village"},{"id":"1814759385","name":"Aburi","lat":5.8474757,"lon":-0.1752664,"type":"town"},{"id":"1814759400","name":"Adawso","lat":5.9510107,"lon":-0.2141938,"type":"village"},{"id":"1814759404","name":"Bewasi","lat":5.9772131,"lon":-0.1537958,"type":"village"},{"id":"1814761435","name":"Tinkong","lat":5.9903426,"lon":-0.2358239,"type":"village"},{"id":"1814761439","name":"Oboadaka","lat":5.8686013,"lon":-0.2157118,"type":"village"},{"id":"1814761449","name":"Pipawani","lat":5.8821383,"lon":-0.2193035,"type":"village"},{"id":"1814761454","name":"Mampong","lat":5.9134841,"lon":-0.1401183,"type":"village"},{"id":"1814761458","name":"Addo Nkwanta","lat":5.9316638,"lon":-0.15895,"type":"village"},{"id":"1814761463","name":"Mamfe","lat":5.9392213,"lon":-0.1141126,"type":"village"},{"id":"1814761473","name":"Yensiso","lat":5.9536633,"lon":-0.1625122,"type":"village"},{"id":"1814761474","name":"Kokoomu","lat":5.9564072,"lon":-0.1752878,"type":"village"},{"id":"1814761478","name":"Kwamoso","lat":5.959543,"lon":-0.1481273,"type":"village"},{"id":"1814761486","name":"Otwetiri","lat":5.9743399,"lon":-0.1882933,"type":"village"},{"id":"1814761491","name":"Tinkong","lat":5.9824426,"lon":-0.2349263,"type":"village"},{"id":"1814761502","name":"Obom Abonse","lat":5.9910308,"lon":-0.1815935,"type":"village"},{"id":"1814761506","name":"Asasekorkor","lat":5.995179,"lon":-0.1638259,"type":"village"},{"id":"1814761526","name":"Kurutiase","lat":6.0192834,"lon":-0.1245466,"type":"village"},{"id":"1814761540","name":"Konko","lat":6.0275443,"lon":-0.1988726,"type":"village"},{"id":"1814761544","name":"Amahi","lat":6.039796,"lon":-0.1836328,"type":"village"},{"id":"1814761552","name":"Twumguaso","lat":6.0419017,"lon":-0.1690795,"type":"village"},{"id":"1814761557","name":"Kwaw Darko","lat":6.0599168,"lon":-0.14367,"type":"village"},{"id":"1814761578","name":"Otareso","lat":6.0840597,"lon":-0.1281055,"type":"village"},{"id":"1818629295","name":"Abuoso","lat":6.51736,"lon":-0.2692139,"type":"village"},{"id":"1818629296","name":"Asukawkaw","lat":6.8132633,"lon":-1.3304616,"type":"village"},{"id":"1818629297","name":"Mankrong","lat":5.9741208,"lon":-0.4123002,"type":"village"},{"id":"1818632565","name":"Twapease","lat":6.3820927,"lon":-0.9127244,"type":"village"},{"id":"1818632570","name":"Saabo","lat":6.4666541,"lon":-1.0681313,"type":"village"},{"id":"1818632571","name":"Kumeso","lat":6.4742295,"lon":-1.0861274,"type":"village"},{"id":"1818632572","name":"Praso Amoada","lat":6.5072396,"lon":-0.9837789,"type":"village"},{"id":"1818632573","name":"Gyamaase No.2","lat":6.5481857,"lon":-0.9485548,"type":"village"},{"id":"1818632574","name":"Dampong","lat":6.5559145,"lon":-1.0465372,"type":"village"},{"id":"1818632575","name":"Gyamaase No.1","lat":6.5650953,"lon":-0.9560015,"type":"village"},{"id":"1818632576","name":"Asuboa","lat":6.578108,"lon":-1.036431,"type":"village"},{"id":"1818632577","name":"Adontekurom","lat":6.6317248,"lon":-0.9741978,"type":"village"},{"id":"1818632579","name":"Lowcost","lat":6.6390777,"lon":-1.2089196,"type":"village"},{"id":"1818632580","name":"Asempaneye","lat":6.6398706,"lon":-0.9620264,"type":"village"},{"id":"1818632581","name":"Nyaboo","lat":6.6517811,"lon":-1.1845098,"type":"village"},{"id":"1818632582","name":"Sukwa","lat":6.656353,"lon":-0.9563957,"type":"village"},{"id":"1818632583","name":"Patriensa","lat":6.6619572,"lon":-1.1789403,"type":"town"},{"id":"1818632584","name":"Adomfe","lat":6.6665816,"lon":-1.0821491,"type":"village"},{"id":"1818632585","name":"Obenimase","lat":6.6758211,"lon":-1.166701,"type":"village"},{"id":"1818632586","name":"Mframa","lat":6.6886309,"lon":-0.9517879,"type":"village"},{"id":"1818632587","name":"Kyekyebiase","lat":6.6889333,"lon":-1.1464169,"type":"village"},{"id":"1818632588","name":"Dwerebease","lat":6.7301603,"lon":-0.9400544,"type":"village"},{"id":"1818632589","name":"Menam","lat":6.7752603,"lon":-1.239247,"type":"village"},{"id":"1818632590","name":"Woraponso","lat":6.8191342,"lon":-1.2485433,"type":"village"},{"id":"1818632591","name":"Abasi","lat":6.8952482,"lon":-1.2357162,"type":"town"},{"id":"1818632592","name":"Drobonso","lat":7.0641667,"lon":-1.1243691,"type":"village"},{"id":"1818632593","name":"Kyeiase","lat":7.1923705,"lon":-1.0112985,"type":"village"},{"id":"1818632594","name":"Balana","lat":7.3115773,"lon":-1.2315482,"type":"village"},{"id":"1818632595","name":"Santaso","lat":7.3190764,"lon":-1.2431412,"type":"village"},{"id":"1818632596","name":"Oku Junction","lat":7.3440725,"lon":-1.0006707,"type":"village"},{"id":"1818632598","name":"Daudakrom","lat":7.4649303,"lon":-1.1421039,"type":"village"},{"id":"1818632599","name":"Akokoa","lat":7.5896925,"lon":-1.1488779,"type":"village"},{"id":"1818632601","name":"Sampa","lat":7.6494228,"lon":-1.0641405,"type":"village"},{"id":"1818836577","name":"Kunkunu","lat":5.817339,"lon":-0.1990143,"type":"village"},{"id":"1818836578","name":"Amanfrom","lat":5.8240834,"lon":-0.2469909,"type":"village"},{"id":"1818836579","name":"Nsabaa","lat":5.8279224,"lon":-0.2286347,"type":"village"},{"id":"1818836580","name":"Amanfo","lat":5.8422408,"lon":-0.242454,"type":"village"},{"id":"1818836583","name":"Yaw Duodu","lat":5.8472211,"lon":-0.230512,"type":"village"},{"id":"1818836587","name":"Apantem","lat":5.8536019,"lon":-0.2401073,"type":"village"},{"id":"1818836595","name":"Bisase","lat":5.864859,"lon":-0.2219075,"type":"village"},{"id":"1818836596","name":"Kwamentow","lat":5.8735741,"lon":-0.2337452,"type":"village"},{"id":"1818961012","name":"Akyeansa","lat":6.0295977,"lon":-0.5567355,"type":"village"},{"id":"1818963918","name":"Bawjiase","lat":5.6837409,"lon":-0.5561676,"type":"town"},{"id":"1818963919","name":"Saakwa-kwa","lat":5.7285996,"lon":-0.6808818,"type":"village"},{"id":"1818963920","name":"Kumikrom","lat":5.7604623,"lon":-0.695225,"type":"village"},{"id":"1818963921","name":"Esaso","lat":5.7673726,"lon":-0.6991669,"type":"village"},{"id":"1818963922","name":"Bekoase","lat":5.7682423,"lon":-0.7150836,"type":"village"},{"id":"1818963923","name":"Aprianim","lat":5.7743983,"lon":-0.7356979,"type":"village"},{"id":"1818963924","name":"Winam","lat":5.7776173,"lon":-0.670791,"type":"village"},{"id":"1818963925","name":"Kofikyere","lat":5.7851777,"lon":-0.6475388,"type":"village"},{"id":"1818963926","name":"Akatayensua","lat":5.7905282,"lon":-0.655289,"type":"village"},{"id":"1818963927","name":"Asuoso","lat":5.7950865,"lon":-0.792637,"type":"village"},{"id":"1818963928","name":"Mepom","lat":5.7967212,"lon":-0.5971295,"type":"village"},{"id":"1818963929","name":"Sukrong Bethlehem","lat":5.8059209,"lon":-0.6130322,"type":"village"},{"id":"1818963930","name":"Nkyekyerekye","lat":5.8074172,"lon":-0.5830613,"type":"village"},{"id":"1818963932","name":"Asumpa","lat":5.8157089,"lon":-0.6585212,"type":"village"},{"id":"1818963937","name":"Asuokaw","lat":5.8206804,"lon":-0.631534,"type":"village"},{"id":"1818963942","name":"Obenyaw","lat":5.8215706,"lon":-0.4999263,"type":"village"},{"id":"1818963945","name":"Odumase","lat":5.8305796,"lon":-0.5986823,"type":"village"},{"id":"1818963946","name":"Krofofrom","lat":5.8357211,"lon":-0.7056304,"type":"village"},{"id":"1818963947","name":"Peniama","lat":5.8544948,"lon":-0.5830315,"type":"village"},{"id":"1818963951","name":"Asamankese","lat":5.8610103,"lon":-0.657934,"type":"town"},{"id":"1818963952","name":"Kofi Dede","lat":5.8609874,"lon":-0.7556037,"type":"village"},{"id":"1818963953","name":"Bepowase","lat":5.8729322,"lon":-0.5129596,"type":"village"},{"id":"1818963954","name":"Kraboakese","lat":5.8793611,"lon":-0.4309348,"type":"village"},{"id":"1818963955","name":"Topease","lat":5.8861131,"lon":-0.7160588,"type":"village"},{"id":"1818963956","name":"Nkwanta","lat":5.8876059,"lon":-0.4847576,"type":"village"},{"id":"1818963957","name":"Kojo Fachuma","lat":5.8989109,"lon":-0.6004989,"type":"village"},{"id":"1818963958","name":"Asibiremu","lat":5.8900226,"lon":-0.6163951,"type":"village"},{"id":"1818963959","name":"Nyakuma","lat":5.946378,"lon":-0.8034664,"type":"village"},{"id":"1818963961","name":"Ada","lat":5.9169853,"lon":-0.5699183,"type":"village"},{"id":"1818963962","name":"Kwaku Sae","lat":5.9336272,"lon":-0.6276064,"type":"village"},{"id":"1818963963","name":"Kwaboanta","lat":5.9184302,"lon":-0.561703,"type":"village"},{"id":"1818963964","name":"Abukyenso","lat":5.9211809,"lon":-0.6891086,"type":"village"},{"id":"1818963965","name":"Akwadum","lat":5.9228248,"lon":-0.5110371,"type":"village"},{"id":"1818963966","name":"Arku Kurom","lat":5.9293809,"lon":-0.5473141,"type":"village"},{"id":"1818963967","name":"Dokrochiwa","lat":5.9323657,"lon":-0.5187725,"type":"village"},{"id":"1818963968","name":"Bunso","lat":5.9383169,"lon":-0.6711806,"type":"village"},{"id":"1818963969","name":"Oworom","lat":5.9397241,"lon":-0.6069796,"type":"village"},{"id":"1818963970","name":"Kofipare","lat":5.9506846,"lon":-0.573948,"type":"village"},{"id":"1818963972","name":"Kyekulabi","lat":5.9770365,"lon":-0.5050796,"type":"village"},{"id":"1819076124","name":"Aboabo No.2","lat":6.2217537,"lon":-1.3549957,"type":"village"},{"id":"1819076129","name":"Nsuaem No.2","lat":6.3634746,"lon":-1.3645187,"type":"village"},{"id":"1819076134","name":"Pipliso","lat":6.2336727,"lon":-1.3960472,"type":"village"},{"id":"1819076579","name":"New Edubiase","lat":6.06106,"lon":-1.391838,"type":"town"},{"id":"1819076580","name":"Tonkoase","lat":6.1254079,"lon":-1.327974,"type":"village"},{"id":"1819076581","name":"Kunsimua","lat":6.1784412,"lon":-1.4423526,"type":"village"},{"id":"1819076582","name":"Kawbin","lat":6.1900729,"lon":-1.432884,"type":"village"},{"id":"1819076583","name":"Aboabo","lat":6.2097883,"lon":-1.3608106,"type":"village"},{"id":"1819076584","name":"Bodwesango","lat":6.279969,"lon":-1.42176,"type":"village"},{"id":"1819076585","name":"Fereso No.2","lat":6.3119337,"lon":-1.3821579,"type":"village"},{"id":"1819076586","name":"Abosamso","lat":6.3150505,"lon":-1.4141401,"type":"village"},{"id":"1819076587","name":"Korkyikrom","lat":6.3226903,"lon":-1.362737,"type":"village"},{"id":"1819076588","name":"Amomorso","lat":6.3411407,"lon":-1.395971,"type":"village"},{"id":"1819076589","name":"Nsuaem No.1","lat":6.3586495,"lon":-1.3759734,"type":"village"},{"id":"1819076590","name":"Ofoase","lat":6.3913329,"lon":-1.2840249,"type":"village"},{"id":"1819076591","name":"Anyanso","lat":6.3989158,"lon":-1.3105393,"type":"village"},{"id":"1819076595","name":"Adumasa","lat":6.4798664,"lon":-1.4698157,"type":"village"},{"id":"1819076597","name":"Adwafo Old Town","lat":6.4936406,"lon":-1.4729054,"type":"village"},{"id":"1819076599","name":"Adwafo New Town","lat":6.5233045,"lon":-1.4786331,"type":"village"},{"id":"1819076600","name":"Piase","lat":6.5876958,"lon":-1.4513172,"type":"village"},{"id":"1819076601","name":"Kwahu Praso No.2","lat":6.6241454,"lon":-0.9132355,"type":"village"},{"id":"1819076602","name":"Kwaso","lat":6.6301225,"lon":-1.4510933,"type":"village"},{"id":"1819076603","name":"Bompata","lat":6.634161,"lon":-1.059595,"type":"village"},{"id":"1819076604","name":"Nkurakan","lat":6.6381558,"lon":-0.9246991,"type":"village"},{"id":"1819076605","name":"Wenchi","lat":6.6382307,"lon":-1.080841,"type":"village"},{"id":"1819076606","name":"Morso","lat":6.6537053,"lon":-1.1082832,"type":"village"},{"id":"1819076607","name":"Adunkwae","lat":6.653991,"lon":-0.9291825,"type":"village"},{"id":"1819076608","name":"Essieninpong","lat":6.6555474,"lon":-1.4498446,"type":"village"},{"id":"1819076609","name":"Achinakrom","lat":6.6613054,"lon":-1.468128,"type":"village"},{"id":"1819076610","name":"Osubeng","lat":6.6683632,"lon":-0.9182322,"type":"village"},{"id":"1819076611","name":"Kurofa","lat":6.6846082,"lon":-1.1075433,"type":"village"},{"id":"1819076612","name":"Onwe","lat":6.6847965,"lon":-1.449708,"type":"village"},{"id":"1819076613","name":"Besease","lat":6.7236025,"lon":-1.4487314,"type":"village"},{"id":"1819076614","name":"Asotwe","lat":6.7492306,"lon":-1.4546912,"type":"village"},{"id":"1819076615","name":"Akutuase","lat":6.7716858,"lon":-1.1750173,"type":"village"},{"id":"1819076616","name":"Abira","lat":6.7715525,"lon":-1.4937285,"type":"village"},{"id":"1819076617","name":"Bamang","lat":6.7898584,"lon":-1.4584275,"type":"village"},{"id":"1819076618","name":"Wiawso","lat":6.7945099,"lon":-1.1855459,"type":"village"},{"id":"1819076619","name":"Kowireso","lat":6.8975322,"lon":-0.9137644,"type":"village"},{"id":"1819076620","name":"Jeduako","lat":7.0918847,"lon":-1.2123087,"type":"village"},{"id":"1819556926","name":"Sereso Tinponmu","lat":6.6210497,"lon":-2.3014537,"type":"village"},{"id":"1819556927","name":"Achiase Wansamire","lat":6.6715173,"lon":-2.3055594,"type":"village"},{"id":"1819556928","name":"Wansamire","lat":6.6824162,"lon":-2.2854369,"type":"village"},{"id":"1819556930","name":"Amoam Achiase","lat":6.7383553,"lon":-1.5357033,"type":"village"},{"id":"1819556931","name":"Abirem","lat":6.7450111,"lon":-1.5511494,"type":"village"},{"id":"1819556933","name":"Mpasaso No.2","lat":6.794654,"lon":-2.1422165,"type":"village"},{"id":"1819556934","name":"Hiamankwa","lat":6.7987877,"lon":-2.1386083,"type":"village"},{"id":"1819556936","name":"Asonomaso","lat":6.8281866,"lon":-1.4962873,"type":"village"},{"id":"1819556937","name":"Adopekurom","lat":6.8417503,"lon":-2.1072213,"type":"village"},{"id":"1819556938","name":"Domeabra","lat":6.8683411,"lon":-2.0529363,"type":"village"},{"id":"1819556939","name":"Mprim","lat":7.0266532,"lon":-1.4510144,"type":"village"},{"id":"1819556940","name":"Nkwabirem","lat":7.0449159,"lon":-1.3549945,"type":"village"},{"id":"1819556941","name":"Nyinampong","lat":7.0672632,"lon":-1.4552153,"type":"village"},{"id":"1819556942","name":"Bomaa","lat":7.080539,"lon":-2.1696508,"type":"village"},{"id":"1819556943","name":"Kwasu","lat":7.0815763,"lon":-2.0673834,"type":"village"},{"id":"1819556944","name":"Benim","lat":7.088389,"lon":-1.471369,"type":"village"},{"id":"1819556947","name":"Asukese","lat":7.090584,"lon":-2.163509,"type":"village"},{"id":"1819556948","name":"Kyeremfaso","lat":7.0930963,"lon":-1.4076905,"type":"village"},{"id":"1819556949","name":"Penteng","lat":7.0961429,"lon":-1.4504306,"type":"village"},{"id":"1819556950","name":"Buokrukruwa","lat":7.1204849,"lon":-2.0725713,"type":"village"},{"id":"1820138621","name":"Abodom","lat":5.53079,"lon":-0.8221508,"type":"village"},{"id":"1820138638","name":"Bobikuma","lat":5.5581984,"lon":-0.8562358,"type":"village"},{"id":"1820138645","name":"Omen Bobikuma","lat":5.5501191,"lon":-0.8502173,"type":"village"},{"id":"1820144528","name":"Miemia","lat":4.8093906,"lon":-2.1698762,"type":"village"},{"id":"1820144540","name":"Ajemra","lat":4.8161446,"lon":-2.1767625,"type":"village"},{"id":"1820144591","name":"Ajua","lat":4.8693793,"lon":-1.8149447,"type":"village"},{"id":"1820144595","name":"Amaful","lat":4.8757829,"lon":-1.7869899,"type":"village"},{"id":"1820144622","name":"Yedeyesele","lat":4.8988754,"lon":-2.1441495,"type":"village"},{"id":"1820144636","name":"Azuleloanu","lat":4.9476436,"lon":-2.3788541,"type":"village"},{"id":"1820144645","name":"Sanzule","lat":4.9607455,"lon":-2.4535657,"type":"village"},{"id":"1820144651","name":"Krisan","lat":4.9626628,"lon":-2.463654,"type":"village"},{"id":"1820144652","name":"Eikwe","lat":4.964505,"lon":-2.472958,"type":"village"},{"id":"1820144653","name":"Ngalekpole","lat":4.9661211,"lon":-2.4825469,"type":"village"},{"id":"1820144655","name":"Ngalekyi","lat":4.9685872,"lon":-2.4946679,"type":"village"},{"id":"1820144658","name":"Baku","lat":4.9701789,"lon":-2.5014593,"type":"village"},{"id":"1820144662","name":"Anokyi","lat":4.9736328,"lon":-2.5220397,"type":"village"},{"id":"1820144678","name":"Kamgbunli","lat":4.9774273,"lon":-2.4149435,"type":"village"},{"id":"1820144680","name":"Atuabo","lat":4.9804404,"lon":-2.5547548,"type":"village"},{"id":"1820144682","name":"Asemndasuazo","lat":4.9884394,"lon":-2.5393333,"type":"village"},{"id":"1820144687","name":"Alabokazo","lat":4.9962241,"lon":-2.4339774,"type":"village"},{"id":"1820144719","name":"AB Bokazo","lat":5.0090926,"lon":-2.4365667,"type":"village"},{"id":"1820144727","name":"Ankwanda","lat":5.0724504,"lon":-1.3928895,"type":"village"},{"id":"1820144731","name":"Essaman","lat":5.1046817,"lon":-1.3933673,"type":"village"},{"id":"1820144746","name":"Ankaful Village","lat":5.1481104,"lon":-1.3058579,"type":"village"},{"id":"1820144752","name":"Anto Essuekyir","lat":5.1492748,"lon":-1.2882892,"type":"village"},{"id":"1820144758","name":"Asaafa","lat":5.20574,"lon":-0.9874894,"type":"village"},{"id":"1820144776","name":"Suprudo","lat":5.214281,"lon":-1.0020986,"type":"village"},{"id":"1820144779","name":"Asokwa","lat":5.2285992,"lon":-0.9759794,"type":"village"},{"id":"1820144782","name":"Biden","lat":5.2290543,"lon":-1.0078989,"type":"village"},{"id":"1820144784","name":"Ebiramkrom","lat":5.230234,"lon":-0.8949971,"type":"village"},{"id":"1820144814","name":"Gomoa (Assin) Brofoyedru","lat":5.3218145,"lon":-0.800561,"type":"village"},{"id":"1820144827","name":"Ajumako","lat":5.348327,"lon":-0.771089,"type":"village"},{"id":"1820144831","name":"Ngyiresi","lat":5.3536447,"lon":-0.8446265,"type":"village"},{"id":"1820144835","name":"Adaa","lat":5.3593563,"lon":-0.8397581,"type":"village"},{"id":"1820144838","name":"Gomoa Brofo","lat":5.3611117,"lon":-0.8591914,"type":"village"},{"id":"1820144852","name":"Nsuakyire","lat":5.3676089,"lon":-0.5849953,"type":"village"},{"id":"1820144853","name":"Nkoranza","lat":5.367978,"lon":-0.7973034,"type":"village"},{"id":"1820144856","name":"Abonku","lat":5.3939182,"lon":-0.7695878,"type":"village"},{"id":"1820144881","name":"Gomoa Enyemen","lat":5.4107322,"lon":-0.795286,"type":"village"},{"id":"1820144885","name":"Lome","lat":5.4138108,"lon":-0.7550653,"type":"village"},{"id":"1820144887","name":"Gomoa Oguaa","lat":5.421311,"lon":-0.813481,"type":"village"},{"id":"1820144897","name":"Gomoa Denkyira","lat":5.4266789,"lon":-0.7895334,"type":"village"},{"id":"1820144900","name":"Gomoa Mankesim","lat":5.4389344,"lon":-0.8303837,"type":"village"},{"id":"1820144905","name":"Awomberew","lat":5.4499171,"lon":-0.6690421,"type":"village"},{"id":"1820144914","name":"Adzintam","lat":5.4611332,"lon":-0.6194647,"type":"village"},{"id":"1820144928","name":"Esikuma","lat":5.4726597,"lon":-0.7714706,"type":"village"},{"id":"1820144929","name":"Debiso","lat":5.4757081,"lon":-0.7989392,"type":"village"},{"id":"1820144930","name":"Gomoa Dahom","lat":5.4790569,"lon":-0.7473737,"type":"village"},{"id":"1820144931","name":"Mampong","lat":5.4930991,"lon":-0.8204538,"type":"village"},{"id":"1820144939","name":"Gomoa Gyaman","lat":5.494894,"lon":-0.7643444,"type":"village"},{"id":"1820144942","name":"Gomoa Eshiem","lat":5.4990116,"lon":-0.8501525,"type":"village"},{"id":"1820144949","name":"Achiase","lat":5.5090269,"lon":-0.7370952,"type":"village"},{"id":"1820144952","name":"Kokofu","lat":5.5115753,"lon":-0.8254389,"type":"village"},{"id":"1820144957","name":"Opeikuma","lat":5.5613896,"lon":-0.4755226,"type":"village"},{"id":"1820144958","name":"Kwaman","lat":5.580885,"lon":-0.8308839,"type":"village"},{"id":"1821138454","name":"Mafi Kumase","lat":6.2713926,"lon":0.5709376,"type":"town"},{"id":"1821139493","name":"Adaklu Waya","lat":6.4470511,"lon":0.6286474,"type":"village"},{"id":"1821139496","name":"Mafi Sasekpe","lat":6.2732671,"lon":0.6170355,"type":"village"},{"id":"1821139497","name":"Mafi Amegakofe","lat":6.2912761,"lon":0.6172842,"type":"village"},{"id":"1821139499","name":"Ablornu","lat":6.3497457,"lon":0.6375725,"type":"village"},{"id":"1821139500","name":"Adaklu Sofa","lat":6.3859625,"lon":0.644901,"type":"village"},{"id":"1821139504","name":"Zoukpé","lat":6.6006638,"lon":0.6794024,"type":"village"},{"id":"1821285873","name":"Kofikrom","lat":6.1646103,"lon":-2.5690858,"type":"village"},{"id":"1821288131","name":"Wansampo","lat":6.0627962,"lon":-2.7311018,"type":"village"},{"id":"1821288137","name":"Chorichori","lat":6.0646979,"lon":-2.6837873,"type":"village"},{"id":"1821288205","name":"Nsawora","lat":6.1485349,"lon":-2.6035668,"type":"village"},{"id":"1821288206","name":"Anokokrom","lat":6.1489441,"lon":-2.5805396,"type":"village"},{"id":"1821288243","name":"Asiekrom","lat":6.1779275,"lon":-2.5566939,"type":"village"},{"id":"1821288256","name":"Anhweam","lat":6.1888884,"lon":-2.514349,"type":"village"},{"id":"1821288302","name":"Anwiem","lat":6.2067508,"lon":-2.5107701,"type":"village"},{"id":"1821288303","name":"Kwadokrom","lat":6.2114801,"lon":-2.6037675,"type":"village"},{"id":"1821288310","name":"Aprotu","lat":6.2307969,"lon":-2.6836519,"type":"village"},{"id":"1821288337","name":"Sui","lat":6.2585343,"lon":-2.6560041,"type":"village"},{"id":"1821311907","name":"Ntom","lat":6.0183164,"lon":-2.5611501,"type":"village"},{"id":"1821311908","name":"Asamponkrom","lat":6.0343,"lon":-2.5532542,"type":"village"},{"id":"1821311909","name":"Asantekrom","lat":6.0568113,"lon":-2.5722792,"type":"village"},{"id":"1821311917","name":"Nyame nnae","lat":6.2820312,"lon":-2.5505971,"type":"village"},{"id":"1821311918","name":"Nkonya","lat":6.282859,"lon":-2.6237662,"type":"village"},{"id":"1821311919","name":"Bonwire","lat":6.2843858,"lon":-2.4653176,"type":"village"},{"id":"1821311920","name":"Kama","lat":6.2910039,"lon":-2.7130026,"type":"village"},{"id":"1821311927","name":"Abrabra","lat":6.3017287,"lon":-2.6078649,"type":"village"},{"id":"1821311929","name":"Mile 5","lat":6.3222077,"lon":-2.5962676,"type":"village"},{"id":"1821311967","name":"Oparekrom","lat":6.3320316,"lon":-2.6880051,"type":"village"},{"id":"1821311971","name":"Kwasi Adukrom","lat":6.337221,"lon":-2.7206613,"type":"village"},{"id":"1821311972","name":"Odumtankwa","lat":6.3414442,"lon":-2.6623343,"type":"village"},{"id":"1821312009","name":"Sefwi Camp","lat":6.3540903,"lon":-2.5418099,"type":"village"},{"id":"1821312016","name":"Achiachen","lat":6.3790187,"lon":-2.6726798,"type":"village"},{"id":"1821312017","name":"Mile 82","lat":6.3858882,"lon":-2.6259057,"type":"village"},{"id":"1821312054","name":"Kankyiabo","lat":6.4133417,"lon":-2.6751081,"type":"village"},{"id":"1821329351","name":"Kwafukaa","lat":6.2745995,"lon":-2.7725925,"type":"village"},{"id":"1821329353","name":"Afere","lat":6.3122533,"lon":-2.8133569,"type":"village"},{"id":"1821329357","name":"Juaboso","lat":6.3415722,"lon":-2.8235416,"type":"village"},{"id":"1821464900","name":"Betenase","lat":6.1292008,"lon":-2.5509567,"type":"village"},{"id":"1821467628","name":"Sefwi Wiawso","lat":6.2052869,"lon":-2.4882333,"type":"town"},{"id":"1821467647","name":"Mile 81","lat":6.3924695,"lon":-2.6150083,"type":"village"},{"id":"1821467653","name":"Agyeikrom","lat":6.4064032,"lon":-2.4506391,"type":"village"},{"id":"1821467654","name":"Kokooso","lat":6.4175331,"lon":-2.4634531,"type":"village"},{"id":"1821467657","name":"Tanoso","lat":6.4260415,"lon":-2.4937249,"type":"village"},{"id":"1821467674","name":"Ampabame","lat":6.4586297,"lon":-2.6401143,"type":"village"},{"id":"1821467678","name":"Kojina","lat":6.4632441,"lon":-2.7167875,"type":"village"},{"id":"1821467684","name":"Sefwi Essakrom","lat":6.4641002,"lon":-2.7300695,"type":"village"},{"id":"1821467685","name":"Aboagyekrom","lat":6.4703931,"lon":-2.6705695,"type":"village"},{"id":"1822004937","name":"Akrodie","lat":6.6942812,"lon":-2.554423,"type":"town"},{"id":"1822008112","name":"Beposo No.2","lat":6.4452491,"lon":-2.5050073,"type":"village"},{"id":"1822008115","name":"Ahwiaa","lat":6.454758,"lon":-2.4916176,"type":"village"},{"id":"1822008120","name":"Ntonso","lat":6.4646456,"lon":-2.5242734,"type":"village"},{"id":"1822008152","name":"Gyampokrom","lat":6.4903418,"lon":-2.6736236,"type":"village"},{"id":"1822008165","name":"Anum","lat":6.5031578,"lon":-2.5723746,"type":"village"},{"id":"1822008186","name":"Brekuline","lat":6.5137839,"lon":-2.6729058,"type":"village"},{"id":"1822008192","name":"Agyerekrom","lat":6.5180768,"lon":-2.5930664,"type":"village"},{"id":"1822008197","name":"Alavanyo","lat":6.5279744,"lon":-2.602522,"type":"village"},{"id":"1822008201","name":"Tetekwao","lat":6.5327349,"lon":-2.6597597,"type":"village"},{"id":"1822008203","name":"Beposo","lat":6.5378192,"lon":-2.6159083,"type":"village"},{"id":"1822008204","name":"Suiso Bodwease","lat":6.5535669,"lon":-2.6521706,"type":"village"},{"id":"1822008223","name":"Afodowa No.1","lat":6.5566503,"lon":-2.6174335,"type":"village"},{"id":"1822008229","name":"Suiso","lat":6.5626984,"lon":-2.662347,"type":"village"},{"id":"1822008234","name":"Kofi Benkurom","lat":6.5689836,"lon":-2.6345633,"type":"village"},{"id":"1822008240","name":"Asarekurom","lat":6.5768696,"lon":-2.6393382,"type":"village"},{"id":"1822008242","name":"Denyase No.3","lat":6.5834174,"lon":-2.6708076,"type":"village"},{"id":"1822008257","name":"Abuom","lat":6.6179823,"lon":-2.7039682,"type":"village"},{"id":"1822008268","name":"Baakodue","lat":6.6874512,"lon":-2.7315066,"type":"village"},{"id":"1822008274","name":"Mpamase No.1","lat":6.6945823,"lon":-2.5994,"type":"village"},{"id":"1822008310","name":"Fawohoyeden","lat":6.7314832,"lon":-2.5729117,"type":"village"},{"id":"1822008319","name":"Asuboe","lat":6.7315982,"lon":-2.604612,"type":"village"},{"id":"1822008346","name":"Ayomso","lat":6.7603781,"lon":-2.5871089,"type":"village"},{"id":"1822008363","name":"Charles Kurom","lat":6.7677727,"lon":-2.6231407,"type":"village"},{"id":"1822008368","name":"Odumase No.1","lat":6.7904189,"lon":-2.616162,"type":"village"},{"id":"1822008373","name":"Akwaadro","lat":6.7974554,"lon":-2.631104,"type":"village"},{"id":"1822008387","name":"Kumaho","lat":6.8035944,"lon":-2.6166411,"type":"village"},{"id":"1822008391","name":"Gyasikrom","lat":6.8098634,"lon":-2.7094831,"type":"village"},{"id":"1822008395","name":"Anwianwia","lat":6.8186159,"lon":-2.6795784,"type":"village"},{"id":"1823167310","name":"Bediakokrom","lat":6.9567314,"lon":-2.6186489,"type":"village"},{"id":"1823167311","name":"Mim","lat":6.9027638,"lon":-2.5576861,"type":"town"},{"id":"1823169645","name":"Kukuom","lat":6.6943151,"lon":-2.4432741,"type":"town"},{"id":"1823169647","name":"Asuadee","lat":6.8197321,"lon":-2.5471351,"type":"village"},{"id":"1823169648","name":"Kokofu","lat":6.83135,"lon":-2.4881847,"type":"village"},{"id":"1823169650","name":"Boakyekrom (Larbikrom)","lat":6.8588504,"lon":-2.7297375,"type":"village"},{"id":"1823169651","name":"Driverkrom","lat":6.8597023,"lon":-2.6912451,"type":"village"},{"id":"1823169652","name":"Kwaoprettey","lat":6.867042,"lon":-2.7421755,"type":"village"},{"id":"1823169653","name":"Fianko","lat":6.8798315,"lon":-2.7001228,"type":"village"},{"id":"1823169654","name":"Nyamebekyere","lat":6.8829261,"lon":-2.4179617,"type":"village"},{"id":"1823169655","name":"Woramumuso","lat":6.8934661,"lon":-2.4078339,"type":"village"},{"id":"1823169656","name":"Aworokrom","lat":6.9031456,"lon":-2.7202932,"type":"village"},{"id":"1823169658","name":"Amanfrom","lat":6.9119305,"lon":-2.3887459,"type":"village"},{"id":"1823169659","name":"Donkokurom (metimamo)","lat":6.9254115,"lon":-2.4319651,"type":"village"},{"id":"1823169661","name":"Obengkurom","lat":6.9354867,"lon":-2.4108931,"type":"village"},{"id":"1823169662","name":"Kofibuokurom","lat":6.9366574,"lon":-2.6055674,"type":"village"},{"id":"1823169663","name":"Gyaenkontabuo","lat":6.9374795,"lon":-2.6229032,"type":"village"},{"id":"1823169664","name":"Asukese","lat":6.942553,"lon":-2.5147506,"type":"village"},{"id":"1823169665","name":"Dominase","lat":6.9461621,"lon":-2.7167263,"type":"village"},{"id":"1823169666","name":"Kwahu","lat":6.9518954,"lon":-2.476874,"type":"village"},{"id":"1823169667","name":"Kwasi Pokukrom","lat":6.965782,"lon":-2.4361453,"type":"village"},{"id":"1823169668","name":"Bogyampa","lat":6.9748649,"lon":-2.4660492,"type":"village"},{"id":"1823169669","name":"Kensere","lat":6.9936855,"lon":-2.5351757,"type":"village"},{"id":"1823169670","name":"Gambia No. 1","lat":7.0378007,"lon":-2.6383239,"type":"village"},{"id":"1823169671","name":"Kenyasi Camp","lat":7.038514,"lon":-2.5116027,"type":"village"},{"id":"1823169672","name":"Tutuka","lat":7.0417445,"lon":-2.3964321,"type":"village"},{"id":"1823169673","name":"Koforidua","lat":7.0568996,"lon":-2.5003908,"type":"village"},{"id":"1823169674","name":"Gambia No. 2","lat":7.0586268,"lon":-2.6542897,"type":"village"},{"id":"1823169675","name":"Yaw Owusukrom","lat":7.0693798,"lon":-2.375891,"type":"village"},{"id":"1823169676","name":"Asamang","lat":7.0704444,"lon":-2.4903192,"type":"village"},{"id":"1823169677","name":"Nkrankrom","lat":7.0768705,"lon":-2.4247197,"type":"village"},{"id":"1823169678","name":"Manteware","lat":7.1949351,"lon":-2.8365317,"type":"village"},{"id":"1823169679","name":"Aboabo No.4","lat":7.1976708,"lon":-2.8072959,"type":"village"},{"id":"1823169680","name":"Aboabo No.2","lat":7.2090449,"lon":-2.8078846,"type":"village"},{"id":"1823169681","name":"Ammasu","lat":7.2235021,"lon":-2.7859607,"type":"town"},{"id":"1823169682","name":"Kurasua Number 2","lat":7.2461485,"lon":-2.4321597,"type":"village"},{"id":"1823169683","name":"Kurosua No.2","lat":7.2559408,"lon":-2.4306292,"type":"village"},{"id":"1823169686","name":"Kwabenakuma","lat":7.2620533,"lon":-2.4861265,"type":"village"},{"id":"1823169687","name":"Kyeremasu","lat":7.2630206,"lon":-2.7585195,"type":"town"},{"id":"1823169690","name":"Tonasuano","lat":7.28378,"lon":-2.747321,"type":"village"},{"id":"1823169692","name":"Nwawasua","lat":7.2901293,"lon":-2.4050175,"type":"village"},{"id":"1823169695","name":"Mantukwa","lat":7.3855232,"lon":-2.3716156,"type":"village"},{"id":"1823169696","name":"Odumase","lat":7.3682977,"lon":-2.3125567,"type":"town"},{"id":"1823170915","name":"Kobro-Sekyerekrom","lat":6.9535717,"lon":-2.7302112,"type":"village"},{"id":"1823170916","name":"Gyamfikrom","lat":6.9556395,"lon":-2.7467324,"type":"village"},{"id":"1823170917","name":"Koto Addokrom","lat":6.9634114,"lon":-2.8768913,"type":"village"},{"id":"1823170921","name":"Kwasi Kyeremekrom","lat":6.9881525,"lon":-2.9289693,"type":"village"},{"id":"1823170922","name":"Nyankomagokrom","lat":6.9890081,"lon":-2.6975996,"type":"village"},{"id":"1823170927","name":"Appeakrom","lat":6.9905766,"lon":-3.0066911,"type":"village"},{"id":"1823170928","name":"Kwakuanya","lat":6.9907192,"lon":-2.9770246,"type":"village"},{"id":"1823170929","name":"Kwadwo Addaikrom","lat":6.9910044,"lon":-2.7144082,"type":"village"},{"id":"1823170930","name":"Jerusalem","lat":6.9910757,"lon":-2.9895233,"type":"village"},{"id":"1823170931","name":"Amoakokrom","lat":6.9924303,"lon":-2.9515962,"type":"village"},{"id":"1823170933","name":"Nkrankwanta","lat":7.0257234,"lon":-3.0442034,"type":"town"},{"id":"1823170935","name":"Kwadwonkrommakurom","lat":7.0304086,"lon":-2.7528592,"type":"village"},{"id":"1823170936","name":"Krakyekurom","lat":7.0317606,"lon":-2.728417,"type":"village"},{"id":"1823170937","name":"Agrave","lat":7.0322126,"lon":-2.7077997,"type":"village"},{"id":"1823170938","name":"Kwabenafo","lat":7.053243,"lon":-2.741776,"type":"village"},{"id":"1823948054","name":"Kwadwoaddaikrom","lat":7.0874056,"lon":-2.68399,"type":"village"},{"id":"1823948073","name":"Nsuta","lat":7.0877539,"lon":-2.6073347,"type":"village"},{"id":"1823948078","name":"Kwamemensakurom","lat":7.1075381,"lon":-2.6189361,"type":"village"},{"id":"1823948080","name":"Tronang","lat":7.1314518,"lon":-2.7357102,"type":"village"},{"id":"1823948086","name":"Kwameasua","lat":7.170809,"lon":-2.7688403,"type":"village"},{"id":"1823948088","name":"Yawbarimakrom","lat":7.1733426,"lon":-2.6192271,"type":"village"},{"id":"1823948092","name":"Mewerefiwo","lat":7.2180189,"lon":-2.6423951,"type":"village"},{"id":"1823948103","name":"Ada Boreso","lat":7.3366714,"lon":-2.4622167,"type":"village"},{"id":"1823948105","name":"Aduonya","lat":7.513856,"lon":-2.4386854,"type":"village"},{"id":"1823948107","name":"Dagadu","lat":7.6118657,"lon":-2.3851766,"type":"village"},{"id":"1823948115","name":"Tainso","lat":7.796603,"lon":-2.2012791,"type":"village"},{"id":"1823948116","name":"Beima","lat":8.0083908,"lon":-2.2998205,"type":"village"},{"id":"1823948117","name":"Boase","lat":8.0223218,"lon":-2.2972632,"type":"village"},{"id":"1823948128","name":"Sabiye","lat":8.0692979,"lon":-2.351823,"type":"village"},{"id":"1823948133","name":"Fawoman","lat":8.120978,"lon":-2.240116,"type":"village"},{"id":"1823948136","name":"Gbao","lat":8.1464242,"lon":-2.363081,"type":"village"},{"id":"1823948137","name":"Kanka","lat":8.1549553,"lon":-2.3599963,"type":"village"},{"id":"1823948158","name":"Banda Ahenkro","lat":8.1645269,"lon":-2.3569966,"type":"village"},{"id":"1823948184","name":"Maluwe","lat":8.6707669,"lon":-2.2918189,"type":"village"},{"id":"1823948192","name":"Dokrupe","lat":8.9496021,"lon":-2.286646,"type":"village"},{"id":"1824160857","name":"Wechiau","lat":9.829572,"lon":-2.6824375,"type":"town"},{"id":"1824160859","name":"Sing","lat":10.0058696,"lon":-2.4384387,"type":"village"},{"id":"1824160880","name":"Pase","lat":10.0367376,"lon":-2.7109267,"type":"village"},{"id":"1824160906","name":"Gberu","lat":10.0794281,"lon":-2.5633733,"type":"village"},{"id":"1824160932","name":"Dobo","lat":10.1162656,"lon":-2.7711419,"type":"village"},{"id":"1824160941","name":"Eggu","lat":10.1452788,"lon":-2.6664687,"type":"village"},{"id":"1824160964","name":"Kalba","lat":9.552441,"lon":-2.6623915,"type":"village"},{"id":"1824160967","name":"Lassie","lat":9.8365777,"lon":-2.608987,"type":"village"},{"id":"1824160968","name":"Bulinzin","lat":9.8735026,"lon":-2.5381519,"type":"village"},{"id":"1824160970","name":"Vieri","lat":9.9068687,"lon":-2.5236624,"type":"village"},{"id":"1824160974","name":"Piisi","lat":9.9673103,"lon":-2.4603285,"type":"village"},{"id":"1824160980","name":"Kpongu","lat":9.9959075,"lon":-2.5138264,"type":"town"},{"id":"1824291398","name":"Tiza","lat":9.8986687,"lon":-2.1291554,"type":"village"},{"id":"1824291437","name":"Jukuku","lat":9.023445,"lon":-1.0208374,"type":"village"},{"id":"1824291490","name":"Sanuore","lat":9.7828332,"lon":-2.4416853,"type":"village"},{"id":"1824291498","name":"Bakpon","lat":9.7964994,"lon":-2.5228199,"type":"village"},{"id":"1824291506","name":"Ga","lat":9.7984879,"lon":-2.4930684,"type":"village"},{"id":"1824291529","name":"Wechiau-bor","lat":9.8042109,"lon":-2.4400915,"type":"village"},{"id":"1824291536","name":"Kandeo","lat":9.8158288,"lon":-2.636806,"type":"village"},{"id":"1824291541","name":"Darabateng","lat":9.8217216,"lon":-2.4329131,"type":"village"},{"id":"1824291560","name":"Jayiri","lat":9.8230803,"lon":-2.2034811,"type":"village"},{"id":"1824291581","name":"Kongolomo","lat":9.8405262,"lon":-2.4621135,"type":"village"},{"id":"1824291607","name":"Wawa","lat":9.8457059,"lon":-2.3589353,"type":"village"},{"id":"1824291628","name":"Tendoma","lat":9.8591899,"lon":-2.4198979,"type":"village"},{"id":"1824291643","name":"Kulkpawn","lat":9.8595261,"lon":-2.2472231,"type":"village"},{"id":"1824291646","name":"Dayiri","lat":9.8605822,"lon":-2.382822,"type":"village"},{"id":"1824291650","name":"Baalayiri","lat":9.8620424,"lon":-2.3673192,"type":"village"},{"id":"1824291661","name":"Welteng","lat":9.8685814,"lon":-2.4219413,"type":"village"},{"id":"1824291699","name":"Loggu","lat":9.8980805,"lon":-2.3542872,"type":"village"},{"id":"1824291703","name":"Holomuni","lat":9.9153832,"lon":-1.7783358,"type":"village"},{"id":"1824291738","name":"Gbantala","lat":9.9238526,"lon":-1.7881373,"type":"village"},{"id":"1824291744","name":"Bulinga","lat":9.9367932,"lon":-2.1982372,"type":"village"},{"id":"1824291751","name":"Katua","lat":9.9847944,"lon":-1.9281217,"type":"village"},{"id":"1825844222","name":"Tilli","lat":10.8814104,"lon":-0.5590343,"type":"village"},{"id":"1825844223","name":"Widnaba","lat":10.9714058,"lon":-0.5654369,"type":"village"},{"id":"1827475599","name":"Kokore","lat":10.8308607,"lon":-0.5119397,"type":"village"},{"id":"1827475607","name":"Galwei","lat":9.620221,"lon":-0.4344963,"type":"village"},{"id":"1827475609","name":"Saguli","lat":9.6211442,"lon":-0.4013225,"type":"village"},{"id":"1827475653","name":"Yapalsi","lat":9.740336,"lon":-0.7796516,"type":"village"},{"id":"1827475654","name":"Kpukpalgu","lat":9.7433839,"lon":-0.1459515,"type":"village"},{"id":"1827475660","name":"Kpatinga","lat":9.7565259,"lon":-0.1890083,"type":"village"},{"id":"1827475665","name":"Kpatinga","lat":9.7700398,"lon":-0.2739132,"type":"town"},{"id":"1827475700","name":"Ga","lat":9.8078256,"lon":-0.4465344,"type":"village"},{"id":"1827475717","name":"Nayugu","lat":9.8198965,"lon":-0.2746272,"type":"village"},{"id":"1827475724","name":"Zankali","lat":9.8466201,"lon":-0.7134203,"type":"village"},{"id":"1827475732","name":"Tamaligu","lat":9.8517182,"lon":-0.7330619,"type":"village"},{"id":"1827475743","name":"Gbanga","lat":9.8712259,"lon":-0.9344118,"type":"village"},{"id":"1827475745","name":"Yogu","lat":9.942071,"lon":-0.9379956,"type":"village"},{"id":"1827669392","name":"Yimahegu","lat":9.3295657,"lon":-0.0258113,"type":"village"},{"id":"1827669398","name":"Gbungbalaga","lat":9.3677803,"lon":-0.0038892,"type":"village"},{"id":"1827669414","name":"Nalorgba","lat":9.4951026,"lon":-0.0699297,"type":"village"},{"id":"1827669423","name":"Zanduli","lat":9.5782392,"lon":-0.1780394,"type":"village"},{"id":"1827669424","name":"Sakpeh","lat":9.5822809,"lon":-0.2688004,"type":"village"},{"id":"1827669433","name":"Sanduli","lat":9.5863102,"lon":-0.144916,"type":"village"},{"id":"1827855077","name":"Buafori","lat":8.0603468,"lon":-0.1600466,"type":"village"},{"id":"1827855081","name":"Bagamsi","lat":8.0654555,"lon":-0.2260414,"type":"village"},{"id":"1827855084","name":"Domeabra","lat":8.1260314,"lon":-0.2358749,"type":"village"},{"id":"1827855087","name":"Kokose","lat":8.1547271,"lon":-0.178277,"type":"village"},{"id":"1827855090","name":"Dawadawa No.2","lat":8.346136,"lon":-1.5682314,"type":"village"},{"id":"1827855104","name":"Sisipe","lat":8.5688141,"lon":-0.4707779,"type":"village"},{"id":"1827855106","name":"Kanjo","lat":8.6041184,"lon":-0.0010047,"type":"village"},{"id":"1827855107","name":"Tampaya","lat":8.605782,"lon":0.0397651,"type":"village"},{"id":"1827855108","name":"Kadelso","lat":8.6611349,"lon":-1.5199059,"type":"village"},{"id":"1827855113","name":"Puduya","lat":8.8716491,"lon":0.274321,"type":"village"},{"id":"1827855116","name":"Woribogu","lat":8.8707036,"lon":0.3208153,"type":"village"},{"id":"1827855134","name":"Chichagi","lat":8.9220972,"lon":0.2670269,"type":"village"},{"id":"1827855138","name":"Kubalem","lat":8.9486724,"lon":0.3635889,"type":"village"},{"id":"1827855139","name":"Zonyohini","lat":8.9684594,"lon":0.2272287,"type":"village"},{"id":"1827855140","name":"Nianta","lat":8.9692779,"lon":-0.649079,"type":"village"},{"id":"1827855141","name":"Nakpali","lat":8.9830328,"lon":0.3200755,"type":"village"},{"id":"1827855152","name":"Lepusi","lat":9.0563765,"lon":-0.0103528,"type":"village"},{"id":"1827855158","name":"Bincheratanga","lat":9.1105549,"lon":-0.0004471,"type":"village"},{"id":"1827855161","name":"Kpalbe","lat":9.1151201,"lon":-0.5528824,"type":"town"},{"id":"1827855170","name":"Yipala","lat":9.1280307,"lon":-1.1942581,"type":"village"},{"id":"1827855175","name":"Sankpala","lat":9.2639835,"lon":-1.0064973,"type":"village"},{"id":"1827855177","name":"Fuo","lat":9.2657504,"lon":-0.6253672,"type":"village"},{"id":"1827855178","name":"Nakpachei","lat":9.2804194,"lon":0.0166315,"type":"village"},{"id":"1827855183","name":"Kudula","lat":9.3096174,"lon":-0.7874342,"type":"village"},{"id":"1827855194","name":"Nachimbia","lat":9.3106699,"lon":-0.8834954,"type":"village"},{"id":"1827855198","name":"Zanzugu","lat":9.3206259,"lon":-0.9865272,"type":"village"},{"id":"1827855201","name":"Bagliga","lat":9.3328581,"lon":-0.7888264,"type":"village"},{"id":"1827855205","name":"Futa","lat":9.348454,"lon":-0.6618946,"type":"village"},{"id":"1827855206","name":"Chagnayili","lat":9.3700414,"lon":-0.6993013,"type":"village"},{"id":"1828115081","name":"Babuso","lat":6.8752821,"lon":-0.9836978,"type":"village"},{"id":"1828115082","name":"Ananekrom","lat":6.9145464,"lon":-1.0170794,"type":"village"},{"id":"1828115084","name":"Wiribongtire","lat":7.0127499,"lon":-1.1279857,"type":"village"},{"id":"1828115087","name":"Odumase","lat":7.2098571,"lon":-1.1788129,"type":"village"},{"id":"1828115089","name":"Sasebonso-Ko","lat":7.2221396,"lon":-1.1681644,"type":"village"},{"id":"1828115090","name":"Emawoabamu","lat":7.2230513,"lon":-1.2349058,"type":"village"},{"id":"1828115095","name":"Sasebonso-Da","lat":7.2556001,"lon":-1.1833951,"type":"village"},{"id":"1828115099","name":"Dome","lat":7.2877898,"lon":-1.2085341,"type":"village"},{"id":"1828115112","name":"Amantin","lat":7.5421755,"lon":-1.2030222,"type":"town"},{"id":"1828115126","name":"Abama","lat":7.6788799,"lon":-1.1889994,"type":"village"},{"id":"1828115127","name":"Kumfia","lat":7.7806211,"lon":-1.2292311,"type":"village"},{"id":"1828131552","name":"Apoli South","lat":5.9462133,"lon":-1.1571637,"type":"village"},{"id":"1828131561","name":"Apoli North","lat":5.9546221,"lon":-1.1489801,"type":"village"},{"id":"1828131566","name":"Awuakrom","lat":5.9668974,"lon":-1.1250317,"type":"village"},{"id":"1828131570","name":"Kyirmankan","lat":5.9733873,"lon":-1.0949882,"type":"village"},{"id":"1828131577","name":"Camp Nkwanta","lat":5.9814364,"lon":-1.1140255,"type":"village"},{"id":"1828131582","name":"Akyekurom","lat":5.9881866,"lon":-1.1221187,"type":"village"},{"id":"1828131586","name":"Otwereso","lat":6.0158276,"lon":-1.1404325,"type":"village"},{"id":"1828131591","name":"Adubiase","lat":6.0531079,"lon":-1.1661343,"type":"village"},{"id":"1828131595","name":"Pawudu","lat":6.0614767,"lon":-1.2064257,"type":"village"},{"id":"1828131601","name":"Odumasi","lat":6.0735526,"lon":-1.1546317,"type":"village"},{"id":"1828131606","name":"Akyedum","lat":6.0769545,"lon":-1.2090649,"type":"village"},{"id":"1828131614","name":"Akim Ayirebi","lat":6.0864225,"lon":-1.1295503,"type":"village"},{"id":"1828131619","name":"Kwadwo Ansakrom","lat":6.0854656,"lon":-1.2449235,"type":"village"},{"id":"1828131630","name":"Adekesua","lat":6.0954229,"lon":-1.1832736,"type":"village"},{"id":"1828131639","name":"Nyamebekyere 2","lat":6.1094997,"lon":-1.1695081,"type":"village"},{"id":"1828131654","name":"Nyamebekyere 1","lat":6.1164306,"lon":-1.1741077,"type":"village"},{"id":"1828131679","name":"Ofoase","lat":6.162635,"lon":-1.139117,"type":"village"},{"id":"1828131681","name":"Bontodiasi","lat":6.1655569,"lon":-1.1188125,"type":"village"},{"id":"1828131689","name":"Akim Ofoase","lat":6.1719612,"lon":-1.1403556,"type":"village"},{"id":"1828131694","name":"Asuboa","lat":6.173369,"lon":-1.1116813,"type":"village"},{"id":"1828131698","name":"Ofoase Kuma","lat":6.1782963,"lon":-1.1447807,"type":"village"},{"id":"1828131703","name":"Brenasi","lat":6.1856634,"lon":-1.1418274,"type":"village"},{"id":"1828131705","name":"Amantia","lat":6.2228551,"lon":-1.1716961,"type":"village"},{"id":"1828131713","name":"Anomabo","lat":6.2232788,"lon":-1.2289422,"type":"village"},{"id":"1828131717","name":"Mmuranam","lat":6.2232788,"lon":-1.1954579,"type":"village"},{"id":"1828131722","name":"Nsokote","lat":6.2434012,"lon":-1.2389762,"type":"village"},{"id":"1828131726","name":"Banka","lat":6.2974248,"lon":-1.2118042,"type":"village"},{"id":"1828131730","name":"Kokobin","lat":6.318759,"lon":-1.1402194,"type":"village"},{"id":"1828131731","name":"Yokwai","lat":6.3261656,"lon":-1.1787031,"type":"village"},{"id":"1828131740","name":"Kpone Praso","lat":6.3395445,"lon":-1.1209128,"type":"village"},{"id":"1828131755","name":"Odumase","lat":6.3693223,"lon":-1.1913088,"type":"village"},{"id":"1828131764","name":"Teshie Praso","lat":6.371126,"lon":-1.1099591,"type":"village"},{"id":"1828131769","name":"Takyikrom","lat":6.4019221,"lon":-1.1048252,"type":"village"},{"id":"1828131773","name":"Subinso","lat":6.4050638,"lon":-1.1254833,"type":"village"},{"id":"1828131792","name":"Chempaw","lat":6.4312991,"lon":-1.1302982,"type":"village"},{"id":"1828131825","name":"Banso","lat":6.4752535,"lon":-1.1979431,"type":"village"},{"id":"1828131828","name":"Atiemo","lat":6.4930855,"lon":-1.1518607,"type":"village"},{"id":"1828131829","name":"Kwekuanani","lat":6.4996938,"lon":-0.9246468,"type":"village"},{"id":"1828131830","name":"Amoah","lat":6.5223411,"lon":-0.9650707,"type":"village"},{"id":"1828131844","name":"Atwedie","lat":6.5497841,"lon":-0.9114264,"type":"village"},{"id":"1828131849","name":"Onyimso","lat":6.747146,"lon":-0.9719094,"type":"village"},{"id":"1828131853","name":"Agogo Onyimso","lat":6.7578272,"lon":-0.9728242,"type":"village"},{"id":"1828131854","name":"Pataban","lat":6.7678979,"lon":-0.9956195,"type":"village"},{"id":"1828539671","name":"Osorase Teshiman","lat":5.7950539,"lon":-0.9495352,"type":"village"},{"id":"1828539672","name":"Otopa","lat":5.8023953,"lon":-0.9593061,"type":"village"},{"id":"1828539673","name":"Mmofram","lat":5.8038519,"lon":-0.8598882,"type":"village"},{"id":"1828539674","name":"Zah Kwasi","lat":5.8184602,"lon":-0.904507,"type":"village"},{"id":"1828539675","name":"Osarease","lat":5.8221091,"lon":-0.9505054,"type":"village"},{"id":"1828539676","name":"Epamso","lat":5.8248417,"lon":-0.8872232,"type":"village"},{"id":"1828539677","name":"Achiase","lat":5.8354534,"lon":-0.9966928,"type":"town"},{"id":"1828539679","name":"Akim Kokobin","lat":5.847906,"lon":-0.9152606,"type":"village"},{"id":"1828539680","name":"Osorase","lat":5.8486912,"lon":-0.9673633,"type":"village"},{"id":"1828539681","name":"Anyinam","lat":5.8590615,"lon":-0.9490262,"type":"village"},{"id":"1828539682","name":"Akim Asanteman","lat":5.8607894,"lon":-0.8539029,"type":"village"},{"id":"1828539683","name":"Adakuma","lat":5.8649784,"lon":-0.9328052,"type":"village"},{"id":"1828539684","name":"Akim Babianiha","lat":5.8693161,"lon":-1.0384485,"type":"village"},{"id":"1828539685","name":"Ntutumerin","lat":5.8716985,"lon":-0.983282,"type":"village"},{"id":"1828539686","name":"Bienne","lat":5.8733204,"lon":-0.9388878,"type":"village"},{"id":"1828539687","name":"Anamasi","lat":5.8765206,"lon":-0.9042233,"type":"village"},{"id":"1828539689","name":"Amadikurom No.2","lat":5.8826648,"lon":-1.1024969,"type":"village"},{"id":"1828539690","name":"Akyem Ademmra","lat":5.8838873,"lon":-1.0462939,"type":"village"},{"id":"1828539691","name":"Asuboa","lat":5.8864627,"lon":-0.8693919,"type":"village"},{"id":"1828539692","name":"Kroboase No.1","lat":5.8929307,"lon":-1.1036452,"type":"village"},{"id":"1828539693","name":"Akim Swedru","lat":5.8933588,"lon":-1.0158347,"type":"village"},{"id":"1828539694","name":"Manso","lat":5.9054251,"lon":-0.8844924,"type":"town"},{"id":"1828539695","name":"Aduasa","lat":5.9059079,"lon":-1.044652,"type":"village"},{"id":"1828539696","name":"Akim Oda","lat":5.920442,"lon":-0.985431,"type":"town"},{"id":"1828539697","name":"Akim Asene","lat":5.9221886,"lon":-0.9327079,"type":"village"},{"id":"1828539698","name":"Aboabo","lat":5.9337346,"lon":-0.9513381,"type":"village"},{"id":"1828539700","name":"Kakoase","lat":5.9484812,"lon":-0.8077029,"type":"village"},{"id":"1828539701","name":"Osenase","lat":5.9575677,"lon":-0.754694,"type":"village"},{"id":"1828539702","name":"Adwobue","lat":5.9629901,"lon":-1.0770264,"type":"village"},{"id":"1828539703","name":"Wenchi Akim","lat":5.9671615,"lon":-0.9308539,"type":"village"},{"id":"1828539704","name":"Oda Nkwanta","lat":5.9810962,"lon":-1.0130815,"type":"village"},{"id":"1828539705","name":"Wenchi (New Town)","lat":5.9853712,"lon":-0.9322474,"type":"village"},{"id":"1828539706","name":"Anweaso","lat":5.9926603,"lon":-0.8598481,"type":"village"},{"id":"1828539707","name":"Anyinase","lat":5.9951115,"lon":-1.0551819,"type":"village"},{"id":"1828539708","name":"Soabe","lat":5.9968958,"lon":-0.9201643,"type":"village"},{"id":"1828539709","name":"Asubone Camp","lat":5.9954853,"lon":-0.8264618,"type":"village"},{"id":"1828539710","name":"Abenase","lat":6.007133,"lon":-1.0354262,"type":"village"},{"id":"1828539711","name":"Tarkrosi","lat":6.0162279,"lon":-0.8839099,"type":"village"},{"id":"1830017574","name":"Odotom","lat":5.6076752,"lon":-0.533724,"type":"village"},{"id":"1830017583","name":"Bontrase","lat":5.6036161,"lon":-0.5557075,"type":"village"},{"id":"1830017587","name":"Ayiresu","lat":5.6237832,"lon":-0.51914,"type":"village"},{"id":"1830017599","name":"Osai Krodua","lat":5.641293,"lon":-0.5090603,"type":"village"},{"id":"1830017600","name":"Jei Krodua","lat":5.6487798,"lon":-0.4951144,"type":"village"},{"id":"1830017604","name":"Akufful Krodua","lat":5.6545212,"lon":-0.5268569,"type":"village"},{"id":"1830017616","name":"Adawukwao","lat":5.6703633,"lon":-0.5181955,"type":"village"},{"id":"1830017639","name":"Ofadjator","lat":5.6769166,"lon":-0.5105551,"type":"village"},{"id":"1830017671","name":"Fanti Oboyambo","lat":5.723897,"lon":-0.6947305,"type":"village"},{"id":"1830017674","name":"Ofadaa","lat":5.7302218,"lon":-0.5425244,"type":"village"},{"id":"1830017698","name":"Nsuansa 2","lat":5.7305742,"lon":-0.8533011,"type":"village"},{"id":"1830017705","name":"Krobo Oboyambo","lat":5.7317569,"lon":-0.7013232,"type":"village"},{"id":"1830017736","name":"Nsutem","lat":5.7335298,"lon":-0.8813238,"type":"village"},{"id":"1830017745","name":"Kyiremase","lat":5.7350129,"lon":-0.7254138,"type":"village"},{"id":"1830017749","name":"Nsobri","lat":5.7350249,"lon":-0.5075597,"type":"village"},{"id":"1830017753","name":"Tokorase","lat":5.7352278,"lon":-0.7133098,"type":"village"},{"id":"1830017764","name":"Kwoabaa-Breman","lat":5.7376224,"lon":-0.6140424,"type":"village"},{"id":"1830017772","name":"Breman Amanfopong","lat":5.7391082,"lon":-1.0114466,"type":"village"},{"id":"1830017776","name":"Breman","lat":5.7433679,"lon":-0.6103627,"type":"village"},{"id":"1830017780","name":"Esuabra","lat":5.7451806,"lon":-0.8441399,"type":"village"},{"id":"1830017798","name":"Osamankuraa","lat":5.7499715,"lon":-0.810938,"type":"village"},{"id":"1830017820","name":"Danso","lat":5.7557945,"lon":-0.5056027,"type":"village"},{"id":"1830017828","name":"Odumase","lat":5.7558682,"lon":-0.576115,"type":"village"},{"id":"1830017831","name":"Dome Faase","lat":5.7574128,"lon":-0.3909063,"type":"village"},{"id":"1830017840","name":"Asuasu","lat":5.7644496,"lon":-0.5273658,"type":"village"},{"id":"1830017844","name":"Alafia","lat":5.7651839,"lon":-0.5362221,"type":"village"},{"id":"1830017858","name":"Asikasu","lat":5.7763037,"lon":-0.5657472,"type":"village"},{"id":"1830017862","name":"Apresu","lat":5.7773638,"lon":-0.7936912,"type":"village"},{"id":"1830017864","name":"Takorase","lat":5.783803,"lon":-0.6199854,"type":"village"},{"id":"1830017877","name":"Tweapease","lat":5.78491,"lon":-0.8359443,"type":"village"},{"id":"1830017879","name":"Duayeden","lat":5.7882728,"lon":-0.411949,"type":"village"},{"id":"1830017882","name":"Tebita","lat":5.789849,"lon":-0.8125925,"type":"village"},{"id":"1830017883","name":"Asuotwene","lat":5.790452,"lon":-0.5427854,"type":"village"},{"id":"1830017884","name":"Okorase","lat":5.7951248,"lon":-0.5199539,"type":"village"},{"id":"1830017887","name":"Koforidua","lat":5.7994706,"lon":-0.7499607,"type":"village"},{"id":"1830017889","name":"Lamptey","lat":5.8039062,"lon":-0.4528044,"type":"village"},{"id":"1830017891","name":"Kwasi Nyarku","lat":5.8078484,"lon":-0.4335381,"type":"village"},{"id":"1830017893","name":"Anoff","lat":5.8089359,"lon":-0.4138619,"type":"village"},{"id":"1830017898","name":"Kwadwo","lat":5.8095739,"lon":-0.7490145,"type":"village"},{"id":"1830017900","name":"Small London","lat":5.8093456,"lon":-0.7682203,"type":"village"},{"id":"1830017903","name":"Adamu","lat":5.8133913,"lon":-0.7558865,"type":"village"},{"id":"1830017907","name":"Begoro","lat":5.8140597,"lon":-0.7364905,"type":"village"},{"id":"1830017909","name":"Daman","lat":5.8189953,"lon":-0.401291,"type":"village"},{"id":"1830017912","name":"Ogyade","lat":5.8230526,"lon":-0.7270942,"type":"village"},{"id":"1830017922","name":"Owusukwai","lat":5.8256634,"lon":-0.7662566,"type":"village"},