[{"id":"251608438","name":"Bata","lat":1.869189,"lon":9.7720137,"type":"city"},{"id":"292521364","name":"Malabo","lat":3.741877,"lon":8.7740663,"type":"city"},{"id":"292522535","name":"Luba","lat":3.459841,"lon":8.5544476,"type":"town"},{"id":"292527388","name":"San Antonio de Palé","lat":-1.4066621,"lon":5.6319634,"type":"town"},{"id":"366513007","name":"Rebola","lat":3.7278854,"lon":8.8361665,"type":"town"},{"id":"366513195","name":"Riaba","lat":3.3854557,"lon":8.7629712,"type":"village"},{"id":"520140660","name":"Ebebiyín","lat":2.1537363,"lon":11.3370815,"type":"city"},{"id":"667646869","name":"Niefang","lat":1.849973,"lon":10.250384,"type":"town"},{"id":"667649688","name":"Evinayong","lat":1.4388356,"lon":10.5516564,"type":"city"},{"id":"667651748","name":"Mongomo","lat":1.6282551,"lon":11.3184671,"type":"city"},{"id":"667653836","name":"Nsork","lat":1.1310535,"lon":11.2712687,"type":"town"},{"id":"667655303","name":"Acurenam","lat":1.034965,"lon":10.6738817,"type":"town"},{"id":"667666022","name":"Aconibe","lat":1.294916,"lon":10.944439,"type":"town"},{"id":"667667198","name":"Micomeseng","lat":2.146175,"lon":10.616425,"type":"town"},{"id":"667669560","name":"Añisoc","lat":1.844383,"lon":10.747593,"type":"town"},{"id":"667671405","name":"Mbini","lat":1.58369,"lon":9.616028,"type":"town"},{"id":"667673697","name":"Cogo","lat":1.086572,"lon":9.694291,"type":"city"},{"id":"667673698","name":"Acalayong","lat":1.092698,"lon":9.665485,"type":"town"},{"id":"926737520","name":"Omvang","lat":1.5046748,"lon":11.2255119,"type":"village"},{"id":"926738371","name":"Elósoc","lat":1.4871347,"lon":11.3060534,"type":"village"},{"id":"926738580","name":"Bisóbinam","lat":1.4794566,"lon":11.2625134,"type":"village"},{"id":"2051140643","name":"Río Campo","lat":2.34023,"lon":9.821506,"type":"village"},{"id":"2414597377","name":"Basuala","lat":3.6454215,"lon":8.9197221,"type":"village"},{"id":"2414597579","name":"Baresó","lat":3.6548276,"lon":8.9174509,"type":"village"},{"id":"2414597601","name":"Basacato del Este","lat":3.6239317,"lon":8.9003439,"type":"village"},{"id":"2414597604","name":"Baney","lat":3.7012926,"lon":8.9102322,"type":"town"},{"id":"2460662866","name":"Bibein","lat":2.1819308,"lon":11.1812799,"type":"village"},{"id":"2460663153","name":"Ncumadyap","lat":2.1835738,"lon":11.1931397,"type":"village"},{"id":"2460663536","name":"Okeng","lat":2.1719433,"lon":11.2344456,"type":"village"},{"id":"2460663624","name":"Somo","lat":2.1808974,"lon":11.2022541,"type":"village"},{"id":"2771184355","name":"Sipopo","lat":3.7621829,"lon":8.891945,"type":"town"},{"id":"2805241502","name":"Malabo II","lat":3.7384975,"lon":8.7496846,"type":"town"},{"id":"2873942883","name":"Anganchi","lat":-1.4347498,"lon":5.6518688,"type":"village"},{"id":"2873942887","name":"Aual","lat":-1.4487063,"lon":5.6267204,"type":"village"},{"id":"2873942889","name":"Mábana","lat":-1.4627012,"lon":5.6370431,"type":"village"},{"id":"2886414986","name":"Basupú","lat":3.7183499,"lon":8.6855832,"type":"village"},{"id":"2886414987","name":"Basilé","lat":3.7012723,"lon":8.8073941,"type":"village"},{"id":"2889955830","name":"Abayak","lat":1.1021272,"lon":9.6358563,"type":"village"},{"id":"2889955831","name":"Asuiabee","lat":1.2237889,"lon":9.6220541,"type":"village"},{"id":"2889955836","name":"Bilén","lat":1.484925,"lon":9.5942997,"type":"village"},{"id":"2889955837","name":"Bisóbinam","lat":1.1577918,"lon":9.6193442,"type":"village"},{"id":"2889955838","name":"Bitica","lat":1.4218659,"lon":9.6183073,"type":"town"},{"id":"2889955841","name":"Bono Bono","lat":1.2360756,"lon":9.6258637,"type":"village"},{"id":"2889955850","name":"Engong","lat":1.3621647,"lon":9.608654,"type":"village"},{"id":"2889955858","name":"Mangolia","lat":1.5247996,"lon":9.6015083,"type":"village"},{"id":"2889955859","name":"Manguma","lat":1.4484463,"lon":9.6166349,"type":"village"},{"id":"2889955860","name":"Mboete","lat":1.308967,"lon":9.6036332,"type":"village"},{"id":"2889955863","name":"Ncolanvam","lat":1.1914229,"lon":9.6166345,"type":"village"},{"id":"2889955865","name":"Nom-Nam","lat":1.2917239,"lon":9.6018162,"type":"village"},{"id":"2889955866","name":"Nzang Nam","lat":1.2651066,"lon":9.6012092,"type":"village"},{"id":"2905105162","name":"Ureka","lat":3.254737,"lon":8.5839177,"type":"village"},{"id":"2959427659","name":"Moka","lat":3.3515406,"lon":8.6608674,"type":"village"},{"id":"2962017935","name":"Cupapa","lat":3.6651895,"lon":8.9196448,"type":"village"},{"id":"2962017951","name":"Topé","lat":3.6857351,"lon":8.9174404,"type":"village"},{"id":"3116563087","name":"Balorei","lat":3.6762126,"lon":8.6375972,"type":"village"},{"id":"3119810961","name":"Sampaka","lat":3.7216457,"lon":8.7488688,"type":"village"},{"id":"3124730055","name":"Basupú Fishtown","lat":3.7326625,"lon":8.8117726,"type":"village"},{"id":"3124730056","name":"Buena Esperanza","lat":3.7404169,"lon":8.8077221,"type":"village"},{"id":"3128530820","name":"Caracolas","lat":3.7494993,"lon":8.770611,"type":"village"},{"id":"3128530821","name":"Paraíso","lat":3.7502256,"lon":8.7549215,"type":"village"},{"id":"3132347942","name":"Bacake Grande","lat":3.5615529,"lon":8.8535462,"type":"village"},{"id":"3132347943","name":"Bacake Pequeño","lat":3.5707217,"lon":8.8574836,"type":"village"},{"id":"3132347944","name":"Bariobe","lat":3.5861713,"lon":8.8679758,"type":"village"},{"id":"3132347945","name":"Basacato del Oeste","lat":3.594542,"lon":8.6238039,"type":"village"},{"id":"3132347946","name":"Batoicopo","lat":3.6404684,"lon":8.6397918,"type":"village"},{"id":"3132347947","name":"Baó Basuala","lat":3.6390149,"lon":8.9116994,"type":"village"},{"id":"3132347948","name":"Baó Pequeño","lat":3.4958273,"lon":8.7978607,"type":"village"},{"id":"3132347949","name":"Bososo","lat":3.6018869,"lon":8.8875292,"type":"village"},{"id":"3287952719","name":"Batete","lat":3.4459571,"lon":8.5056298,"type":"village"},{"id":"3287952720","name":"Eoco","lat":3.3202231,"lon":8.7405159,"type":"village"},{"id":"3346995825","name":"Ciudad de la Paz","lat":1.5994535,"lon":10.8268276,"type":"city"},{"id":"3346995826","name":"Mengomeyén","lat":1.6889166,"lon":11.0397048,"type":"village"},{"id":"3678964113","name":"Malabo Pequeño","lat":3.3393106,"lon":8.6676462,"type":"village"},{"id":"4215640524","name":"Boabele","lat":1.4868692,"lon":9.5624515,"type":"village"},{"id":"4215642100","name":"Bolondo","lat":1.5902741,"lon":9.6304015,"type":"village"},{"id":"4215642101","name":"Luango","lat":1.6820848,"lon":9.626299,"type":"village"},{"id":"4228396852","name":"Balacha de Riaba","lat":3.3993714,"lon":8.7149224,"type":"village"},{"id":"4299020008","name":"Viviendas Sociales Malabo II","lat":3.7402275,"lon":8.7432668,"type":"city_block"},{"id":"4460813503","name":"Gobe","lat":0.8992959,"lon":9.3099693,"type":"village"},{"id":"4872929422","name":"Bicurga","lat":1.583502,"lon":10.4590072,"type":"town"},{"id":"4873041500","name":"Bahé","lat":3.3421351,"lon":8.7298805,"type":"village"},{"id":"4879393568","name":"Musola","lat":3.4397948,"lon":8.6207667,"type":"village"},{"id":"5761792213","name":"Oveng","lat":1.0782259,"lon":10.7561246,"type":"village"},{"id":"5762408222","name":"Alum","lat":1.0246899,"lon":11.0473438,"type":"village"},{"id":"5767714109","name":"Abam","lat":1.837436,"lon":10.8675252,"type":"village"},{"id":"5790036731","name":"Aconikie","lat":1.5390647,"lon":11.3031685,"type":"village"},{"id":"5820853976","name":"Nsogobor","lat":1.0092258,"lon":9.8332281,"type":"village"},{"id":"6138194172","name":"Oveng Ansem","lat":1.6004269,"lon":11.1221337,"type":"village"},{"id":"6495243452","name":"Ruiche","lat":3.4142986,"lon":8.5501465,"type":"village"},{"id":"6495243457","name":"Belebu","lat":3.4118954,"lon":8.5797675,"type":"village"},{"id":"6495243458","name":"Bocoricho","lat":3.4110371,"lon":8.5677756,"type":"village"},{"id":"6495243498","name":"Rilaja","lat":3.4406205,"lon":8.6306027,"type":"village"},{"id":"6495243505","name":"Parador de Musola","lat":3.4220419,"lon":8.6483871,"type":"village"},{"id":"6495251345","name":"Moeri","lat":3.4692667,"lon":8.669167,"type":"village"},{"id":"6495309142","name":"Aleñá","lat":3.5285363,"lon":8.5782896,"type":"village"},{"id":"6583897032","name":"Ngüelensoc","lat":1.1618962,"lon":10.5665087,"type":"village"},{"id":"6583897033","name":"Esong","lat":1.1199843,"lon":10.4192715,"type":"village"},{"id":"6583934832","name":"Ayamikén","lat":2.1110966,"lon":10.0223422,"type":"village"},{"id":"6848149685","name":"Ebomicu","lat":1.3054798,"lon":11.2710425,"type":"village"},{"id":"7023287424","name":"Ngamb","lat":0.9578795,"lon":9.9405885,"type":"village"},{"id":"7023287427","name":"Asobla","lat":0.9741314,"lon":9.9682984,"type":"village"},{"id":"7116084000","name":"M'Belobi","lat":0.9861454,"lon":9.5055611,"type":"village"},{"id":"7894329081","name":"Calatrava","lat":1.1155783,"lon":9.4200253,"type":"village"},{"id":"7894329082","name":"Cabo San Juan","lat":1.1940223,"lon":9.3733334,"type":"village"},{"id":"8086391254","name":"Assok Medzeng","lat":1.6259627,"lon":11.3301954,"type":"village"},{"id":"8203895209","name":"Mofub","lat":1.063998,"lon":10.7888665,"type":"village"},{"id":"8736126116","name":"Nsok Nsomo","lat":1.8754518,"lon":11.0901832,"type":"town"},{"id":"8736140402","name":"Nsang","lat":2.0173552,"lon":10.9371471,"type":"town"},{"id":"8736140403","name":"Nkue","lat":2.0130235,"lon":10.4681682,"type":"village"},{"id":"8736248096","name":"Teguete","lat":1.3406818,"lon":10.2807998,"type":"village"},{"id":"8736248097","name":"Bidjabidján","lat":2.1640709,"lon":11.1437845,"type":"village"},{"id":"8736383657","name":"Nzangayong","lat":1.5883616,"lon":11.146794,"type":"village"},{"id":"8736383658","name":"Nkimi","lat":1.9344278,"lon":10.3500974,"type":"town"},{"id":"8736383659","name":"Machinda","lat":1.8651183,"lon":9.9869434,"type":"village"},{"id":"8736586763","name":"Ayene","lat":1.9093793,"lon":10.6353235,"type":"town"},{"id":"8736586764","name":"Nkumekién","lat":1.7678531,"lon":10.4686832,"type":"village"},{"id":"9010649107","name":"Yengüe","lat":2.2235187,"lon":9.8783183,"type":"village"},{"id":"9349198131","name":"Obileville","lat":1.8771756,"lon":11.4066592,"type":"village"},{"id":"9428418786","name":"Bongoro","lat":2.1210086,"lon":9.8874968,"type":"village"},{"id":"9428608887","name":"Elende","lat":2.2204204,"lon":9.8019075,"type":"village"},{"id":"9428642559","name":"Tika","lat":2.2597865,"lon":9.7966826,"type":"village"},{"id":"9428661709","name":"Nlozoc","lat":2.0677916,"lon":9.8088813,"type":"village"},{"id":"9428661710","name":"Ngonemanga","lat":2.1555797,"lon":9.7977447,"type":"village"},{"id":"9428661711","name":"Evongo","lat":2.1367209,"lon":9.7909856,"type":"village"},{"id":"9428661712","name":"Mbonda","lat":2.0959738,"lon":9.7675431,"type":"village"},{"id":"9455682635","name":"Adyap","lat":2.1713505,"lon":11.16624,"type":"village"},{"id":"9455682636","name":"Nloayong","lat":2.155837,"lon":11.0690045,"type":"village"},{"id":"9455682691","name":"Ebengon","lat":2.1581608,"lon":10.4483548,"type":"village"},{"id":"9455682692","name":"Abang","lat":2.1641245,"lon":10.453738,"type":"village"},{"id":"9455699748","name":"Ngon","lat":2.1584637,"lon":10.3208291,"type":"village"},{"id":"9963995056","name":"Utonde","lat":1.9375963,"lon":9.8124808,"type":"village"},{"id":"10661072158","name":"Esong","lat":2.154529,"lon":11.006788,"type":"town"},{"id":"10819682405","name":"Acoacan","lat":1.6102292,"lon":11.3094163,"type":"town"},{"id":"10827468133","name":"Eteguevein","lat":1.8982527,"lon":11.2591838,"type":"village"},{"id":"10870036169","name":"Elonasi","lat":1.1322584,"lon":9.5352745,"type":"town"},{"id":"10870036175","name":"Punta Yeke","lat":1.04267,"lon":9.5806709,"type":"village"},{"id":"10870097678","name":"Santa Maria","lat":1.1753796,"lon":9.8475802,"type":"village"},{"id":"10870097716","name":"Madyamebe","lat":1.1112232,"lon":9.7541428,"type":"village"},{"id":"10870097717","name":"Banapa","lat":1.0894798,"lon":9.7106695,"type":"town"},{"id":"10939618901","name":"Minduma","lat":1.8359904,"lon":10.3778422,"type":"village"},{"id":"10939664713","name":"Aprovecha","lat":1.9495896,"lon":10.3854382,"type":"village"},{"id":"10939664816","name":"Adangtum","lat":1.8661977,"lon":9.9705648,"type":"village"},{"id":"12134018605","name":"Bantabaré Pequeño","lat":3.4334741,"lon":8.7997664,"type":"village"},{"id":"12593410826","name":"Misión","lat":3.3725964,"lon":8.7360789,"type":"village"},{"id":"12593414718","name":"Baó Grande","lat":3.5248567,"lon":8.8234099,"type":"village"},{"id":"12593414738","name":"Bantabaré","lat":3.458856,"lon":8.7867952,"type":"village"},{"id":"12596142376","name":"Bococo","lat":3.4376701,"lon":8.4642046,"type":"village"},{"id":"12596142589","name":"Aba","lat":3.4764878,"lon":8.5799972,"type":"village"},{"id":"12598920229","name":"Gabilondo","lat":3.433248,"lon":8.755839,"type":"village"},{"id":"12598920230","name":"Bilelipa","lat":3.4245924,"lon":8.7589052,"type":"village"},{"id":"12598920241","name":"Cope","lat":3.5325179,"lon":8.8462512,"type":"village"},{"id":"12635702054","name":"Basapo","lat":3.6552374,"lon":8.6431367,"type":"village"},{"id":"12635702055","name":"Nale","lat":3.6786404,"lon":8.650785,"type":"village"},{"id":"12635702056","name":"Apú","lat":3.6922079,"lon":8.6639171,"type":"village"},{"id":"12635702057","name":"Alegría","lat":3.6865891,"lon":8.6606383,"type":"village"},{"id":"12635702058","name":"Borriloco","lat":3.708379,"lon":8.6733928,"type":"village"},{"id":"12640704114","name":"Sacriba","lat":3.7181207,"lon":8.7103317,"type":"village"},{"id":"12680416541","name":"Maule","lat":3.4219233,"lon":8.7192344,"type":"village"},{"id":"13196542773","name":"Bindele","lat":1.8710468,"lon":11.0916471,"type":"village"},{"id":"13196542774","name":"Mangui","lat":1.8710897,"lon":11.0740197,"type":"village"}]