[{"id":"15350070","name":"Som","lat":46.8067676,"lon":18.1413711,"type":"village"},{"id":"15370125","name":"Somogyapáti","lat":46.0924362,"lon":17.7507887,"type":"village"},{"id":"15370132","name":"Patosfa","lat":46.1280182,"lon":17.6662853,"type":"village"},{"id":"15731237","name":"Tab","lat":46.7351014,"lon":18.0375186,"type":"town"},{"id":"15733040","name":"Sormás","lat":46.4605637,"lon":16.9157999,"type":"village"},{"id":"16769958","name":"Hetvehely","lat":46.1321454,"lon":18.0441532,"type":"village"},{"id":"17502311","name":"Palkonya","lat":45.8953345,"lon":18.3907786,"type":"village"},{"id":"17502338","name":"Villánykövesd","lat":45.8805828,"lon":18.4252542,"type":"village"},{"id":"17502356","name":"Villány","lat":45.8697644,"lon":18.4555208,"type":"town"},{"id":"17550787","name":"Pécs","lat":46.0765092,"lon":18.2280317,"type":"city"},{"id":"18328418","name":"Cserdi","lat":46.0812218,"lon":17.9906814,"type":"village"},{"id":"18330366","name":"Kishajmás","lat":46.2006313,"lon":18.0822844,"type":"village"},{"id":"18330958","name":"Egerág","lat":45.981479,"lon":18.3048844,"type":"village"},{"id":"18330973","name":"Szőkéd","lat":45.9629397,"lon":18.2889563,"type":"village"},{"id":"18330987","name":"Áta","lat":45.9368992,"lon":18.297316,"type":"village"},{"id":"18331010","name":"Kisherend","lat":45.9633179,"lon":18.3318995,"type":"village"},{"id":"18331125","name":"Komló","lat":46.1911673,"lon":18.2613778,"type":"town"},{"id":"18680896","name":"Kárász","lat":46.2663739,"lon":18.3176405,"type":"village"},{"id":"18680967","name":"Tófű","lat":46.3095702,"lon":18.3589692,"type":"village"},{"id":"18680992","name":"Egyházaskozár","lat":46.3298413,"lon":18.3207789,"type":"village"},{"id":"18681024","name":"Bikal","lat":46.3343993,"lon":18.2865931,"type":"village"},{"id":"20930660","name":"Olasz","lat":46.0151645,"lon":18.411796,"type":"village"},{"id":"20930780","name":"Belvárdgyula","lat":45.9729466,"lon":18.4327446,"type":"village"},{"id":"20937609","name":"Lothárd","lat":46.0009802,"lon":18.3531342,"type":"village"},{"id":"20937651","name":"Birján","lat":45.9974794,"lon":18.3756757,"type":"village"},{"id":"20937652","name":"Hásságy","lat":46.0346387,"lon":18.3886336,"type":"village"},{"id":"20937672","name":"Magyarsarlós","lat":46.0414845,"lon":18.3516064,"type":"village"},{"id":"20938027","name":"Keszü","lat":46.0169618,"lon":18.1918084,"type":"village"},{"id":"20938028","name":"Kökény","lat":46.0010381,"lon":18.2042947,"type":"village"},{"id":"20938029","name":"Harkány","lat":45.8477907,"lon":18.2359978,"type":"town"},{"id":"21068866","name":"Lad","lat":46.1396668,"lon":17.6459384,"type":"village"},{"id":"21371958","name":"Letenye","lat":46.433204,"lon":16.7230843,"type":"town"},{"id":"21495235","name":"Abaliget","lat":46.140978,"lon":18.116744,"type":"village"},{"id":"21495236","name":"Orfű","lat":46.1380554,"lon":18.1551995,"type":"village"},{"id":"21495636","name":"Kozármisleny","lat":46.0478232,"lon":18.2857045,"type":"town"},{"id":"21495793","name":"Ellend","lat":46.0591112,"lon":18.3758229,"type":"village"},{"id":"21495794","name":"Romonya","lat":46.0885145,"lon":18.3396465,"type":"village"},{"id":"21495796","name":"Bogád","lat":46.0839252,"lon":18.32219,"type":"village"},{"id":"21495979","name":"Szederkény","lat":45.9994626,"lon":18.4535831,"type":"village"},{"id":"21495982","name":"Bóly","lat":45.9692795,"lon":18.5161494,"type":"town"},{"id":"21516692","name":"Vásárosdombó","lat":46.305546,"lon":18.132263,"type":"village"},{"id":"21516973","name":"Hetes","lat":46.4218819,"lon":17.6950824,"type":"village"},{"id":"21517133","name":"Kocsola","lat":46.5279604,"lon":18.1771382,"type":"village"},{"id":"21648694","name":"Ságvár","lat":46.8373455,"lon":18.1020278,"type":"village"},{"id":"25553427","name":"Szekszárd","lat":46.3484884,"lon":18.701663,"type":"city"},{"id":"25871288","name":"Balatonudvari","lat":46.9054215,"lon":17.8048202,"type":"village"},{"id":"25913119","name":"Sopron","lat":47.6803063,"lon":16.5983457,"type":"town"},{"id":"25913376","name":"Kópháza","lat":47.6384056,"lon":16.6431637,"type":"village"},{"id":"25914519","name":"Sárvár","lat":47.2517426,"lon":16.9342165,"type":"town"},{"id":"25915038","name":"Tapolca","lat":46.8820972,"lon":17.4389619,"type":"town"},{"id":"25924908","name":"Okorvölgy","lat":46.1520633,"lon":18.0589221,"type":"village"},{"id":"25924962","name":"Szentkatalin","lat":46.1745849,"lon":18.0501183,"type":"village"},{"id":"25925427","name":"Husztót","lat":46.1719933,"lon":18.0926954,"type":"village"},{"id":"25926052","name":"Csertő","lat":46.0903378,"lon":17.8027802,"type":"village"},{"id":"25926053","name":"Szulimán","lat":46.1242634,"lon":17.8105268,"type":"village"},{"id":"25926749","name":"Kaposvár","lat":46.3564692,"lon":17.7886886,"type":"city"},{"id":"26234773","name":"Siklós","lat":45.8521446,"lon":18.2983821,"type":"town"},{"id":"26612056","name":"Balatonakali","lat":46.8836584,"lon":17.7526787,"type":"village"},{"id":"26734414","name":"Jászberény","lat":47.5030505,"lon":19.9117887,"type":"town"},{"id":"26757722","name":"Eger","lat":47.8989887,"lon":20.3743665,"type":"city"},{"id":"26757723","name":"Tokaj","lat":48.1235534,"lon":21.4113895,"type":"town"},{"id":"26757724","name":"Debrecen","lat":47.531399,"lon":21.6259782,"type":"city"},{"id":"26843041","name":"Sümeg","lat":46.9784329,"lon":17.2811657,"type":"town"},{"id":"27301592","name":"Örvényes","lat":46.914828,"lon":17.8164988,"type":"village"},{"id":"27313526","name":"Balatonfőkajár","lat":47.0202933,"lon":18.2122159,"type":"village"},{"id":"27318580","name":"Mecsekpölöske","lat":46.2228598,"lon":18.2111234,"type":"village"},{"id":"28837560","name":"Hobol","lat":46.0243248,"lon":17.7774257,"type":"village"},{"id":"28837834","name":"Teklafalu","lat":45.94974,"lon":17.7282742,"type":"village"},{"id":"28838070","name":"Hencse","lat":46.2003376,"lon":17.6234321,"type":"village"},{"id":"29530538","name":"Mágocs","lat":46.349833,"lon":18.2285903,"type":"town"},{"id":"29530942","name":"Jákó","lat":46.3363265,"lon":17.5526299,"type":"village"},{"id":"29531975","name":"Hegyháthodász","lat":46.9340458,"lon":16.657595,"type":"village"},{"id":"29637688","name":"Komárom","lat":47.7417349,"lon":18.1218256,"type":"town"},{"id":"30453579","name":"Szeged","lat":46.2546312,"lon":20.1486016,"type":"city"},{"id":"30747764","name":"Tihany","lat":46.9143375,"lon":17.8873038,"type":"village"},{"id":"30847231","name":"Algyő","lat":46.3353787,"lon":20.2083596,"type":"village"},{"id":"30848692","name":"Makó","lat":46.2150438,"lon":20.4751022,"type":"town"},{"id":"30848693","name":"Kiszombor","lat":46.1889728,"lon":20.4270576,"type":"village"},{"id":"30848694","name":"Deszk","lat":46.2179342,"lon":20.2388863,"type":"village"},{"id":"30848695","name":"Újszentiván","lat":46.1869538,"lon":20.1807357,"type":"village"},{"id":"30848696","name":"Tiszasziget","lat":46.1749221,"lon":20.1622722,"type":"village"},{"id":"30848697","name":"Hódmezővásárhely","lat":46.4171344,"lon":20.3196068,"type":"town"},{"id":"30848797","name":"Domaszék","lat":46.2451425,"lon":20.0034538,"type":"village"},{"id":"30848800","name":"Mórahalom","lat":46.2163238,"lon":19.8894811,"type":"town"},{"id":"31094676","name":"Székkutas","lat":46.5069679,"lon":20.5384334,"type":"village"},{"id":"31094677","name":"Orosháza","lat":46.5582801,"lon":20.6720146,"type":"town"},{"id":"31377320","name":"Nagykőrös","lat":47.0374257,"lon":19.7863141,"type":"town"},{"id":"31531669","name":"Kunágota","lat":46.4233892,"lon":21.0489809,"type":"village"},{"id":"32188020","name":"Barcs","lat":45.9605126,"lon":17.4634121,"type":"town"},{"id":"32319920","name":"Rajka","lat":47.997068,"lon":17.1960871,"type":"village"},{"id":"32320211","name":"Hegyeshalom","lat":47.9144882,"lon":17.1558011,"type":"village"},{"id":"32320212","name":"Bezenye","lat":47.9621234,"lon":17.2162083,"type":"village"},{"id":"32433322","name":"Újpetre","lat":45.9366673,"lon":18.3635782,"type":"village"},{"id":"32443002","name":"Kecskemét","lat":46.9074763,"lon":19.6920854,"type":"city"},{"id":"32443168","name":"Cserkeszőlő","lat":46.8675023,"lon":20.195096,"type":"village"},{"id":"32444521","name":"Békéscsaba","lat":46.6798003,"lon":21.0985425,"type":"city"},{"id":"32444954","name":"Gyula","lat":46.6438656,"lon":21.2747575,"type":"town"},{"id":"32446633","name":"Szalkszentmárton","lat":46.9755241,"lon":19.0132851,"type":"village"},{"id":"32446634","name":"Tass","lat":47.0200511,"lon":19.0321758,"type":"village"},{"id":"33121513","name":"Sármellék","lat":46.7080843,"lon":17.1682755,"type":"village"},{"id":"33124116","name":"Zala","lat":46.7392974,"lon":18.0014999,"type":"village"},{"id":"35300125","name":"Pécsely","lat":46.9551435,"lon":17.7864493,"type":"village"},{"id":"59976001","name":"Pomáz","lat":47.6468212,"lon":19.0236304,"type":"town"},{"id":"64622559","name":"Miskolc","lat":48.1030643,"lon":20.7900429,"type":"city"},{"id":"64624269","name":"Győr","lat":47.6835029,"lon":17.6342832,"type":"city"},{"id":"64627511","name":"Nyíregyháza","lat":47.9557802,"lon":21.7167982,"type":"city"},{"id":"73993229","name":"Szentendre","lat":47.6677606,"lon":19.0760467,"type":"town"},{"id":"73993237","name":"Budakalász","lat":47.6192785,"lon":19.0468565,"type":"town"},{"id":"73993250","name":"Pilisszentkereszt","lat":47.6931455,"lon":18.9024298,"type":"village"},{"id":"73993255","name":"Pilisszentlászló","lat":47.7231462,"lon":18.9892166,"type":"village"},{"id":"75716563","name":"Öcsöd","lat":46.9012341,"lon":20.3897025,"type":"village"},{"id":"75716566","name":"Békésszentandrás","lat":46.8717052,"lon":20.4851283,"type":"village"},{"id":"75716568","name":"Szarvas","lat":46.8621434,"lon":20.5521466,"type":"town"},{"id":"75716773","name":"Kondoros","lat":46.7599676,"lon":20.7950557,"type":"town"},{"id":"76464246","name":"Székesfehérvár","lat":47.1910169,"lon":18.410811,"type":"city"},{"id":"76675056","name":"Solt","lat":46.8022565,"lon":19.0046438,"type":"town"},{"id":"76675061","name":"Dunapataj","lat":46.6442755,"lon":18.9990105,"type":"village"},{"id":"76675066","name":"Dunaszentgyörgy","lat":46.530011,"lon":18.8118978,"type":"village"},{"id":"76705492","name":"Pörböly","lat":46.2051149,"lon":18.8123654,"type":"village"},{"id":"76705495","name":"Bátaszék","lat":46.1932111,"lon":18.7231457,"type":"town"},{"id":"77907835","name":"Kiskunlacháza","lat":47.1903391,"lon":19.00569,"type":"town"},{"id":"77909368","name":"Dömsöd","lat":47.094771,"lon":19.0070461,"type":"village"},{"id":"84758668","name":"Dormánd","lat":47.7215281,"lon":20.4183893,"type":"village"},{"id":"84759428","name":"Besenyőtelek","lat":47.698367,"lon":20.4278946,"type":"village"},{"id":"84760091","name":"Füzesabony","lat":47.7485389,"lon":20.4142673,"type":"town"},{"id":"84762186","name":"Mezőtárkány","lat":47.7218712,"lon":20.4760816,"type":"village"},{"id":"84766688","name":"Tiszafüred","lat":47.6130877,"lon":20.7502258,"type":"town"},{"id":"84767870","name":"Tiszaszőlős","lat":47.5562623,"lon":20.7197416,"type":"village"},{"id":"84769486","name":"Egyek","lat":47.6314647,"lon":20.8881462,"type":"village"},{"id":"84774706","name":"Kunszentmárton","lat":46.8399054,"lon":20.2908813,"type":"town"},{"id":"84775644","name":"Tiszaföldvár","lat":46.9803541,"lon":20.2541166,"type":"town"},{"id":"84776496","name":"Martfű","lat":47.0186153,"lon":20.2813933,"type":"town"},{"id":"84782806","name":"Cegléd","lat":47.1716447,"lon":19.7977516,"type":"town"},{"id":"84783391","name":"Szajol","lat":47.1757484,"lon":20.3006435,"type":"village"},{"id":"84783758","name":"Törökszentmiklós","lat":47.1793568,"lon":20.409153,"type":"town"},{"id":"84784047","name":"Fegyvernek","lat":47.2526516,"lon":20.5259428,"type":"town"},{"id":"84784799","name":"Kenderes","lat":47.2477469,"lon":20.6720305,"type":"town"},{"id":"84786251","name":"Karcag","lat":47.314646,"lon":20.9240941,"type":"town"},{"id":"84790427","name":"Berekfürdő","lat":47.3863531,"lon":20.837934,"type":"village"},{"id":"84790638","name":"Kunmadaras","lat":47.4284725,"lon":20.7952971,"type":"village"},{"id":"85788293","name":"Budapest","lat":47.4978789,"lon":19.0402383,"type":"city"},{"id":"88972920","name":"Zalaapáti","lat":46.7391546,"lon":17.1057152,"type":"village"},{"id":"88976335","name":"Pacsa","lat":46.72254,"lon":17.0097774,"type":"town"},{"id":"88979368","name":"Zalaszentmihály","lat":46.7296101,"lon":16.949373,"type":"village"},{"id":"88981247","name":"Pölöske","lat":46.7550715,"lon":16.924252,"type":"village"},{"id":"88984459","name":"Keszthely","lat":46.7675081,"lon":17.2462801,"type":"town"},{"id":"88991312","name":"Hévíz","lat":46.7906038,"lon":17.1834489,"type":"town"},{"id":"122406968","name":"Verőce","lat":47.8230548,"lon":19.0339651,"type":"village"},{"id":"122408345","name":"Kismaros","lat":47.8266438,"lon":19.0129068,"type":"village"},{"id":"122430466","name":"Dömös","lat":47.7636231,"lon":18.9110928,"type":"village"},{"id":"122431494","name":"Pilismarót","lat":47.7848591,"lon":18.8747292,"type":"village"},{"id":"123770266","name":"Pilisvörösvár","lat":47.6210817,"lon":18.9115754,"type":"town"},{"id":"130074165","name":"Ráckeve","lat":47.1609765,"lon":18.9436266,"type":"town"},{"id":"130577677","name":"Lórév","lat":47.1157416,"lon":18.8966037,"type":"village"},{"id":"134495162","name":"Budajenő","lat":47.5554742,"lon":18.803881,"type":"village"},{"id":"134498430","name":"Telki","lat":47.551193,"lon":18.8206574,"type":"village"},{"id":"139327118","name":"Tököl","lat":47.3226787,"lon":18.9632427,"type":"town"},{"id":"140332206","name":"Csömör","lat":47.5489158,"lon":19.2242144,"type":"village"},{"id":"140335407","name":"Gödöllő","lat":47.601529,"lon":19.3476981,"type":"town"},{"id":"141699600","name":"Budaörs","lat":47.4611263,"lon":18.9611838,"type":"town"},{"id":"146830645","name":"Patak","lat":48.0192328,"lon":19.1448732,"type":"village"},{"id":"146832070","name":"Dejtár","lat":48.037781,"lon":19.1712049,"type":"village"},{"id":"146833007","name":"Ipolyvece","lat":48.0619605,"lon":19.1025464,"type":"village"},{"id":"146834151","name":"Drégelypalánk","lat":48.0520987,"lon":19.0440957,"type":"village"},{"id":"146851507","name":"Érsekvadkert","lat":47.9960713,"lon":19.1989343,"type":"village"},{"id":"146853273","name":"Nagyoroszi","lat":48.0038821,"lon":19.0913026,"type":"village"},{"id":"146855791","name":"Rétság","lat":47.9303241,"lon":19.1375901,"type":"town"},{"id":"148195197","name":"Budakeszi","lat":47.5099444,"lon":18.929382,"type":"town"},{"id":"153357458","name":"Vértesszőlős","lat":47.6206061,"lon":18.3813459,"type":"village"},{"id":"155311912","name":"Diósd","lat":47.406256,"lon":18.9448604,"type":"town"},{"id":"156531665","name":"Érd","lat":47.3772495,"lon":18.9213833,"type":"town"},{"id":"156577640","name":"Sukoró","lat":47.2411794,"lon":18.601614,"type":"village"},{"id":"156578187","name":"Pákozd","lat":47.2170707,"lon":18.5437107,"type":"village"},{"id":"157001904","name":"Velence","lat":47.2353177,"lon":18.6605263,"type":"town"},{"id":"157002622","name":"Kápolnásnyék","lat":47.237503,"lon":18.6722759,"type":"village"},{"id":"157010589","name":"Gárdony","lat":47.2028062,"lon":18.6261978,"type":"town"},{"id":"157102172","name":"Nagykovácsi","lat":47.5762363,"lon":18.882064,"type":"village"},{"id":"163737245","name":"Előszállás","lat":46.8316103,"lon":18.8219252,"type":"village"},{"id":"163741824","name":"Alsószentiván","lat":46.7957787,"lon":18.7321463,"type":"village"},{"id":"163743901","name":"Cece","lat":46.77047,"lon":18.6291111,"type":"village"},{"id":"163748213","name":"Simontornya","lat":46.756962,"lon":18.5435129,"type":"town"},{"id":"163751943","name":"Tolnanémedi","lat":46.7141878,"lon":18.4739246,"type":"village"},{"id":"163753037","name":"Pincehely","lat":46.6820239,"lon":18.4398335,"type":"village"},{"id":"164965193","name":"Paks","lat":46.6229468,"lon":18.8589364,"type":"town"},{"id":"165699549","name":"Bikács","lat":46.6759851,"lon":18.6636898,"type":"village"},{"id":"165700005","name":"Nagydorog","lat":46.6230617,"lon":18.6578841,"type":"village"},{"id":"173138304","name":"Bölcske","lat":46.7402601,"lon":18.9695194,"type":"village"},{"id":"173139475","name":"Madocsa","lat":46.6880707,"lon":18.9566974,"type":"village"},{"id":"173247226","name":"Gyönk","lat":46.5553541,"lon":18.4783275,"type":"town"},{"id":"173250497","name":"Varsád","lat":46.5247475,"lon":18.5196685,"type":"village"},{"id":"176436051","name":"Tárnok","lat":47.366862,"lon":18.8660065,"type":"village"},{"id":"177532814","name":"Vác","lat":47.7782873,"lon":19.1278294,"type":"town"},{"id":"178752252","name":"Kisszékely","lat":46.679423,"lon":18.5389986,"type":"village"},{"id":"179713047","name":"Páty","lat":47.5154504,"lon":18.8271695,"type":"village"},{"id":"179713955","name":"Biatorbágy","lat":47.4739442,"lon":18.8232855,"type":"town"},{"id":"179715154","name":"Sóskút","lat":47.4047185,"lon":18.8305621,"type":"village"},{"id":"179735154","name":"Pusztazámor","lat":47.4024957,"lon":18.7855309,"type":"village"},{"id":"180730584","name":"Fót","lat":47.6125871,"lon":19.1980105,"type":"town"},{"id":"180731026","name":"Dunakeszi","lat":47.6316697,"lon":19.1294055,"type":"town"},{"id":"183813583","name":"Zalaegerszeg","lat":46.8415803,"lon":16.8456316,"type":"city"},{"id":"196174247","name":"Százhalombatta","lat":47.3171992,"lon":18.9120948,"type":"town"},{"id":"196187810","name":"Ercsi","lat":47.2519697,"lon":18.8983773,"type":"town"},{"id":"196190783","name":"Martonvásár","lat":47.3141209,"lon":18.7886273,"type":"town"},{"id":"196198928","name":"Ráckeresztúr","lat":47.2739444,"lon":18.8340424,"type":"village"},{"id":"196200224","name":"Tordas","lat":47.344615,"lon":18.7527252,"type":"village"},{"id":"196200654","name":"Gyúró","lat":47.3708463,"lon":18.7395557,"type":"village"},{"id":"196332351","name":"Ártánd","lat":47.1252992,"lon":21.7572321,"type":"village"},{"id":"196334494","name":"Bedő","lat":47.1639541,"lon":21.7503111,"type":"village"},{"id":"196336419","name":"Nagykereki","lat":47.1886494,"lon":21.7879759,"type":"village"},{"id":"196336776","name":"Kismarja","lat":47.248129,"lon":21.8221047,"type":"village"},{"id":"196337133","name":"Pocsaj","lat":47.2821487,"lon":21.8048015,"type":"village"},{"id":"196341015","name":"Hosszúpályi","lat":47.39177,"lon":21.7335185,"type":"village"},{"id":"197347356","name":"Nagyszékely","lat":46.6473903,"lon":18.5279944,"type":"village"},{"id":"197687864","name":"Szakadát","lat":46.5388597,"lon":18.4732899,"type":"village"},{"id":"197688948","name":"Diósberény","lat":46.5337591,"lon":18.4449594,"type":"village"},{"id":"197773022","name":"Miszla","lat":46.6314672,"lon":18.4834395,"type":"village"},{"id":"197784105","name":"Udvari","lat":46.5945292,"lon":18.51083,"type":"village"},{"id":"198179175","name":"Horpács","lat":47.996728,"lon":19.1312435,"type":"village"},{"id":"198179962","name":"Borsosberény","lat":47.9763628,"lon":19.1174909,"type":"village"},{"id":"198198412","name":"Bánk","lat":47.9258885,"lon":19.1735916,"type":"village"},{"id":"198224276","name":"Szendehely","lat":47.8553893,"lon":19.1049747,"type":"village"},{"id":"198846478","name":"Sárszentlőrinc","lat":46.6260581,"lon":18.6066341,"type":"village"},{"id":"198882490","name":"Kölesd","lat":46.5084069,"lon":18.5871321,"type":"village"},{"id":"198883989","name":"Kistormás","lat":46.5000174,"lon":18.5658035,"type":"village"},{"id":"199213783","name":"Németkér","lat":46.7174731,"lon":18.764396,"type":"village"},{"id":"201505357","name":"Kerepes","lat":47.5616135,"lon":19.2869071,"type":"town"},{"id":"204008081","name":"Dabas","lat":47.1886122,"lon":19.3203063,"type":"town"},{"id":"204009228","name":"Újhartyán","lat":47.2200186,"lon":19.3841049,"type":"town"},{"id":"205084744","name":"Újlengyel","lat":47.2322939,"lon":19.444332,"type":"village"},{"id":"206235375","name":"Gerjen","lat":46.493611,"lon":18.9032424,"type":"village"},{"id":"206235431","name":"Fadd","lat":46.4663938,"lon":18.8252567,"type":"village"},{"id":"206235481","name":"Tolna","lat":46.4226584,"lon":18.7887741,"type":"town"},{"id":"206240543","name":"Fácánkert","lat":46.4480102,"lon":18.7361471,"type":"village"},{"id":"206250767","name":"Sióagárd","lat":46.3907879,"lon":18.6535953,"type":"village"},{"id":"206282578","name":"Piliscsaba","lat":47.6329416,"lon":18.8261229,"type":"town"},{"id":"206283567","name":"Dorog","lat":47.7223782,"lon":18.731435,"type":"town"},{"id":"206284195","name":"Tokodaltáró","lat":47.7321967,"lon":18.6926702,"type":"village"},{"id":"206284360","name":"Tokod","lat":47.722785,"lon":18.6592985,"type":"village"},{"id":"206284670","name":"Tát","lat":47.7398038,"lon":18.6543708,"type":"town"},{"id":"206292236","name":"Esztergom","lat":47.7856939,"lon":18.7403377,"type":"town"},{"id":"206292956","name":"Felsőnána","lat":46.4672701,"lon":18.528759,"type":"village"},{"id":"206293013","name":"Nyergesújfalu","lat":47.7607076,"lon":18.5543675,"type":"town"},{"id":"206293092","name":"Lábatlan","lat":47.7450853,"lon":18.5015732,"type":"town"},{"id":"206293368","name":"Tata","lat":47.6516214,"lon":18.3282083,"type":"town"},{"id":"206297491","name":"Hőgyész","lat":46.4957481,"lon":18.4187415,"type":"village"},{"id":"206298281","name":"Kalaznó","lat":46.5015402,"lon":18.4745194,"type":"village"},{"id":"206306262","name":"Ács","lat":47.7104229,"lon":18.0156133,"type":"town"},{"id":"206307000","name":"Gönyű","lat":47.7331432,"lon":17.8279231,"type":"village"},{"id":"206318543","name":"Süttő","lat":47.7573845,"lon":18.44347,"type":"village"},{"id":"206318984","name":"Neszmély","lat":47.7360337,"lon":18.3593132,"type":"village"},{"id":"206319006","name":"Dunaszentmiklós","lat":47.7043878,"lon":18.3812859,"type":"village"},{"id":"206320101","name":"Szomód","lat":47.6824922,"lon":18.3423516,"type":"village"},{"id":"206343321","name":"Tardos","lat":47.6633891,"lon":18.4449341,"type":"village"},{"id":"206343354","name":"Baj","lat":47.6489476,"lon":18.3644373,"type":"village"},{"id":"206343467","name":"Vértestolna","lat":47.6243321,"lon":18.4583302,"type":"village"},{"id":"206343991","name":"Tarján","lat":47.6088065,"lon":18.5063222,"type":"village"},{"id":"206344007","name":"Héreg","lat":47.6464326,"lon":18.5116592,"type":"village"},{"id":"206344122","name":"Bajna","lat":47.6553343,"lon":18.5986208,"type":"village"},{"id":"206344141","name":"Epöl","lat":47.646026,"lon":18.6382299,"type":"village"},{"id":"206344192","name":"Gyermely","lat":47.5910684,"lon":18.6439003,"type":"village"},{"id":"206344205","name":"Szomor","lat":47.5919199,"lon":18.6641826,"type":"village"},{"id":"206344756","name":"Tinnye","lat":47.6208911,"lon":18.7778879,"type":"village"},{"id":"206344906","name":"Perbál","lat":47.5912451,"lon":18.759802,"type":"village"},{"id":"206345080","name":"Tök","lat":47.564671,"lon":18.7310553,"type":"village"},{"id":"206345175","name":"Zsámbék","lat":47.5483115,"lon":18.7174344,"type":"town"},{"id":"206345247","name":"Mány","lat":47.529936,"lon":18.6563538,"type":"village"},{"id":"206345271","name":"Csabdi","lat":47.5188429,"lon":18.6127023,"type":"village"},{"id":"206345670","name":"Bicske","lat":47.4907066,"lon":18.6358046,"type":"town"},{"id":"206345858","name":"Herceghalom","lat":47.496236,"lon":18.7448861,"type":"village"},{"id":"206359948","name":"Veresegyház","lat":47.655235,"lon":19.2868815,"type":"town"},{"id":"206359962","name":"Erdőkertes","lat":47.6702447,"lon":19.308359,"type":"village"},{"id":"206360043","name":"Őrbottyán","lat":47.6827581,"lon":19.263848,"type":"town"},{"id":"206360324","name":"Csomád","lat":47.6547632,"lon":19.2368611,"type":"village"},{"id":"206360824","name":"Vácrátót","lat":47.7094372,"lon":19.2363045,"type":"village"},{"id":"206360857","name":"Göd","lat":47.6834336,"lon":19.1341568,"type":"town"},{"id":"206360917","name":"Sződ","lat":47.7191669,"lon":19.1819507,"type":"village"},{"id":"206360960","name":"Sződliget","lat":47.7299732,"lon":19.1473194,"type":"village"},{"id":"206361086","name":"Csörög","lat":47.7344093,"lon":19.1904009,"type":"village"},{"id":"206361122","name":"Vácduka","lat":47.7445953,"lon":19.2145913,"type":"village"},{"id":"206361183","name":"Váchartyán","lat":47.7270056,"lon":19.2537343,"type":"village"},{"id":"206361192","name":"Kisnémedi","lat":47.7377432,"lon":19.2901265,"type":"village"},{"id":"206361233","name":"Püspökszilágy","lat":47.7402533,"lon":19.3154773,"type":"village"},{"id":"206361516","name":"Váckisújfalu","lat":47.7046212,"lon":19.3490951,"type":"village"},{"id":"206361599","name":"Iklad","lat":47.6593942,"lon":19.4433911,"type":"village"},{"id":"206361624","name":"Vácegres","lat":47.6751335,"lon":19.3656575,"type":"village"},{"id":"206361642","name":"Szada","lat":47.6363332,"lon":19.3116981,"type":"village"},{"id":"206361787","name":"Domony","lat":47.6535146,"lon":19.4384419,"type":"village"},{"id":"206361816","name":"Aszód","lat":47.6532732,"lon":19.4747432,"type":"town"},{"id":"206362107","name":"Hatvan","lat":47.6683971,"lon":19.6743874,"type":"town"},{"id":"213383214","name":"Bonyhád","lat":46.2984212,"lon":18.532191,"type":"town"},{"id":"220951771","name":"Báta","lat":46.1286819,"lon":18.7749192,"type":"village"},{"id":"228651748","name":"Kisoroszi","lat":47.8077589,"lon":19.0071715,"type":"village"},{"id":"240512600","name":"Rád","lat":47.7920791,"lon":19.2194322,"type":"village"},{"id":"240513031","name":"Penc","lat":47.8024259,"lon":19.2513708,"type":"village"},{"id":"240515093","name":"Keszeg","lat":47.8364445,"lon":19.237812,"type":"village"},{"id":"240516707","name":"Kosd","lat":47.8068226,"lon":19.1758423,"type":"village"},{"id":"240520466","name":"Galgagyörk","lat":47.7406871,"lon":19.3752627,"type":"village"},{"id":"240520893","name":"Püspökhatvan","lat":47.77594,"lon":19.3660724,"type":"village"},{"id":"240521201","name":"Acsa","lat":47.7925337,"lon":19.386298,"type":"village"},{"id":"240521439","name":"Nógrádsáp","lat":47.8393251,"lon":19.3554001,"type":"village"},{"id":"240521689","name":"Csővár","lat":47.8137655,"lon":19.3238481,"type":"village"},{"id":"240521765","name":"Galgaguta","lat":47.8459936,"lon":19.3891248,"type":"village"},{"id":"240521860","name":"Bercel","lat":47.8698475,"lon":19.4035193,"type":"village"},{"id":"240522115","name":"Nógrádkövesd","lat":47.874415,"lon":19.3737379,"type":"village"},{"id":"240522567","name":"Becske","lat":47.9100509,"lon":19.3763424,"type":"village"},{"id":"240992070","name":"Szirmabesenyő","lat":48.1540642,"lon":20.7959687,"type":"village"},{"id":"243682087","name":"Szob","lat":47.8182921,"lon":18.8711331,"type":"town"},{"id":"243682090","name":"Zebegény","lat":47.8000375,"lon":18.9101541,"type":"village"},{"id":"243682091","name":"Nagymaros","lat":47.7891142,"lon":18.9587262,"type":"town"},{"id":"243682125","name":"Visegrád","lat":47.7845811,"lon":18.9703373,"type":"town"},{"id":"243682273","name":"Dunabogdány","lat":47.7937922,"lon":19.0352037,"type":"village"},{"id":"243684196","name":"Szokolya","lat":47.867997,"lon":19.0061078,"type":"village"},{"id":"243685051","name":"Berkenye","lat":47.8878852,"lon":19.072611,"type":"village"},{"id":"243685159","name":"Nógrád","lat":47.9094266,"lon":19.0478895,"type":"village"},{"id":"243687006","name":"Balassagyarmat","lat":48.0768832,"lon":19.2926037,"type":"town"},{"id":"243687271","name":"Ipolyszög","lat":48.0546144,"lon":19.2318454,"type":"village"},{"id":"243687540","name":"Szügy","lat":48.035482,"lon":19.3239375,"type":"village"},{"id":"243687770","name":"Nógrádmarcal","lat":48.0272503,"lon":19.3847669,"type":"village"},{"id":"243687829","name":"Patvarc","lat":48.0654361,"lon":19.3483753,"type":"village"},{"id":"243687843","name":"Őrhalom","lat":48.0777568,"lon":19.4102605,"type":"village"},{"id":"243687924","name":"Hugyag","lat":48.0872454,"lon":19.4337413,"type":"village"},{"id":"243688206","name":"Szécsény","lat":48.0802507,"lon":19.5206814,"type":"town"},{"id":"243688272","name":"Kishartyán","lat":48.0840764,"lon":19.7041459,"type":"village"},{"id":"243688523","name":"Salgótarján","lat":48.0960676,"lon":19.8005642,"type":"city"},{"id":"243689033","name":"Somoskőújfalu","lat":48.1617834,"lon":19.8241727,"type":"village"},{"id":"243689884","name":"Gyöngyös","lat":47.7799838,"lon":19.9291176,"type":"town"},{"id":"243690096","name":"Kápolna","lat":47.7604628,"lon":20.2469695,"type":"village"},{"id":"243705575","name":"Feldebrő","lat":47.8130478,"lon":20.2329418,"type":"village"},{"id":"243705576","name":"Aldebrő","lat":47.7891553,"lon":20.2283743,"type":"village"},{"id":"243705583","name":"Tófalu","lat":47.7764019,"lon":20.2381843,"type":"village"},{"id":"243705773","name":"Vécs","lat":47.807866,"lon":20.1673321,"type":"village"},{"id":"243705818","name":"Domoszló","lat":47.8262949,"lon":20.1163279,"type":"village"},{"id":"243705866","name":"Verpelét","lat":47.8490107,"lon":20.2279112,"type":"town"},{"id":"243706541","name":"Markaz","lat":47.8266709,"lon":20.0547595,"type":"village"},{"id":"243706623","name":"Abasár","lat":47.7948748,"lon":20.0004895,"type":"village"},{"id":"244010593","name":"Ipolytarnóc","lat":48.2375562,"lon":19.6270027,"type":"village"},{"id":"244172617","name":"Emőd","lat":47.9339466,"lon":20.8165452,"type":"town"},{"id":"244172660","name":"Nyékládháza","lat":47.9939469,"lon":20.8416225,"type":"town"},{"id":"244172696","name":"Mályi","lat":48.01451,"lon":20.8276126,"type":"village"},{"id":"244172750","name":"Felsőzsolca","lat":48.1041003,"lon":20.8605401,"type":"town"},{"id":"244526125","name":"Zamárdi","lat":46.880099,"lon":17.9459459,"type":"town"},{"id":"244526148","name":"Szántód","lat":46.8693827,"lon":17.9045327,"type":"village"},{"id":"244526173","name":"Kőröshegy","lat":46.8312694,"lon":17.9005457,"type":"village"},{"id":"244526181","name":"Balatonendréd","lat":46.8362401,"lon":17.9765942,"type":"village"},{"id":"244526361","name":"Balatonföldvár","lat":46.8491197,"lon":17.8792403,"type":"town"},{"id":"244526446","name":"Balatonszemes","lat":46.806042,"lon":17.7789908,"type":"village"},{"id":"244526742","name":"Balatonőszöd","lat":46.8069464,"lon":17.8002219,"type":"village"},{"id":"244526749","name":"Balatonlelle","lat":46.7867617,"lon":17.6965209,"type":"town"},{"id":"244526775","name":"Balatonboglár","lat":46.7785372,"lon":17.6553331,"type":"town"},{"id":"244526964","name":"Látrány","lat":46.7484949,"lon":17.7445759,"type":"village"},{"id":"244526994","name":"Visz","lat":46.7260307,"lon":17.7830711,"type":"village"},{"id":"244527087","name":"Ordacsehi","lat":46.7432686,"lon":17.6241198,"type":"village"},{"id":"244527319","name":"Fonyód","lat":46.7467521,"lon":17.54946,"type":"town"},{"id":"244527458","name":"Balatonfenyves","lat":46.7176727,"lon":17.4945314,"type":"village"},{"id":"244527527","name":"Balatonmáriafürdő","lat":46.7050049,"lon":17.371815,"type":"village"},{"id":"244527555","name":"Balatonberény","lat":46.710836,"lon":17.3193203,"type":"village"},{"id":"244527567","name":"Balatonszentgyörgy","lat":46.6921957,"lon":17.2999871,"type":"village"},{"id":"244527648","name":"Balatonújlak","lat":46.6759752,"lon":17.383049,"type":"village"},{"id":"244527884","name":"Balatonkeresztúr","lat":46.6976597,"lon":17.3703877,"type":"village"},{"id":"244528032","name":"Kéthely","lat":46.6469444,"lon":17.3933315,"type":"village"},{"id":"244528591","name":"Marcali","lat":46.5793462,"lon":17.4135738,"type":"town"},{"id":"244529047","name":"Tapsony","lat":46.4535213,"lon":17.3354013,"type":"village"},{"id":"244529595","name":"Somogyszob","lat":46.2929761,"lon":17.2968274,"type":"village"},{"id":"244529609","name":"Ötvöskónyi","lat":46.2851255,"lon":17.3607705,"type":"village"},{"id":"244529701","name":"Nagyatád","lat":46.229143,"lon":17.3570964,"type":"town"},{"id":"244530932","name":"Gyenesdiás","lat":46.7725171,"lon":17.2860041,"type":"village"},{"id":"244530987","name":"Vonyarcvashegy","lat":46.7641925,"lon":17.3095703,"type":"village"},{"id":"244531045","name":"Balatongyörök","lat":46.7616172,"lon":17.3504857,"type":"village"},{"id":"244531158","name":"Balatonederics","lat":46.8091396,"lon":17.3813106,"type":"village"},{"id":"244531248","name":"Szigliget","lat":46.8014362,"lon":17.4331745,"type":"village"},{"id":"244531289","name":"Badacsonytomaj","lat":46.8057988,"lon":17.514693,"type":"town"},{"id":"244531311","name":"Ábrahámhegy","lat":46.8147826,"lon":17.5714996,"type":"village"},{"id":"244531352","name":"Balatonrendes","lat":46.8273773,"lon":17.5857978,"type":"village"},{"id":"244531422","name":"Révfülöp","lat":46.8281921,"lon":17.6269136,"type":"village"},{"id":"244531467","name":"Balatonszepezd","lat":46.8518266,"lon":17.6637569,"type":"village"},{"id":"244531719","name":"Csopak","lat":46.9796854,"lon":17.9231412,"type":"village"},{"id":"244531760","name":"Alsóörs","lat":46.9882663,"lon":17.9770715,"type":"village"},{"id":"244531781","name":"Balatonalmádi","lat":47.030277,"lon":18.0155756,"type":"town"},{"id":"244531825","name":"Balatonfűzfő","lat":47.0620043,"lon":18.0409677,"type":"town"},{"id":"244531904","name":"Balatonkenese","lat":47.0355059,"lon":18.1087407,"type":"town"},{"id":"244531914","name":"Balatonvilágos","lat":46.9641731,"lon":18.159314,"type":"village"},{"id":"245767926","name":"Sajószentpéter","lat":48.2183544,"lon":20.7087764,"type":"town"},{"id":"245769604","name":"Kazincbarcika","lat":48.2544414,"lon":20.6223251,"type":"town"},{"id":"247464102","name":"Heves","lat":47.5957526,"lon":20.2897722,"type":"town"},{"id":"247464173","name":"Tenk","lat":47.6547494,"lon":20.340609,"type":"village"},{"id":"247464230","name":"Erdőtelek","lat":47.6871416,"lon":20.3124173,"type":"village"},{"id":"247464443","name":"Nagytálya","lat":47.8170805,"lon":20.4076205,"type":"village"},{"id":"247464446","name":"Andornaktálya","lat":47.8436439,"lon":20.4125987,"type":"village"},{"id":"248466484","name":"Edelény","lat":48.2936623,"lon":20.7334367,"type":"town"},{"id":"249288182","name":"Kereki","lat":46.7959566,"lon":17.9118845,"type":"village"},{"id":"249288811","name":"Pusztaszemes","lat":46.7659969,"lon":17.9255497,"type":"village"},{"id":"249290743","name":"Igal","lat":46.5345467,"lon":17.9386708,"type":"town"},{"id":"249292488","name":"Ráksi","lat":46.5141732,"lon":17.9212654,"type":"village"},{"id":"249292676","name":"Andocs","lat":46.6488345,"lon":17.9243409,"type":"village"},{"id":"249293192","name":"Magyaratád","lat":46.4673715,"lon":17.9005757,"type":"village"},{"id":"249294299","name":"Somogyaszaló","lat":46.458844,"lon":17.8069419,"type":"village"},{"id":"252013624","name":"Törökbálint","lat":47.4349579,"lon":18.9130312,"type":"town"},{"id":"254966946","name":"Verseg","lat":47.722441,"lon":19.5487063,"type":"village"},{"id":"254968160","name":"Kartal","lat":47.66792,"lon":19.5311002,"type":"village"},{"id":"254969159","name":"Egyházasdengeleg","lat":47.7976098,"lon":19.5589914,"type":"village"},{"id":"254969174","name":"Héhalom","lat":47.77951,"lon":19.5857856,"type":"village"},{"id":"255165343","name":"Csokonyavisonta","lat":46.0817403,"lon":17.4444757,"type":"village"},{"id":"255165553","name":"Rinyaújlak","lat":46.0859363,"lon":17.4186892,"type":"village"},{"id":"255165587","name":"Görgeteg","lat":46.1465788,"lon":17.4364106,"type":"village"},{"id":"255166027","name":"Lábod","lat":46.2077491,"lon":17.4540815,"type":"village"},{"id":"255166273","name":"Somogyaracs","lat":46.0566704,"lon":17.3916737,"type":"village"},{"id":"255166294","name":"Babócsa","lat":46.0371105,"lon":17.346259,"type":"village"},{"id":"255166370","name":"Komlósd","lat":46.0172375,"lon":17.386257,"type":"village"},{"id":"255166624","name":"Péterhida","lat":46.0094359,"lon":17.3596328,"type":"village"},{"id":"255169120","name":"Darány","lat":45.9814198,"lon":17.5889964,"type":"village"},{"id":"255169125","name":"Szulok","lat":46.0505352,"lon":17.5507953,"type":"village"},{"id":"255555402","name":"Drávagárdony","lat":45.9440433,"lon":17.6046798,"type":"village"},{"id":"255555446","name":"Kastélyosdombó","lat":45.9538876,"lon":17.6175463,"type":"village"},{"id":"255555583","name":"Zádor","lat":45.9605668,"lon":17.6594233,"type":"village"},{"id":"255555835","name":"Potony","lat":45.931548,"lon":17.6457216,"type":"village"},{"id":"255555853","name":"Lakócsa","lat":45.8964055,"lon":17.6929361,"type":"village"},{"id":"255556039","name":"Tótújfalu","lat":45.9029063,"lon":17.6420505,"type":"village"},{"id":"255556719","name":"Szentborbás","lat":45.8754578,"lon":17.6596185,"type":"village"},{"id":"255557393","name":"Drávafok","lat":45.8849806,"lon":17.7637018,"type":"village"},{"id":"255645943","name":"Istvándi","lat":46.0199889,"lon":17.6220371,"type":"village"},{"id":"255647868","name":"Kadarkút","lat":46.2285551,"lon":17.6178719,"type":"town"},{"id":"255647985","name":"Bárdudvarnok","lat":46.3268032,"lon":17.6850898,"type":"village"},{"id":"255648087","name":"Kaposújlak","lat":46.3667854,"lon":17.7259097,"type":"village"},{"id":"255684942","name":"Jászdózsa","lat":47.5650852,"lon":20.0140755,"type":"village"},{"id":"257084778","name":"Pilisborosjenő","lat":47.6072769,"lon":18.9920278,"type":"village"},{"id":"257085343","name":"Üröm","lat":47.5987004,"lon":19.0134262,"type":"village"},{"id":"257448661","name":"Isaszeg","lat":47.5303335,"lon":19.4017001,"type":"town"},{"id":"257448831","name":"Valkó","lat":47.5641727,"lon":19.5100231,"type":"village"},{"id":"258395278","name":"Szomolya","lat":47.8923451,"lon":20.4938733,"type":"village"},{"id":"258396751","name":"Tard","lat":47.8730202,"lon":20.6041356,"type":"village"},{"id":"258396921","name":"Cserépfalu","lat":47.9429765,"lon":20.5360221,"type":"village"},{"id":"258396958","name":"Bükkzsérc","lat":47.9549235,"lon":20.5064046,"type":"village"},{"id":"258397095","name":"Cserépváralja","lat":47.9338813,"lon":20.561543,"type":"village"},{"id":"258397175","name":"Noszvaj","lat":47.9369531,"lon":20.4753593,"type":"village"},{"id":"258397515","name":"Tibolddaróc","lat":47.9207679,"lon":20.6375539,"type":"village"},{"id":"259011985","name":"Háromfa","lat":46.1046252,"lon":17.3295434,"type":"village"},{"id":"259640919","name":"Mernye","lat":46.5087018,"lon":17.8199639,"type":"village"},{"id":"259641828","name":"Somogytúr","lat":46.7071627,"lon":17.7654246,"type":"village"},{"id":"259641944","name":"Somogybabod","lat":46.6753928,"lon":17.7767926,"type":"village"},{"id":"259644849","name":"Osztopán","lat":46.5184141,"lon":17.6689016,"type":"village"},{"id":"259645032","name":"Pamuk","lat":46.5538585,"lon":17.6375258,"type":"village"},{"id":"259645225","name":"Somogyvár","lat":46.5812387,"lon":17.6509523,"type":"village"},{"id":"259645321","name":"Öreglak","lat":46.6055398,"lon":17.6286333,"type":"village"},{"id":"259645377","name":"Lengyeltóti","lat":46.6671072,"lon":17.6411039,"type":"town"},{"id":"259645994","name":"Szőlősgyörök","lat":46.7080197,"lon":17.6755993,"type":"village"},{"id":"259705041","name":"Karád","lat":46.6934534,"lon":17.8385506,"type":"village"},{"id":"259705469","name":"Somogymeggyes","lat":46.7191252,"lon":17.9151742,"type":"village"},{"id":"260277741","name":"Bernecebaráti","lat":48.038167,"lon":18.9139865,"type":"village"},{"id":"260277743","name":"Tésa","lat":48.0330424,"lon":18.8416839,"type":"village"},{"id":"260277756","name":"Vámosmikola","lat":47.9774677,"lon":18.7841116,"type":"village"},{"id":"260277762","name":"Ipolytölgyes","lat":47.9229018,"lon":18.7743978,"type":"village"},{"id":"260277767","name":"Letkés","lat":47.8853112,"lon":18.776906,"type":"village"},{"id":"260411877","name":"Pilisszántó","lat":47.6692875,"lon":18.886298,"type":"village"},{"id":"260811645","name":"Zalkod","lat":48.1857492,"lon":21.4571919,"type":"village"},{"id":"260811713","name":"Bodrogkeresztúr","lat":48.15876,"lon":21.3606584,"type":"village"},{"id":"260811930","name":"Timár","lat":48.1543182,"lon":21.4610692,"type":"village"},{"id":"260812032","name":"Kenézlő","lat":48.2001359,"lon":21.5311271,"type":"village"},{"id":"261661934","name":"Kemence","lat":48.0171336,"lon":18.891553,"type":"village"},{"id":"262096746","name":"Tarcal","lat":48.1298284,"lon":21.3455658,"type":"village"},{"id":"262097015","name":"Szegi","lat":48.1988064,"lon":21.3815604,"type":"village"},{"id":"262097105","name":"Szegilong","lat":48.2190716,"lon":21.4001637,"type":"village"},{"id":"262097391","name":"Bodrogkisfalud","lat":48.1728331,"lon":21.3574534,"type":"village"},{"id":"262097522","name":"Olaszliszka","lat":48.2466727,"lon":21.4284256,"type":"village"},{"id":"262097553","name":"Vámosújfalu","lat":48.2572635,"lon":21.4493035,"type":"village"},{"id":"262097580","name":"Tolcsva","lat":48.2827761,"lon":21.4490584,"type":"village"},{"id":"262099385","name":"Hernádkak","lat":48.0913219,"lon":20.9641826,"type":"village"},{"id":"262099508","name":"Hernádnémeti","lat":48.0711901,"lon":20.9770518,"type":"village"},{"id":"262101286","name":"Bőcs","lat":48.0385461,"lon":20.9716444,"type":"village"},{"id":"262101302","name":"Berzék","lat":48.0244838,"lon":20.9573107,"type":"village"},{"id":"262101379","name":"Sajóhídvég","lat":48.0030609,"lon":20.9502975,"type":"village"},{"id":"262101507","name":"Köröm","lat":47.9829255,"lon":20.9530696,"type":"village"},{"id":"262101590","name":"Girincs","lat":47.9698386,"lon":20.9845825,"type":"village"},{"id":"262101680","name":"Kiscsécs","lat":47.9657717,"lon":21.0106791,"type":"village"},{"id":"262101727","name":"Kesznyéten","lat":47.9692308,"lon":21.0420321,"type":"village"},{"id":"262101849","name":"Sajóörös","lat":47.9511834,"lon":21.0221987,"type":"village"},{"id":"262101889","name":"Sajószöged","lat":47.9447446,"lon":20.9923296,"type":"village"},{"id":"262103735","name":"Tiszalúc","lat":48.0345861,"lon":21.0630541,"type":"village"},{"id":"262103998","name":"Taktaharkány","lat":48.088049,"lon":21.1324053,"type":"village"},{"id":"262808755","name":"Vászoly","lat":46.9392057,"lon":17.7591997,"type":"village"},{"id":"262809045","name":"Dörgicse","lat":46.9156578,"lon":17.7236469,"type":"village"},{"id":"262942176","name":"Szabadegyháza","lat":47.0767634,"lon":18.6924831,"type":"village"},{"id":"265600153","name":"Gyöngyöshalász","lat":47.7417728,"lon":19.9217283,"type":"village"},{"id":"266938641","name":"Filkeháza","lat":48.4953611,"lon":21.4890018,"type":"village"},{"id":"266938649","name":"Pálháza","lat":48.4715824,"lon":21.5110813,"type":"town"},{"id":"266938671","name":"Telkibánya","lat":48.485603,"lon":21.3544735,"type":"village"},{"id":"266938720","name":"Gönc","lat":48.4724881,"lon":21.2726277,"type":"town"},{"id":"266938799","name":"Göncruszka","lat":48.4492346,"lon":21.2414877,"type":"village"},{"id":"266938852","name":"Vilmány","lat":48.4166243,"lon":21.2329753,"type":"village"},{"id":"266938870","name":"Fony","lat":48.3910404,"lon":21.2841684,"type":"village"},{"id":"266938914","name":"Korlát","lat":48.3785841,"lon":21.245644,"type":"village"},{"id":"266939584","name":"Hernádcéce","lat":48.3589235,"lon":21.1974889,"type":"village"},{"id":"266939897","name":"Boldogkőváralja","lat":48.3382138,"lon":21.2378103,"type":"village"},{"id":"266940714","name":"Mogyoróska","lat":48.3764617,"lon":21.327408,"type":"village"},{"id":"266940746","name":"Regéc","lat":48.3930678,"lon":21.3451985,"type":"village"},{"id":"266940773","name":"Hejce","lat":48.4240516,"lon":21.2806882,"type":"village"},{"id":"267511495","name":"Seregélyes","lat":47.111617,"lon":18.578555,"type":"village"},{"id":"267512894","name":"Zichyújfalu","lat":47.1258547,"lon":18.6712913,"type":"village"},{"id":"267513607","name":"Sárosd","lat":47.0416106,"lon":18.6498216,"type":"village"},{"id":"267513795","name":"Perkáta","lat":47.0479725,"lon":18.7901236,"type":"village"},{"id":"267513797","name":"Kulcs","lat":47.0529379,"lon":18.9163165,"type":"village"},{"id":"267513814","name":"Rácalmás","lat":47.0259018,"lon":18.9393279,"type":"town"},{"id":"267513823","name":"Adony","lat":47.1208993,"lon":18.8631074,"type":"town"},{"id":"267513895","name":"Pusztaszabolcs","lat":47.1385777,"lon":18.7576092,"type":"town"},{"id":"267513897","name":"Besnyő","lat":47.1914649,"lon":18.7936451,"type":"village"},{"id":"267513909","name":"Beloiannisz","lat":47.1821153,"lon":18.8255164,"type":"village"},{"id":"267513914","name":"Iváncsa","lat":47.1473327,"lon":18.8311498,"type":"village"},{"id":"267513929","name":"Baracska","lat":47.2857906,"lon":18.7575803,"type":"village"},{"id":"267608553","name":"Szentmártonkáta","lat":47.4440884,"lon":19.6916458,"type":"village"},{"id":"267849740","name":"Kunhegyes","lat":47.3699089,"lon":20.6318292,"type":"town"},{"id":"267851626","name":"Tiszaigar","lat":47.5353221,"lon":20.80037,"type":"village"},{"id":"267854102","name":"Nagyiván","lat":47.4848432,"lon":20.9271417,"type":"village"},{"id":"268154191","name":"Lovasberény","lat":47.3099528,"lon":18.5526726,"type":"village"},{"id":"268154227","name":"Pátka","lat":47.2770976,"lon":18.4870991,"type":"village"},{"id":"268154261","name":"Csákvár","lat":47.3918045,"lon":18.464064,"type":"town"},{"id":"268154285","name":"Pázmánd","lat":47.2836305,"lon":18.6566197,"type":"village"},{"id":"268154336","name":"Vereb","lat":47.3199528,"lon":18.6176784,"type":"village"},{"id":"268154374","name":"Nadap","lat":47.2579935,"lon":18.6174895,"type":"village"},{"id":"268154412","name":"Vál","lat":47.3665339,"lon":18.677646,"type":"village"},{"id":"268154452","name":"Kajászó","lat":47.3264844,"lon":18.7217551,"type":"village"},{"id":"268154464","name":"Vértesacsa","lat":47.3741324,"lon":18.5794394,"type":"village"},{"id":"268154465","name":"Alcsútdoboz","lat":47.4254396,"lon":18.603219,"type":"village"},{"id":"268154466","name":"Felcsút","lat":47.4545349,"lon":18.5862386,"type":"village"},{"id":"268154467","name":"Tabajd","lat":47.4064587,"lon":18.6264073,"type":"village"},{"id":"268154478","name":"Etyek","lat":47.4448813,"lon":18.7504665,"type":"village"},{"id":"268154500","name":"Gánt","lat":47.3908585,"lon":18.3877802,"type":"village"},{"id":"268154501","name":"Mór","lat":47.3720267,"lon":18.2090388,"type":"town"},{"id":"268154519","name":"Zámoly","lat":47.3183087,"lon":18.4139732,"type":"village"},{"id":"268154520","name":"Csókakő","lat":47.3563896,"lon":18.2757791,"type":"village"},{"id":"268154521","name":"Csákberény","lat":47.3488619,"lon":18.3285962,"type":"village"},{"id":"268154528","name":"Vértesboglár","lat":47.4289479,"lon":18.5247841,"type":"village"},{"id":"268154529","name":"Bodmér","lat":47.4506102,"lon":18.5370275,"type":"village"},{"id":"268154531","name":"Szár","lat":47.4787964,"lon":18.5185002,"type":"village"},{"id":"268154562","name":"Polgárdi","lat":47.0563978,"lon":18.3067942,"type":"town"},{"id":"268183245","name":"Pápa","lat":47.3261087,"lon":17.4705293,"type":"town"},{"id":"268197049","name":"Körmend","lat":47.0087059,"lon":16.6048737,"type":"town"},{"id":"268197118","name":"Ják","lat":47.141049,"lon":16.5807225,"type":"village"},{"id":"268197206","name":"Egyházasrádóc","lat":47.0867322,"lon":16.6129035,"type":"village"},{"id":"268197585","name":"Felsőszölnök","lat":46.8780527,"lon":16.1653928,"type":"village"},{"id":"268204356","name":"Hajdúszoboszló","lat":47.4431291,"lon":21.3902995,"type":"town"},{"id":"268204409","name":"Kaba","lat":47.3576246,"lon":21.2742641,"type":"town"},{"id":"268204467","name":"Püspökladány","lat":47.3196043,"lon":21.1122524,"type":"town"},{"id":"268205246","name":"Mezőtúr","lat":47.0004724,"lon":20.6299513,"type":"town"},{"id":"268205542","name":"Mezőberény","lat":46.8240312,"lon":21.0290937,"type":"town"},{"id":"268208871","name":"Szabadbattyán","lat":47.1177414,"lon":18.3677694,"type":"village"},{"id":"268208875","name":"Kőszárhegy","lat":47.092036,"lon":18.3421918,"type":"village"},{"id":"268208979","name":"Tác","lat":47.0829509,"lon":18.4058071,"type":"village"},{"id":"268212667","name":"Kisvárda","lat":48.2257593,"lon":22.0784247,"type":"town"},{"id":"268215944","name":"Ózd","lat":48.2191757,"lon":20.2810727,"type":"town"},{"id":"268829652","name":"Diósjenő","lat":47.9395202,"lon":19.0437008,"type":"village"},{"id":"269357447","name":"Tét","lat":47.5159522,"lon":17.5166682,"type":"town"},{"id":"269357562","name":"Győrszemere","lat":47.5528273,"lon":17.562254,"type":"village"},{"id":"270467311","name":"Zimány","lat":46.4252137,"lon":17.9071462,"type":"village"},{"id":"270467360","name":"Orci","lat":46.4061836,"lon":17.8723723,"type":"village"},{"id":"271311196","name":"Rinyaújnép","lat":46.0798962,"lon":17.3546111,"type":"village"},{"id":"271311447","name":"Bakháza","lat":46.1082398,"lon":17.3593728,"type":"village"},{"id":"271313253","name":"Rinyaszentkirály","lat":46.1529179,"lon":17.3889437,"type":"village"},{"id":"271316259","name":"Tarany","lat":46.1832459,"lon":17.3018901,"type":"village"},{"id":"271316698","name":"Bolhó","lat":46.0384181,"lon":17.2978502,"type":"village"},{"id":"271316829","name":"Heresznye","lat":46.0555387,"lon":17.2760401,"type":"village"},{"id":"271316997","name":"Vízvár","lat":46.0907256,"lon":17.2317143,"type":"village"},{"id":"271317440","name":"Bélavár","lat":46.1216915,"lon":17.2149293,"type":"village"},{"id":"271317961","name":"Somogyudvarhely","lat":46.1773427,"lon":17.1909701,"type":"village"},{"id":"271318039","name":"Berzence","lat":46.2059813,"lon":17.148481,"type":"village"},{"id":"271319040","name":"Csurgó","lat":46.2642514,"lon":17.0950874,"type":"town"},{"id":"274355674","name":"Dunavecse","lat":46.9163658,"lon":18.9716536,"type":"town"},{"id":"274663457","name":"Dúzs","lat":46.4921925,"lon":18.3802721,"type":"village"},{"id":"274665995","name":"Döbrököz","lat":46.424126,"lon":18.239254,"type":"village"},{"id":"274666503","name":"Dombóvár","lat":46.3778989,"lon":18.1332865,"type":"town"},{"id":"274666927","name":"Attala","lat":46.3765721,"lon":18.0660777,"type":"village"},{"id":"274667124","name":"Csoma","lat":46.3726866,"lon":18.0509268,"type":"village"},{"id":"274667379","name":"Szabadi","lat":46.367823,"lon":18.0311807,"type":"village"},{"id":"274667594","name":"Nagyberki","lat":46.3574714,"lon":18.0074126,"type":"village"},{"id":"274667832","name":"Mosdós","lat":46.3535065,"lon":17.9868705,"type":"village"},{"id":"274668035","name":"Baté","lat":46.3589904,"lon":17.9627787,"type":"village"},{"id":"274668272","name":"Taszár","lat":46.3736269,"lon":17.9051541,"type":"village"},{"id":"274669382","name":"Kaposfő","lat":46.3618336,"lon":17.6698386,"type":"village"},{"id":"274669913","name":"Kiskorpád","lat":46.364027,"lon":17.6106437,"type":"village"},{"id":"274670378","name":"Nagybajom","lat":46.3936575,"lon":17.511875,"type":"town"},{"id":"274672119","name":"Böhönye","lat":46.4077758,"lon":17.3907201,"type":"village"},{"id":"274672528","name":"Vése","lat":46.4118616,"lon":17.2911965,"type":"village"},{"id":"274674574","name":"Nemesdéd","lat":46.4297304,"lon":17.2438609,"type":"village"},{"id":"274675464","name":"Nemesvid","lat":46.4857207,"lon":17.2485326,"type":"village"},{"id":"274680963","name":"Somogysimonyi","lat":46.4876201,"lon":17.2087919,"type":"village"},{"id":"274682932","name":"Zalakomár","lat":46.5463542,"lon":17.1756684,"type":"village"},{"id":"274683600","name":"Zalakaros","lat":46.5607855,"lon":17.1221529,"type":"town"},{"id":"274684709","name":"Garabonc","lat":46.5862361,"lon":17.119683,"type":"village"},{"id":"274685196","name":"Nagyrada","lat":46.6195296,"lon":17.1183394,"type":"village"},{"id":"274685432","name":"Zalaszabar","lat":46.6410525,"lon":17.1122538,"type":"village"},{"id":"274689312","name":"Orosztony","lat":46.6269989,"lon":17.0618029,"type":"village"},{"id":"274694959","name":"Kerecseny","lat":46.6254231,"lon":17.0454058,"type":"village"},{"id":"274695418","name":"Kilimán","lat":46.6377465,"lon":16.9949519,"type":"village"},{"id":"274696063","name":"Alsórajk","lat":46.6537147,"lon":16.9968401,"type":"village"},{"id":"274696302","name":"Felsőrajk","lat":46.6809597,"lon":16.9863145,"type":"village"},{"id":"274697206","name":"Pötréte","lat":46.6782671,"lon":16.9509894,"type":"village"},{"id":"274697323","name":"Hahót","lat":46.6488833,"lon":16.9227991,"type":"village"},{"id":"274956384","name":"Szigetcsép","lat":47.2671482,"lon":18.9672674,"type":"village"},{"id":"274956387","name":"Szigetújfalu","lat":47.2332083,"lon":18.9235417,"type":"village"},{"id":"274956814","name":"Kunszentmiklós","lat":47.0257098,"lon":19.1234855,"type":"town"},{"id":"274957264","name":"Apostag","lat":46.8832449,"lon":18.9673417,"type":"village"},{"id":"274958127","name":"Dunaföldvár","lat":46.810432,"lon":18.9222921,"type":"town"},{"id":"274958442","name":"Nagyvenyim","lat":46.9561887,"lon":18.8592732,"type":"village"},{"id":"274958708","name":"Mezőszilas","lat":46.8158361,"lon":18.4749938,"type":"village"},{"id":"274958983","name":"Mezőfalva","lat":46.9324818,"lon":18.7790405,"type":"village"},{"id":"274960000","name":"Halásztelek","lat":47.363105,"lon":18.9811444,"type":"town"},{"id":"274960662","name":"Szigethalom","lat":47.3245067,"lon":19.0001884,"type":"town"},{"id":"274960664","name":"Dunavarsány","lat":47.2789632,"lon":19.0661045,"type":"town"},{"id":"274960665","name":"Délegyháza","lat":47.247818,"lon":19.066912,"type":"village"},{"id":"274960757","name":"Szigetbecse","lat":47.1305562,"lon":18.9491726,"type":"village"},{"id":"274960777","name":"Makád","lat":47.0884358,"lon":18.9263252,"type":"village"},{"id":"274961265","name":"Szigetszentmiklós","lat":47.3487056,"lon":19.0452409,"type":"town"},{"id":"274961269","name":"Dunaharaszti","lat":47.3541549,"lon":19.0912203,"type":"town"},{"id":"274961396","name":"Taksony","lat":47.3299781,"lon":19.0623899,"type":"village"},{"id":"274961837","name":"Gyál","lat":47.3845453,"lon":19.2173066,"type":"town"},{"id":"275821441","name":"Újireg","lat":46.6573791,"lon":18.1733545,"type":"village"},{"id":"275822023","name":"Iregszemcse","lat":46.6930094,"lon":18.183599,"type":"village"},{"id":"275824265","name":"Nagykónyi","lat":46.5903723,"lon":18.2032011,"type":"village"},{"id":"275825091","name":"Koppányszántó","lat":46.5929144,"lon":18.1117673,"type":"village"},{"id":"275825326","name":"Értény","lat":46.6105728,"lon":18.1339549,"type":"village"},{"id":"275827873","name":"Törökkoppány","lat":46.6013936,"lon":18.0506298,"type":"village"},{"id":"275828886","name":"Szorosad","lat":46.6014871,"lon":18.0233496,"type":"village"},{"id":"275829212","name":"Somogydöröcske","lat":46.5871942,"lon":18.0063187,"type":"village"},{"id":"275829735","name":"Somogyacsa","lat":46.5920287,"lon":17.9539462,"type":"village"},{"id":"275831245","name":"Tamási","lat":46.6293978,"lon":18.2850331,"type":"town"},{"id":"275854286","name":"Kéty","lat":46.4403964,"lon":18.5177398,"type":"village"},{"id":"275887337","name":"Zomba","lat":46.4108094,"lon":18.5659247,"type":"village"},{"id":"275888897","name":"Kisdorog","lat":46.3907426,"lon":18.4943188,"type":"village"},{"id":"275894294","name":"Harc","lat":46.4029948,"lon":18.6177254,"type":"village"},{"id":"275895175","name":"Bonyhádvarasd","lat":46.3703376,"lon":18.4799664,"type":"village"},{"id":"275895750","name":"Murga","lat":46.4607536,"lon":18.4879246,"type":"village"},{"id":"276103155","name":"Szatta","lat":46.7988919,"lon":16.4804421,"type":"village"},{"id":"276104832","name":"Becsvölgye","lat":46.7592756,"lon":16.6812859,"type":"village"},{"id":"276104893","name":"Szilvágy","lat":46.7336298,"lon":16.6275931,"type":"village"},{"id":"276104944","name":"Pórszombat","lat":46.7289288,"lon":16.5760102,"type":"village"},{"id":"276105158","name":"Csesztreg","lat":46.7184024,"lon":16.5164682,"type":"village"},{"id":"276105201","name":"Kerkafalva","lat":46.7731901,"lon":16.4850401,"type":"village"},{"id":"276105205","name":"Nagyrákos","lat":46.8286942,"lon":16.4584826,"type":"village"},{"id":"276105219","name":"Pankasz","lat":46.8381922,"lon":16.4996403,"type":"village"},{"id":"276105533","name":"Felsőjánosfa","lat":46.8429359,"lon":16.5532584,"type":"village"},{"id":"276105600","name":"Zalalövő","lat":46.8461983,"lon":16.5852286,"type":"town"},{"id":"276105732","name":"Zalacséb","lat":46.8610108,"lon":16.6622873,"type":"village"},{"id":"276105784","name":"Zalaszentgyörgy","lat":46.8725154,"lon":16.7041584,"type":"village"},{"id":"276105786","name":"Kávás","lat":46.8619846,"lon":16.7086719,"type":"village"},{"id":"276105841","name":"Boncodfölde","lat":46.8686498,"lon":16.7384437,"type":"village"},{"id":"276105858","name":"Teskánd","lat":46.8527111,"lon":16.7781438,"type":"village"},{"id":"276106030","name":"Gellénháza","lat":46.7601687,"lon":16.7836819,"type":"village"},{"id":"276106122","name":"Sárhida","lat":46.757687,"lon":16.8425323,"type":"village"},{"id":"276106139","name":"Bak","lat":46.7306266,"lon":16.8455824,"type":"village"},{"id":"276162534","name":"Aba","lat":47.0292178,"lon":18.5216608,"type":"town"},{"id":"276163832","name":"Sárbogárd","lat":46.8874371,"lon":18.6196247,"type":"town"},{"id":"276164091","name":"Sárkeresztúr","lat":47.0061553,"lon":18.5481491,"type":"village"},{"id":"276166633","name":"Káloz","lat":46.9552227,"lon":18.4823562,"type":"village"},{"id":"276167371","name":"Sárszentágota","lat":46.9705991,"lon":18.5665592,"type":"village"},{"id":"276739867","name":"Németfalu","lat":46.8158688,"lon":16.6857974,"type":"village"},{"id":"276743591","name":"Salomvár","lat":46.850435,"lon":16.6601672,"type":"village"},{"id":"276766945","name":"Nagylengyel","lat":46.778581,"lon":16.7633768,"type":"village"},{"id":"276769267","name":"Babosdöbréte","lat":46.8120007,"lon":16.7778872,"type":"village"},{"id":"276769902","name":"Dobronhegy","lat":46.8162537,"lon":16.7472857,"type":"village"},{"id":"276770052","name":"Milejszeg","lat":46.788773,"lon":16.7419837,"type":"village"},{"id":"276941352","name":"Gombosszeg","lat":46.7556797,"lon":16.7192517,"type":"village"},{"id":"276941835","name":"Csonkahegyhát","lat":46.801035,"lon":16.7199807,"type":"village"},{"id":"276942483","name":"Kustánszeg","lat":46.785332,"lon":16.6798925,"type":"village"},{"id":"276952211","name":"Őriszentpéter","lat":46.8415658,"lon":16.4182244,"type":"town"},{"id":"276953318","name":"Szalafő","lat":46.865519,"lon":16.3635907,"type":"village"},{"id":"277002290","name":"Nagykapornak","lat":46.8181906,"lon":16.9927294,"type":"village"},{"id":"277002330","name":"Ligetfalva","lat":46.8232872,"lon":17.060471,"type":"village"},{"id":"277002350","name":"Zalacsány","lat":46.8065059,"lon":17.097903,"type":"village"},{"id":"277105763","name":"Ikrény","lat":47.654032,"lon":17.5292492,"type":"village"},{"id":"277119372","name":"Szilsárkány","lat":47.5379828,"lon":17.2553253,"type":"village"},{"id":"277119539","name":"Szil","lat":47.5013162,"lon":17.2319589,"type":"village"},{"id":"277119580","name":"Rábasebes","lat":47.440063,"lon":17.2409711,"type":"village"},{"id":"277119622","name":"Vág","lat":47.4452298,"lon":17.2138266,"type":"village"},{"id":"277119673","name":"Szany","lat":47.4617917,"lon":17.3048321,"type":"village"},{"id":"277119750","name":"Csorna","lat":47.6134153,"lon":17.2497955,"type":"town"},{"id":"277119863","name":"Kóny","lat":47.6316029,"lon":17.3601631,"type":"village"},{"id":"277119957","name":"Enese","lat":47.643899,"lon":17.4218856,"type":"village"},{"id":"277273219","name":"Dág","lat":47.662206,"lon":18.7201144,"type":"village"},{"id":"277514262","name":"Abda","lat":47.6976818,"lon":17.5409829,"type":"village"},{"id":"277514428","name":"Börcs","lat":47.6850359,"lon":17.5007155,"type":"village"},{"id":"277514453","name":"Öttevény","lat":47.7250055,"lon":17.4885276,"type":"village"},{"id":"277514471","name":"Vámosszabadi","lat":47.7529429,"lon":17.6486876,"type":"village"},{"id":"277514652","name":"Győrújfalu","lat":47.7211947,"lon":17.6081756,"type":"village"},{"id":"277514744","name":"Győrzámoly","lat":47.7404316,"lon":17.5788417,"type":"village"},{"id":"277514759","name":"Győrladamér","lat":47.7535231,"lon":17.5634287,"type":"village"},{"id":"277514788","name":"Dunaszeg","lat":47.7696461,"lon":17.5400735,"type":"village"},{"id":"277515036","name":"Ásványráró","lat":47.8299324,"lon":17.4996843,"type":"village"},{"id":"277515146","name":"Hédervár","lat":47.8317006,"lon":17.4579729,"type":"village"},{"id":"277515201","name":"Lipót","lat":47.8613435,"lon":17.4616155,"type":"village"},{"id":"277515348","name":"Darnózseli","lat":47.8504906,"lon":17.4269011,"type":"village"},{"id":"277515349","name":"Halászi","lat":47.8909561,"lon":17.3293251,"type":"village"},{"id":"277515388","name":"Mosonmagyaróvár","lat":47.8731793,"lon":17.2722342,"type":"town"},{"id":"277515570","name":"Máriakálnok","lat":47.861884,"lon":17.3243281,"type":"village"},{"id":"277516458","name":"Mórichida","lat":47.5150931,"lon":17.4203324,"type":"village"},{"id":"277516538","name":"Árpás","lat":47.5133573,"lon":17.3936753,"type":"village"},{"id":"277516651","name":"Egyed","lat":47.5217162,"lon":17.3378908,"type":"village"},{"id":"277516801","name":"Rábacsanak","lat":47.5254922,"lon":17.2894666,"type":"village"},{"id":"277516855","name":"Rábaszentandrás","lat":47.4596934,"lon":17.3281155,"type":"village"},{"id":"277516894","name":"Kemenesszentpéter","lat":47.4272734,"lon":17.2293189,"type":"village"},{"id":"277516896","name":"Pápoc","lat":47.4131032,"lon":17.128897,"type":"village"},{"id":"277518685","name":"Dunasziget","lat":47.9416346,"lon":17.3554366,"type":"village"},{"id":"277526319","name":"Koroncó","lat":47.5973773,"lon":17.5298156,"type":"village"},{"id":"277526339","name":"Rábapatona","lat":47.6318338,"lon":17.4809501,"type":"village"},{"id":"277526771","name":"Bágyogszovát","lat":47.5834947,"lon":17.3675387,"type":"village"},{"id":"277526772","name":"Dör","lat":47.5979397,"lon":17.2987399,"type":"village"},{"id":"277526803","name":"Barbacs","lat":47.6457253,"lon":17.2963302,"type":"village"},{"id":"277526828","name":"Bősárkány","lat":47.6904548,"lon":17.2493747,"type":"village"},{"id":"277526831","name":"Jánossomorja","lat":47.7859228,"lon":17.1364228,"type":"town"},{"id":"277526845","name":"Levél","lat":47.8930868,"lon":17.1999042,"type":"village"},{"id":"277545423","name":"Városlőd","lat":47.1460699,"lon":17.6540976,"type":"village"},{"id":"277545813","name":"Takácsi","lat":47.4004007,"lon":17.4698442,"type":"village"},{"id":"277545865","name":"Gyarmat","lat":47.4634405,"lon":17.4887773,"type":"village"},{"id":"277545906","name":"Csikvánd","lat":47.4655032,"lon":17.4516855,"type":"village"},{"id":"277546181","name":"Tényő","lat":47.5406578,"lon":17.6456212,"type":"village"},{"id":"277546188","name":"Écs","lat":47.5611951,"lon":17.7153122,"type":"village"},{"id":"277546267","name":"Pannonhalma","lat":47.5502015,"lon":17.7541679,"type":"town"},{"id":"277546278","name":"Nyúl","lat":47.5899177,"lon":17.6889689,"type":"village"},{"id":"277546309","name":"Nagyszentjános","lat":47.70919,"lon":17.8711581,"type":"village"},{"id":"277546342","name":"Bábolna","lat":47.6422592,"lon":17.9786783,"type":"town"},{"id":"277546442","name":"Bana","lat":47.6505062,"lon":17.9196468,"type":"village"},{"id":"277574432","name":"Csömend","lat":46.570261,"lon":17.4907887,"type":"village"},{"id":"277574465","name":"Nikla","lat":46.5783111,"lon":17.5172735,"type":"village"},{"id":"277575097","name":"Pusztakovácsi","lat":46.5303827,"lon":17.5739763,"type":"village"},{"id":"277575760","name":"Somogyfajsz","lat":46.5023272,"lon":17.5687406,"type":"village"},{"id":"277576104","name":"Bodrog","lat":46.4868462,"lon":17.653198,"type":"village"},{"id":"277576140","name":"Csombárd","lat":46.4520865,"lon":17.6720808,"type":"village"},{"id":"277576794","name":"Juta","lat":46.4060761,"lon":17.7342201,"type":"village"},{"id":"277585762","name":"Tengelic","lat":46.5319473,"lon":18.7108467,"type":"village"},{"id":"277890235","name":"Szedres","lat":46.4744051,"lon":18.6848887,"type":"village"},{"id":"278643504","name":"Dunakiliti","lat":47.9662482,"lon":17.2882323,"type":"village"},{"id":"278968422","name":"Pálfa","lat":46.7158855,"lon":18.6157181,"type":"village"},{"id":"279149649","name":"Szárazd","lat":46.569984,"lon":18.4261435,"type":"village"},{"id":"279160286","name":"Aparhant","lat":46.3295939,"lon":18.4486863,"type":"village"},{"id":"279163029","name":"Izmény","lat":46.3133774,"lon":18.414514,"type":"village"},{"id":"279163542","name":"Szárász","lat":46.3488336,"lon":18.3725516,"type":"village"},{"id":"279164655","name":"Hegyhátmaróc","lat":46.3113681,"lon":18.3363916,"type":"village"},{"id":"279165769","name":"Alsómocsolád","lat":46.3130764,"lon":18.2450064,"type":"village"},{"id":"279165926","name":"Ág","lat":46.2959997,"lon":18.204151,"type":"village"},{"id":"279166207","name":"Tarrós","lat":46.2813132,"lon":18.1420141,"type":"village"},{"id":"279166261","name":"Gerényes","lat":46.3054281,"lon":18.1849249,"type":"village"},{"id":"279166299","name":"Sásd","lat":46.2559563,"lon":18.1065598,"type":"town"},{"id":"279166334","name":"Felsőegerszeg","lat":46.2538189,"lon":18.1337698,"type":"village"},{"id":"279166549","name":"Varga","lat":46.2471825,"lon":18.1449653,"type":"village"},{"id":"279234464","name":"Kisbajcs","lat":47.7452989,"lon":17.6812283,"type":"village"},{"id":"279234603","name":"Nagybajcs","lat":47.7644567,"lon":17.6868931,"type":"village"},{"id":"279251722","name":"Mosonszentmiklós","lat":47.7286866,"lon":17.4271186,"type":"village"},{"id":"279252204","name":"Kimle","lat":47.8268335,"lon":17.3709629,"type":"village"},{"id":"279252461","name":"Farád","lat":47.606276,"lon":17.2019351,"type":"village"},{"id":"279252487","name":"Rábatamási","lat":47.5885576,"lon":17.1696987,"type":"village"},{"id":"279252516","name":"Jobaháza","lat":47.5817526,"lon":17.1864967,"type":"village"},{"id":"279252537","name":"Lébény","lat":47.7354942,"lon":17.3906258,"type":"town"},{"id":"279252539","name":"Babót","lat":47.5759862,"lon":17.0756257,"type":"village"},{"id":"279252542","name":"Veszkény","lat":47.5998622,"lon":17.0857366,"type":"village"},{"id":"279252602","name":"Agyagosszergény","lat":47.6092415,"lon":16.9409272,"type":"village"},{"id":"279252605","name":"Szárföld","lat":47.5943178,"lon":17.1228148,"type":"village"},{"id":"280078262","name":"Tékes","lat":46.2868655,"lon":18.1743963,"type":"village"},{"id":"280079604","name":"Kisvaszar","lat":46.2754661,"lon":18.2120605,"type":"village"},{"id":"280082885","name":"Liget","lat":46.2361206,"lon":18.1913237,"type":"village"},{"id":"280243092","name":"Bodolyabér","lat":46.1978846,"lon":18.1185967,"type":"village"},{"id":"280243345","name":"Magyarszék","lat":46.1956595,"lon":18.19639,"type":"village"},{"id":"280680112","name":"Kapuvár","lat":47.5936871,"lon":17.0274744,"type":"town"},{"id":"281000809","name":"Szászvár","lat":46.2736604,"lon":18.3778023,"type":"village"},{"id":"281000823","name":"Máza","lat":46.2730422,"lon":18.3981379,"type":"village"},{"id":"281001648","name":"Magyaregregy","lat":46.2510091,"lon":18.3082723,"type":"village"},{"id":"281949695","name":"Nagycenk","lat":47.6034133,"lon":16.6977433,"type":"village"},{"id":"281949986","name":"Pereszteg","lat":47.5932129,"lon":16.7351629,"type":"village"},{"id":"281950158","name":"Fertőendréd","lat":47.6051613,"lon":16.9082099,"type":"village"},{"id":"281950198","name":"Petőháza","lat":47.597363,"lon":16.8933475,"type":"village"},{"id":"281950258","name":"Fertőszentmiklós","lat":47.5890357,"lon":16.8771779,"type":"town"},{"id":"281950278","name":"Fertőd","lat":47.6216348,"lon":16.8645834,"type":"town"},{"id":"282402913","name":"Sarród","lat":47.634367,"lon":16.860754,"type":"village"},{"id":"282403248","name":"Röjtökmuzsaj","lat":47.5564047,"lon":16.8356785,"type":"village"},{"id":"282403261","name":"Nagylózs","lat":47.5669714,"lon":16.7703934,"type":"village"},{"id":"282403274","name":"Pinnye","lat":47.5871074,"lon":16.7686191,"type":"village"},{"id":"282403309","name":"Sopronkövesd","lat":47.5447471,"lon":16.7448252,"type":"village"},{"id":"282403786","name":"Fertőrákos","lat":47.7161504,"lon":16.6527782,"type":"village"},{"id":"282404170","name":"Hidegség","lat":47.6251989,"lon":16.7413826,"type":"village"},{"id":"282404201","name":"Hegykő","lat":47.6216968,"lon":16.7940665,"type":"village"},{"id":"282404840","name":"Markotabödöge","lat":47.6817436,"lon":17.31044,"type":"village"},{"id":"282405427","name":"Rábcakapi","lat":47.7086192,"lon":17.2757237,"type":"village"},{"id":"282405544","name":"Fehértó","lat":47.6761959,"lon":17.3452873,"type":"village"},{"id":"282405627","name":"Győrsövényház","lat":47.690064,"lon":17.3737831,"type":"village"},{"id":"282405699","name":"Bezi","lat":47.6743515,"lon":17.3919405,"type":"village"},{"id":"282405999","name":"Feketeerdő","lat":47.9356591,"lon":17.2787127,"type":"village"},{"id":"282406114","name":"Mosonszolnok","lat":47.8527584,"lon":17.1741402,"type":"village"},{"id":"282406254","name":"Újrónafő","lat":47.8107082,"lon":17.2019677,"type":"village"},{"id":"282406700","name":"Tárnokréti","lat":47.7217755,"lon":17.3073304,"type":"village"},{"id":"282407306","name":"Bőny","lat":47.6506785,"lon":17.8674499,"type":"village"},{"id":"282407479","name":"Töltéstava","lat":47.6269367,"lon":17.7342499,"type":"village"},{"id":"282407516","name":"Pér","lat":47.6123429,"lon":17.7979394,"type":"village"},{"id":"282407784","name":"Mezőörs","lat":47.5687088,"lon":17.8794975,"type":"village"},{"id":"282407878","name":"Rétalap","lat":47.6061069,"lon":17.9101614,"type":"village"},{"id":"282420320","name":"Csém","lat":47.6821792,"lon":18.0888713,"type":"village"},{"id":"282420440","name":"Mocsa","lat":47.6692513,"lon":18.181483,"type":"village"},{"id":"282420843","name":"Almásfüzitő","lat":47.7272163,"lon":18.2619857,"type":"village"},{"id":"282420922","name":"Tatabánya","lat":47.583845,"lon":18.3979855,"type":"city"},{"id":"282430687","name":"Sopronnémeti","lat":47.5364115,"lon":17.2073443,"type":"village"},{"id":"282430708","name":"Magyarkeresztúr","lat":47.5214172,"lon":17.165459,"type":"village"},{"id":"282430726","name":"Zsebeháza","lat":47.5113728,"lon":17.1913798,"type":"village"},{"id":"282430825","name":"Bogyoszló","lat":47.5591812,"lon":17.1862998,"type":"village"},{"id":"282431220","name":"Potyond","lat":47.5492377,"lon":17.1824427,"type":"village"},{"id":"282431538","name":"Pásztori","lat":47.5572596,"lon":17.2725503,"type":"village"},{"id":"282431576","name":"Rábapordány","lat":47.5569204,"lon":17.3228724,"type":"village"},{"id":"282431682","name":"Mérges","lat":47.6023653,"lon":17.4425748,"type":"village"},{"id":"282431689","name":"Rábacsécsény","lat":47.5879517,"lon":17.4238342,"type":"village"},{"id":"282431768","name":"Rábaszentmihály","lat":47.5787949,"lon":17.4332382,"type":"village"},{"id":"282431849","name":"Bodonhely","lat":47.5649133,"lon":17.4073298,"type":"village"},{"id":"282431864","name":"Kisbabot","lat":47.5558778,"lon":17.4172862,"type":"village"},{"id":"282431929","name":"Rábaszentmiklós","lat":47.5379181,"lon":17.4171145,"type":"village"},{"id":"282432923","name":"Gyömöre","lat":47.5007383,"lon":17.5647405,"type":"village"},{"id":"282433118","name":"Felpéc","lat":47.523086,"lon":17.5985879,"type":"village"},{"id":"282433124","name":"Kajárpéc","lat":47.4951901,"lon":17.6272578,"type":"village"},{"id":"282434050","name":"Szerecseny","lat":47.4619347,"lon":17.5547417,"type":"village"},{"id":"282434379","name":"Sokorópátka","lat":47.484475,"lon":17.7006111,"type":"village"},{"id":"282434519","name":"Ravazd","lat":47.5111583,"lon":17.7518616,"type":"village"},{"id":"282434591","name":"Pázmándfalu","lat":47.5696422,"lon":17.7839964,"type":"village"},{"id":"282434622","name":"Győrság","lat":47.5802453,"lon":17.7521523,"type":"village"},{"id":"282434682","name":"Nyalka","lat":47.5438069,"lon":17.8081139,"type":"village"},{"id":"282434709","name":"Táp","lat":47.5168295,"lon":17.8320345,"type":"village"},{"id":"282434837","name":"Tápszentmiklós","lat":47.4945365,"lon":17.8510293,"type":"village"},{"id":"282434917","name":"Tarjánpuszta","lat":47.505322,"lon":17.7861413,"type":"village"},{"id":"282434959","name":"Győrasszonyfa","lat":47.4969133,"lon":17.8058287,"type":"village"},{"id":"282436840","name":"Veszprémvarsány","lat":47.4273146,"lon":17.8294955,"type":"village"},{"id":"282436976","name":"Bakonypéterd","lat":47.4654288,"lon":17.7975324,"type":"village"},{"id":"282437310","name":"Románd","lat":47.4472601,"lon":17.7918464,"type":"village"},{"id":"282437346","name":"Lázi","lat":47.4652414,"lon":17.8384606,"type":"village"},{"id":"282437401","name":"Sikátor","lat":47.4385016,"lon":17.8517675,"type":"village"},{"id":"282437594","name":"Bakonygyirót","lat":47.4179307,"lon":17.8046807,"type":"village"},{"id":"282437651","name":"Bakonyszentlászló","lat":47.3907437,"lon":17.8043374,"type":"village"},{"id":"282437734","name":"Fenyőfő","lat":47.3500815,"lon":17.7661891,"type":"village"},{"id":"282438016","name":"Győrújbarát","lat":47.6133844,"lon":17.6365733,"type":"village"},{"id":"282438325","name":"Sobor","lat":47.4757436,"lon":17.3690041,"type":"village"},{"id":"282438414","name":"Páli","lat":47.4748121,"lon":17.1661904,"type":"village"},{"id":"282438463","name":"Kisfalud","lat":47.5294255,"lon":17.0883689,"type":"village"},{"id":"282438466","name":"Mihályi","lat":47.5157574,"lon":17.0950326,"type":"village"},{"id":"282438527","name":"Vadosfa","lat":47.4990597,"lon":17.1285065,"type":"village"},{"id":"282438606","name":"Beled","lat":47.4661125,"lon":17.0898826,"type":"town"},{"id":"282438820","name":"Edve","lat":47.455319,"lon":17.134343,"type":"village"},{"id":"282438821","name":"Vásárosfalu","lat":47.4548442,"lon":17.1188877,"type":"village"},{"id":"282438949","name":"Rábakecöl","lat":47.4342632,"lon":17.1161297,"type":"village"},{"id":"282439253","name":"Cirák","lat":47.4781801,"lon":17.0299729,"type":"village"},{"id":"282439402","name":"Gyóró","lat":47.490743,"lon":17.0213631,"type":"village"},{"id":"282439444","name":"Dénesfa","lat":47.4568279,"lon":17.0313462,"type":"village"},{"id":"282439607","name":"Himod","lat":47.5188797,"lon":17.0040166,"type":"village"},{"id":"282440019","name":"Vitnyéd","lat":47.5871074,"lon":16.9799695,"type":"village"},{"id":"282440290","name":"Hövej","lat":47.5494574,"lon":17.0204242,"type":"village"},{"id":"282440643","name":"Répcelak","lat":47.4195089,"lon":17.0154287,"type":"town"},{"id":"282440804","name":"Répceszemere","lat":47.4278029,"lon":16.9753846,"type":"village"},{"id":"282440999","name":"Iván","lat":47.4433037,"lon":16.9060265,"type":"village"},{"id":"282441777","name":"Csáfordjánosfa","lat":47.4164207,"lon":16.9516953,"type":"village"},{"id":"282442910","name":"Csér","lat":47.4174522,"lon":16.9330194,"type":"village"},{"id":"282443150","name":"Csapod","lat":47.5187663,"lon":16.9273006,"type":"village"},{"id":"282443185","name":"Pusztacsalád","lat":47.486997,"lon":16.9031151,"type":"village"},{"id":"282443465","name":"Ebergőc","lat":47.5636922,"lon":16.8115634,"type":"village"},{"id":"282443705","name":"Lövő","lat":47.5034563,"lon":16.7827241,"type":"village"},{"id":"282443764","name":"Nemeskér","lat":47.4837829,"lon":16.8029043,"type":"village"},{"id":"282443773","name":"Újkér","lat":47.463142,"lon":16.8145095,"type":"village"},{"id":"282443980","name":"Völcsej","lat":47.4979685,"lon":16.7629544,"type":"village"},{"id":"282444010","name":"Sopronhorpács","lat":47.4838028,"lon":16.7387483,"type":"village"},{"id":"282444162","name":"Und","lat":47.488157,"lon":16.6940316,"type":"village"},{"id":"282444350","name":"Egyházasfalu","lat":47.4650681,"lon":16.7654427,"type":"village"},{"id":"282444467","name":"Zsira","lat":47.4560444,"lon":16.6807707,"type":"village"},{"id":"282444674","name":"Szakony","lat":47.4271214,"lon":16.7166154,"type":"village"},{"id":"282444805","name":"Répcevis","lat":47.4405129,"lon":16.6740124,"type":"village"},{"id":"282445562","name":"Gyalóka","lat":47.4432365,"lon":16.6961362,"type":"village"},{"id":"282446159","name":"Ágfalva","lat":47.6905736,"lon":16.5137534,"type":"village"},{"id":"282447849","name":"Fertőboz","lat":47.6354424,"lon":16.7004603,"type":"village"},{"id":"282447960","name":"Fertőhomok","lat":47.6197601,"lon":16.7671432,"type":"village"},{"id":"282448046","name":"Fertőszéplak","lat":47.6169832,"lon":16.8342748,"type":"village"},{"id":"282448372","name":"Osli","lat":47.6401697,"lon":17.0749299,"type":"village"},{"id":"282448549","name":"Acsalag","lat":47.6752768,"lon":17.1988877,"type":"village"},{"id":"282448676","name":"Maglóca","lat":47.66332,"lon":17.2753212,"type":"village"},{"id":"282449024","name":"Kunsziget","lat":47.7393981,"lon":17.5152083,"type":"village"},{"id":"282449430","name":"Mecsér","lat":47.7957795,"lon":17.4767397,"type":"village"},{"id":"282449652","name":"Károlyháza","lat":47.8036155,"lon":17.344787,"type":"village"},{"id":"282451142","name":"Cakóháza","lat":47.6962138,"lon":17.2862035,"type":"village"},{"id":"282451434","name":"Dunaremete","lat":47.8766438,"lon":17.437091,"type":"village"},{"id":"282451745","name":"Kisbodak","lat":47.8965132,"lon":17.4199533,"type":"village"},{"id":"282452949","name":"Harka","lat":47.6342337,"lon":16.602306,"type":"village"},{"id":"282453422","name":"Vének","lat":47.7394914,"lon":17.7594607,"type":"village"},{"id":"282454667","name":"Várbalog","lat":47.8339827,"lon":17.0705589,"type":"village"},{"id":"283216589","name":"Dunaalmás","lat":47.7334366,"lon":18.3351245,"type":"village"},{"id":"285885211","name":"Várkesző","lat":47.429224,"lon":17.3153411,"type":"village"},{"id":"285885249","name":"Egyházaskesző","lat":47.416714,"lon":17.3291795,"type":"village"},{"id":"285885252","name":"Marcaltő","lat":47.4346329,"lon":17.3664994,"type":"village"},{"id":"285885279","name":"Nemesgörzsöny","lat":47.3939594,"lon":17.3625205,"type":"village"},{"id":"285885374","name":"Malomsok","lat":47.4525466,"lon":17.3960463,"type":"village"},{"id":"285886230","name":"Kislőd","lat":47.1446686,"lon":17.6217273,"type":"village"},{"id":"285886520","name":"Ajka","lat":47.1056579,"lon":17.5587276,"type":"town"},{"id":"285886599","name":"Devecser","lat":47.104052,"lon":17.4364185,"type":"town"},{"id":"285887003","name":"Cserszegtomaj","lat":46.8061946,"lon":17.2264662,"type":"village"},{"id":"285901432","name":"Balatonszőlős","lat":46.9673651,"lon":17.8292145,"type":"village"},{"id":"285901638","name":"Balatonakarattya","lat":47.0239663,"lon":18.1439403,"type":"village"},{"id":"285902043","name":"Várpalota","lat":47.2006176,"lon":18.1399782,"type":"town"},{"id":"285902147","name":"Pétfürdő","lat":47.1599702,"lon":18.1209474,"type":"village"},{"id":"285902291","name":"Öskü","lat":47.1601175,"lon":18.0730921,"type":"village"},{"id":"285902324","name":"Csór","lat":47.204993,"lon":18.2569467,"type":"village"},{"id":"285940983","name":"Olaszfalu","lat":47.2436541,"lon":17.9078919,"type":"village"},{"id":"285941012","name":"Zirc","lat":47.2613795,"lon":17.8718188,"type":"town"},{"id":"285941295","name":"Berhida","lat":47.1109931,"lon":18.1339369,"type":"town"},{"id":"285941739","name":"Herend","lat":47.1328461,"lon":17.7523356,"type":"town"},{"id":"285943953","name":"Rédics","lat":46.6149423,"lon":16.4846742,"type":"village"},{"id":"285944075","name":"Lenti","lat":46.6240149,"lon":16.5425891,"type":"town"},{"id":"286101602","name":"Nagykanizsa","lat":46.4548261,"lon":16.9923923,"type":"town"},{"id":"286102448","name":"Zalaszentgrót","lat":46.9438023,"lon":17.0790205,"type":"town"},{"id":"286103082","name":"Peresznye","lat":47.4245879,"lon":16.6477989,"type":"village"},{"id":"286103368","name":"Kőszeg","lat":47.3894949,"lon":16.5406843,"type":"town"},{"id":"286103515","name":"Bük","lat":47.3833959,"lon":16.753305,"type":"town"},{"id":"286103761","name":"Celldömölk","lat":47.2579643,"lon":17.1521883,"type":"town"},{"id":"286105334","name":"Vasvár","lat":47.0490649,"lon":16.7998821,"type":"town"},{"id":"286106057","name":"Szentgotthárd","lat":46.9528507,"lon":16.2748541,"type":"town"},{"id":"286114423","name":"Buzsák","lat":46.6487053,"lon":17.5774653,"type":"village"},{"id":"286114499","name":"Táska","lat":46.6159122,"lon":17.5214936,"type":"village"},{"id":"286129272","name":"Bátonyterenye","lat":47.9955532,"lon":19.8272105,"type":"town"},{"id":"286129575","name":"Pásztó","lat":47.9210634,"lon":19.6997727,"type":"town"},{"id":"286130314","name":"Kisbér","lat":47.4992603,"lon":18.0300173,"type":"town"},{"id":"286130475","name":"Oroszlány","lat":47.487135,"lon":18.3152076,"type":"town"},{"id":"286150672","name":"Bodajk","lat":47.3227042,"lon":18.233096,"type":"town"},{"id":"286153334","name":"Lepsény","lat":46.9946682,"lon":18.2443639,"type":"village"},{"id":"286153436","name":"Mezőszentgyörgy","lat":46.994048,"lon":18.2738432,"type":"village"},{"id":"286153825","name":"Enying","lat":46.9269341,"lon":18.2449727,"type":"town"},{"id":"286155540","name":"Záhony","lat":48.4029055,"lon":22.1787677,"type":"town"},{"id":"286156474","name":"Rohod","lat":48.0274402,"lon":22.1353208,"type":"village"},{"id":"286156605","name":"Baktalórántháza","lat":47.9976535,"lon":22.0769165,"type":"town"},{"id":"286158556","name":"Kemecse","lat":48.0678349,"lon":21.7986929,"type":"town"},{"id":"286158978","name":"Demecser","lat":48.1136996,"lon":21.9252073,"type":"town"},{"id":"286165925","name":"Tiszakarád","lat":48.2028406,"lon":21.7200178,"type":"village"},{"id":"286166152","name":"Nagyhalász","lat":48.1322422,"lon":21.7593891,"type":"town"},{"id":"286166176","name":"Ibrány","lat":48.122594,"lon":21.7102156,"type":"town"},{"id":"286167568","name":"Kékcse","lat":48.251734,"lon":22.009493,"type":"village"},{"id":"286167890","name":"Tiszakanyár","lat":48.2479618,"lon":21.9619428,"type":"village"},{"id":"286167916","name":"Dombrád","lat":48.2256872,"lon":21.9244483,"type":"town"},{"id":"286168628","name":"Rakamaz","lat":48.12218,"lon":21.4775144,"type":"town"},{"id":"286169157","name":"Tiszalök","lat":48.0171761,"lon":21.3749662,"type":"town"},{"id":"286169516","name":"Szorgalmatos","lat":47.9885971,"lon":21.3685792,"type":"village"},{"id":"286169938","name":"Tiszavasvári","lat":47.956619,"lon":21.3680532,"type":"town"},{"id":"286171150","name":"Nagykálló","lat":47.874296,"lon":21.8434965,"type":"town"},{"id":"286174034","name":"Hajdúhadház","lat":47.6822047,"lon":21.6692161,"type":"town"},{"id":"286174484","name":"Újfehértó","lat":47.8008977,"lon":21.6829931,"type":"town"},{"id":"286175660","name":"Nyírmihálydi","lat":47.7325301,"lon":21.9660572,"type":"village"},{"id":"286175858","name":"Nyírlugos","lat":47.6920499,"lon":22.0417654,"type":"town"},{"id":"286176408","name":"Kisléta","lat":47.8340953,"lon":22.0034849,"type":"village"},{"id":"286176457","name":"Nyírbogát","lat":47.8014742,"lon":22.0620214,"type":"town"},{"id":"286176618","name":"Nyírbátor","lat":47.839511,"lon":22.1322309,"type":"town"},{"id":"286177024","name":"Nyírgyulaj","lat":47.882828,"lon":22.0896587,"type":"village"},{"id":"286177168","name":"Máriapócs","lat":47.8785097,"lon":22.0231993,"type":"town"},{"id":"286178040","name":"Mátészalka","lat":47.9539113,"lon":22.3208477,"type":"town"},{"id":"286178341","name":"Csenger","lat":47.8363678,"lon":22.6794652,"type":"town"},{"id":"286178832","name":"Nagyecsed","lat":47.862171,"lon":22.3843037,"type":"town"},{"id":"286180101","name":"Szakoly","lat":47.7616355,"lon":21.901328,"type":"village"},{"id":"286180264","name":"Balkány","lat":47.770088,"lon":21.8601316,"type":"town"},{"id":"286181035","name":"Fehérgyarmat","lat":47.9850963,"lon":22.5167524,"type":"town"},{"id":"286183304","name":"Mándok","lat":48.3217182,"lon":22.1893584,"type":"town"},{"id":"286183544","name":"Eperjeske","lat":48.3452238,"lon":22.2120073,"type":"village"},{"id":"286185174","name":"Nyírtelek","lat":48.0102668,"lon":21.6314008,"type":"town"},{"id":"286187060","name":"Vásárosnamény","lat":48.1267635,"lon":22.312647,"type":"town"},{"id":"286199233","name":"Ócsa","lat":47.3011895,"lon":19.2313617,"type":"town"},{"id":"286200051","name":"Vecsés","lat":47.4068966,"lon":19.2643066,"type":"town"},{"id":"286200348","name":"Üllő","lat":47.3850605,"lon":19.3453263,"type":"town"},{"id":"286200470","name":"Monor","lat":47.3527433,"lon":19.4468404,"type":"town"},{"id":"286201239","name":"Pilis","lat":47.2860696,"lon":19.5467411,"type":"town"},{"id":"286201536","name":"Albertirsa","lat":47.2457295,"lon":19.6127835,"type":"town"},{"id":"286202645","name":"Gyömrő","lat":47.4223375,"lon":19.394503,"type":"town"},{"id":"286202716","name":"Maglód","lat":47.4449622,"lon":19.3593136,"type":"town"},{"id":"286203307","name":"Pécel","lat":47.4911201,"lon":19.3446801,"type":"town"},{"id":"286933452","name":"Kistarcsa","lat":47.5447322,"lon":19.2636378,"type":"town"},{"id":"286935167","name":"Nagykáta","lat":47.4138187,"lon":19.7503736,"type":"town"},{"id":"286936520","name":"Tura","lat":47.60935,"lon":19.5949442,"type":"town"},{"id":"286937639","name":"Örkény","lat":47.1297585,"lon":19.4309024,"type":"town"},{"id":"286937857","name":"Hernád","lat":47.1650755,"lon":19.4070801,"type":"village"},{"id":"286959581","name":"Jászjákóhalma","lat":47.5219388,"lon":19.9891136,"type":"village"},{"id":"286959644","name":"Jászapáti","lat":47.5137235,"lon":20.1404245,"type":"town"},{"id":"286959879","name":"Adács","lat":47.691546,"lon":19.9751962,"type":"village"},{"id":"286959944","name":"Jászárokszállás","lat":47.6445417,"lon":19.9786517,"type":"town"},{"id":"286960157","name":"Jászfényszaru","lat":47.5692314,"lon":19.7168149,"type":"town"},{"id":"286960422","name":"Abádszalók","lat":47.4760139,"lon":20.5997748,"type":"town"},{"id":"286961016","name":"Túrkeve","lat":47.1008853,"lon":20.7475819,"type":"town"},{"id":"286961168","name":"Újszász","lat":47.2844426,"lon":20.0702678,"type":"town"},{"id":"286962204","name":"Kerecsend","lat":47.7940489,"lon":20.3461026,"type":"village"},{"id":"286962522","name":"Ostoros","lat":47.8669963,"lon":20.4288434,"type":"village"},{"id":"286962800","name":"Szilvásvárad","lat":48.1033386,"lon":20.3871297,"type":"village"},{"id":"286962843","name":"Bélapátfalva","lat":48.0517179,"lon":20.3448732,"type":"town"},{"id":"286963674","name":"Kisköre","lat":47.4994568,"lon":20.4925043,"type":"town"},{"id":"286964115","name":"Lőrinci","lat":47.7400504,"lon":19.6773099,"type":"town"},{"id":"286965828","name":"Bükkszenterzsébet","lat":48.0507263,"lon":20.1554581,"type":"village"},{"id":"286966161","name":"Pétervására","lat":48.0192068,"lon":20.0983738,"type":"town"},{"id":"286967912","name":"Polgár","lat":47.8707939,"lon":21.1141032,"type":"town"},{"id":"286968025","name":"Hajdúböszörmény","lat":47.6716617,"lon":21.5078944,"type":"town"},{"id":"286968184","name":"Hajdúsámson","lat":47.5989514,"lon":21.7537139,"type":"town"},{"id":"286968655","name":"Vámospércs","lat":47.5267293,"lon":21.8987164,"type":"town"},{"id":"286969057","name":"Nyíradony","lat":47.6913589,"lon":21.9053502,"type":"town"},{"id":"286969354","name":"Hajdúnánás","lat":47.8452241,"lon":21.4279002,"type":"town"},{"id":"286969379","name":"Hajdúdorog","lat":47.8157169,"lon":21.5006846,"type":"town"},{"id":"286969567","name":"Tiszacsege","lat":47.6975481,"lon":20.9935969,"type":"town"},{"id":"286969819","name":"Derecske","lat":47.3539466,"lon":21.5709171,"type":"town"},{"id":"286969829","name":"Berettyóújfalu","lat":47.2247273,"lon":21.5355206,"type":"town"},{"id":"286970084","name":"Komádi","lat":47.0015182,"lon":21.4882954,"type":"town"},{"id":"286970865","name":"Nádudvar","lat":47.4285575,"lon":21.1593087,"type":"town"},{"id":"286971072","name":"Monostorpályi","lat":47.3974068,"lon":21.7734281,"type":"village"},{"id":"286971124","name":"Létavértes","lat":47.3853112,"lon":21.8764089,"type":"town"},{"id":"286971559","name":"Balmazújváros","lat":47.6116279,"lon":21.3437378,"type":"town"},{"id":"286972968","name":"Csongrád","lat":46.7097618,"lon":20.1537305,"type":"town"},{"id":"286973106","name":"Sándorfalva","lat":46.3657365,"lon":20.1042174,"type":"town"},{"id":"286973296","name":"Mindszent","lat":46.524022,"lon":20.186003,"type":"town"},{"id":"286973656","name":"Kistelek","lat":46.4704606,"lon":19.9812009,"type":"town"},{"id":"286973717","name":"Ópusztaszer","lat":46.4971782,"lon":20.0641986,"type":"village"},{"id":"286974186","name":"Szentes","lat":46.6524049,"lon":20.2566408,"type":"town"},{"id":"286975602","name":"Tiszaújváros","lat":47.9280341,"lon":21.0467056,"type":"town"},{"id":"286978816","name":"Szerencs","lat":48.1633851,"lon":21.2010881,"type":"town"},{"id":"286979602","name":"Alsózsolca","lat":48.0703015,"lon":20.8819968,"type":"town"},{"id":"286982043","name":"Szikszó","lat":48.2015243,"lon":20.9275021,"type":"town"},{"id":"286982064","name":"Encs","lat":48.3305743,"lon":21.1222112,"type":"town"},{"id":"286983971","name":"Sárospatak","lat":48.3216823,"lon":21.5655524,"type":"town"},{"id":"286984247","name":"Sátoraljaújhely","lat":48.3960978,"lon":21.6561497,"type":"town"},{"id":"286985356","name":"Szendrő","lat":48.4030034,"lon":20.7324798,"type":"town"},{"id":"286985492","name":"Putnok","lat":48.2942607,"lon":20.4342869,"type":"town"},{"id":"286986224","name":"Borsodnádasd","lat":48.1230335,"lon":20.246177,"type":"town"},{"id":"286986763","name":"Mezőkövesd","lat":47.8097525,"lon":20.5660889,"type":"town"},{"id":"286987155","name":"Mezőcsát","lat":47.8175357,"lon":20.903168,"type":"town"},{"id":"286988415","name":"Abaújszántó","lat":48.278706,"lon":21.1855002,"type":"town"},{"id":"286988665","name":"Cigánd","lat":48.2572311,"lon":21.8904926,"type":"town"},{"id":"286989341","name":"Szuhogy","lat":48.3838503,"lon":20.6737614,"type":"village"},{"id":"286989417","name":"Rudabánya","lat":48.373781,"lon":20.6224508,"type":"town"},{"id":"286990172","name":"Gyomaendrőd","lat":46.9358032,"lon":20.8260916,"type":"town"},{"id":"286990297","name":"Csorvás","lat":46.6304122,"lon":20.8336244,"type":"town"},{"id":"286991019","name":"Tótkomlós","lat":46.4115096,"lon":20.7366044,"type":"town"},{"id":"286991190","name":"Mezőhegyes","lat":46.3139611,"lon":20.8194076,"type":"town"},{"id":"286991898","name":"Mezőkovácsháza","lat":46.4073383,"lon":20.9236006,"type":"town"},{"id":"286992562","name":"Sarkad","lat":46.7422871,"lon":21.3836478,"type":"town"},{"id":"286992616","name":"Körösladány","lat":46.9618183,"lon":21.0774039,"type":"town"},{"id":"286994012","name":"Vésztő","lat":46.9241978,"lon":21.2598799,"type":"town"},{"id":"286994582","name":"Battonya","lat":46.2858683,"lon":21.0218929,"type":"town"},{"id":"286994834","name":"Békés","lat":46.7717431,"lon":21.1325877,"type":"town"},{"id":"286995352","name":"Dévaványa","lat":47.0313464,"lon":20.9620971,"type":"town"},{"id":"286995507","name":"Elek","lat":46.5294265,"lon":21.2526107,"type":"town"},{"id":"286995620","name":"Kétegyháza","lat":46.5455442,"lon":21.1856277,"type":"village"},{"id":"286995833","name":"Füzesgyarmat","lat":47.1076826,"lon":21.2118478,"type":"town"},{"id":"286996950","name":"Szentlőrinc","lat":46.0415605,"lon":17.988914,"type":"town"},{"id":"286997942","name":"Sellye","lat":45.8735444,"lon":17.8514053,"type":"town"},{"id":"286998160","name":"Pécsvárad","lat":46.1608411,"lon":18.4206938,"type":"town"},{"id":"286999714","name":"Hetényegyháza","lat":46.9274969,"lon":19.5834956,"type":"village"},{"id":"286999754","name":"Kerekegyháza","lat":46.9358768,"lon":19.4825067,"type":"town"},{"id":"287000079","name":"Szabadszállás","lat":46.8752316,"lon":19.2225016,"type":"town"},{"id":"287000140","name":"Izsák","lat":46.800917,"lon":19.3595369,"type":"town"},{"id":"287000830","name":"Akasztó","lat":46.6909821,"lon":19.2063536,"type":"village"},{"id":"287001052","name":"Kiskőrös","lat":46.6205706,"lon":19.2843551,"type":"town"},{"id":"287001106","name":"Soltvadkert","lat":46.5820205,"lon":19.3942728,"type":"town"},{"id":"287001490","name":"Császártöltés","lat":46.4229794,"lon":19.1784944,"type":"village"},{"id":"287001534","name":"Hajós","lat":46.3982959,"lon":19.1172178,"type":"town"},{"id":"287001980","name":"Baja","lat":46.1785471,"lon":18.9517255,"type":"town"},{"id":"287002901","name":"Felsőszentiván","lat":46.1947597,"lon":19.1881586,"type":"village"},{"id":"287003191","name":"Tataháza","lat":46.1753439,"lon":19.3012323,"type":"village"},{"id":"287003234","name":"Bácsalmás","lat":46.1274127,"lon":19.3319128,"type":"town"},{"id":"287003778","name":"Jánoshalma","lat":46.2972264,"lon":19.3235909,"type":"town"},{"id":"287004164","name":"Kiskunhalas","lat":46.4304454,"lon":19.4812571,"type":"town"},{"id":"287005373","name":"Kiskunmajsa","lat":46.4906228,"lon":19.7393121,"type":"town"},{"id":"287005902","name":"Kiskunfélegyháza","lat":46.7114381,"lon":19.8501648,"type":"town"},{"id":"287007417","name":"Lajosmizse","lat":47.0264714,"lon":19.5582644,"type":"town"},{"id":"287008275","name":"Lakitelek","lat":46.8736335,"lon":20.0003712,"type":"village"},{"id":"287008438","name":"Tiszakécske","lat":46.9315289,"lon":20.1045358,"type":"town"},{"id":"287009799","name":"Tompa","lat":46.2049292,"lon":19.5374011,"type":"town"},{"id":"287650736","name":"Kajdacs","lat":46.5640794,"lon":18.6185731,"type":"village"},{"id":"287940104","name":"Medina","lat":46.4738585,"lon":18.6433566,"type":"village"},{"id":"288068899","name":"Dunaegyháza","lat":46.8399215,"lon":18.9564556,"type":"village"},{"id":"288190862","name":"Nyárlőrinc","lat":46.8605244,"lon":19.8740931,"type":"village"},{"id":"288193043","name":"Tiszakürt","lat":46.8849074,"lon":20.1235659,"type":"village"},{"id":"288198642","name":"Tiszaug","lat":46.8516867,"lon":20.0579352,"type":"village"},{"id":"288204657","name":"Tiszainoka","lat":46.9060986,"lon":20.1522487,"type":"village"},{"id":"288204962","name":"Cibakháza","lat":46.9590236,"lon":20.2062362,"type":"village"},{"id":"288380549","name":"Sükösd","lat":46.2864294,"lon":18.9958175,"type":"village"},{"id":"288385458","name":"Fajsz","lat":46.4161452,"lon":18.9219733,"type":"village"},{"id":"288447636","name":"Homokmégy","lat":46.4879879,"lon":19.0737359,"type":"village"},{"id":"288447714","name":"Miske","lat":46.4423649,"lon":19.0320713,"type":"village"},{"id":"288448034","name":"Drágszél","lat":46.4671644,"lon":19.0386763,"type":"village"},{"id":"288448413","name":"Újtelek","lat":46.5890819,"lon":19.058292,"type":"village"},{"id":"288666350","name":"Szakmár","lat":46.5553977,"lon":19.075931,"type":"village"},{"id":"288692162","name":"Ordas","lat":46.6361256,"lon":18.9493231,"type":"village"},{"id":"288695145","name":"Géderlak","lat":46.6085156,"lon":18.9140472,"type":"village"},{"id":"288709475","name":"Uszód","lat":46.5697854,"lon":18.9053538,"type":"village"},{"id":"288714768","name":"Foktő","lat":46.5290133,"lon":18.9192935,"type":"village"},{"id":"288715142","name":"Dunaszentbenedek","lat":46.5938701,"lon":18.894405,"type":"village"},{"id":"289121413","name":"Soltszentimre","lat":46.7710797,"lon":19.2869057,"type":"village"},{"id":"289121863","name":"Kaskantyú","lat":46.6714618,"lon":19.3869842,"type":"village"},{"id":"289122198","name":"Csengőd","lat":46.7160913,"lon":19.2675736,"type":"village"},{"id":"289122294","name":"Tabdi","lat":46.6846564,"lon":19.3077169,"type":"village"},{"id":"289402301","name":"Fülöpszállás","lat":46.8201426,"lon":19.2395564,"type":"village"},{"id":"289404009","name":"Páhi","lat":46.7131018,"lon":19.386505,"type":"village"},{"id":"289638278","name":"Mikebuda","lat":47.1568933,"lon":19.6152108,"type":"village"},{"id":"289696546","name":"Őcsény","lat":46.3118597,"lon":18.7589115,"type":"village"},{"id":"289696576","name":"Decs","lat":46.2843291,"lon":18.7600689,"type":"village"},{"id":"289696619","name":"Sárpilis","lat":46.2470572,"lon":18.7371932,"type":"village"},{"id":"290192167","name":"Várdomb","lat":46.2485727,"lon":18.6848572,"type":"village"},{"id":"290611078","name":"Csávoly","lat":46.194385,"lon":19.1441018,"type":"village"},{"id":"290611295","name":"Mélykút","lat":46.2151957,"lon":19.3792097,"type":"town"},{"id":"290611413","name":"Kisszállás","lat":46.2806553,"lon":19.4912631,"type":"village"},{"id":"290650042","name":"Kehidakustány","lat":46.8429994,"lon":17.0943015,"type":"village"},{"id":"290650412","name":"Felsőpáhok","lat":46.7844916,"lon":17.1559057,"type":"village"},{"id":"290879131","name":"Fallóskút","lat":47.9073176,"lon":19.8461892,"type":"village"},{"id":"291986261","name":"Röszke","lat":46.1872427,"lon":20.0354983,"type":"village"},{"id":"292825415","name":"Kelebia","lat":46.1971101,"lon":19.6071741,"type":"village"},{"id":"293447383","name":"Kemenesmagasi","lat":47.3317908,"lon":17.2111415,"type":"village"},{"id":"293447462","name":"Vönöck","lat":47.3132864,"lon":17.1605701,"type":"village"},{"id":"293447545","name":"Kemenesszentmárton","lat":47.2935545,"lon":17.1634,"type":"village"},{"id":"293447823","name":"Tokorcs","lat":47.2697913,"lon":17.0997957,"type":"village"},{"id":"293447824","name":"Nagysimonyi","lat":47.2631656,"lon":17.065648,"type":"village"},{"id":"293447887","name":"Sitke","lat":47.242815,"lon":17.0242831,"type":"village"},{"id":"295494997","name":"Pirtó","lat":46.5147399,"lon":19.4319578,"type":"village"},{"id":"296136934","name":"Lókút","lat":47.2057972,"lon":17.8689921,"type":"village"},{"id":"296137258","name":"Hárskút","lat":47.1848578,"lon":17.8084345,"type":"village"},{"id":"296137322","name":"Eplény","lat":47.2078019,"lon":17.9163865,"type":"village"},{"id":"296137361","name":"Márkó","lat":47.1211315,"lon":17.8144133,"type":"village"},{"id":"296137465","name":"Balatonfüred","lat":46.9567254,"lon":17.888892,"type":"town"},{"id":"296137495","name":"Pénzesgyőr","lat":47.23044,"lon":17.7871161,"type":"village"},{"id":"296137600","name":"Bakonybél","lat":47.2551092,"lon":17.7280196,"type":"village"},{"id":"296137782","name":"Nagygyimót","lat":47.3392131,"lon":17.5498464,"type":"village"},{"id":"296137785","name":"Béb","lat":47.3440341,"lon":17.6006698,"type":"village"},{"id":"296137797","name":"Bakonykoppány","lat":47.3304801,"lon":17.6866492,"type":"village"},{"id":"298021960","name":"Csabrendek","lat":47.0131804,"lon":17.2895632,"type":"village"},{"id":"298024096","name":"Nyirád","lat":47.0056272,"lon":17.4545943,"type":"village"},{"id":"298024116","name":"Halimba","lat":47.0332649,"lon":17.5356155,"type":"village"},{"id":"301895280","name":"Mike","lat":46.2425273,"lon":17.5295309,"type":"village"},{"id":"303079703","name":"Szigetszentmárton","lat":47.2286092,"lon":18.9576052,"type":"village"},{"id":"305051680","name":"Tóalmás","lat":47.5095624,"lon":19.6637179,"type":"village"},{"id":"305194766","name":"Érsekhalma","lat":46.3480077,"lon":19.1236841,"type":"village"},{"id":"305194961","name":"Nemesnádudvar","lat":46.3392074,"lon":19.0521601,"type":"village"},{"id":"305338185","name":"Karakószörcsök","lat":47.132108,"lon":17.2864719,"type":"village"},{"id":"305338256","name":"Kerta","lat":47.1622477,"lon":17.2744856,"type":"village"},{"id":"305338305","name":"Iszkáz","lat":47.164097,"lon":17.2979732,"type":"village"},{"id":"305338487","name":"Tüskevár","lat":47.1184427,"lon":17.3129078,"type":"village"},{"id":"305338785","name":"Apácatorna","lat":47.1119007,"lon":17.2953983,"type":"village"},{"id":"305339171","name":"Veszprémgalsa","lat":47.0928796,"lon":17.2668978,"type":"village"},{"id":"305339295","name":"Szentimrefalva","lat":47.072983,"lon":17.2820087,"type":"village"},{"id":"305340179","name":"Kisberzseny","lat":47.1057473,"lon":17.26598,"type":"village"},{"id":"305341395","name":"Dáka","lat":47.2865155,"lon":17.4278945,"type":"village"},{"id":"305341532","name":"Vid","lat":47.2130555,"lon":17.3371544,"type":"village"},{"id":"305341616","name":"Nagyalásony","lat":47.2297851,"lon":17.3581286,"type":"village"},{"id":"305341906","name":"Somlószőlős","lat":47.1748363,"lon":17.3555881,"type":"village"},{"id":"305918882","name":"Kup","lat":47.2483716,"lon":17.4645595,"type":"village"},{"id":"305919294","name":"Pápakovácsi","lat":47.2642833,"lon":17.4847176,"type":"village"},{"id":"305919393","name":"Nóráp","lat":47.2737541,"lon":17.4571696,"type":"village"},{"id":"305919422","name":"Bakonypölöske","lat":47.2106927,"lon":17.4880394,"type":"village"},{"id":"305919492","name":"Noszlop","lat":47.1792992,"lon":17.4582183,"type":"village"},{"id":"305928166","name":"Nemeshany","lat":47.0695043,"lon":17.364085,"type":"village"},{"id":"305928236","name":"Káptalanfa","lat":47.0658851,"lon":17.3441292,"type":"village"},{"id":"305928326","name":"Gyepükaján","lat":47.0442283,"lon":17.3265641,"type":"village"},{"id":"305928657","name":"Sümegprága","lat":46.9411152,"lon":17.2774176,"type":"village"},{"id":"305928673","name":"Bazsi","lat":46.9315485,"lon":17.2475113,"type":"village"},{"id":"305928998","name":"Zalaszántó","lat":46.8877805,"lon":17.2258253,"type":"village"},