[{"id":"31078662","name":"Rosslare Harbour","lat":52.2497333,"lon":-6.3401152,"type":"village"},{"id":"31086076","name":"Carrick-on-Shannon","lat":53.9441461,"lon":-8.0952772,"type":"town"},{"id":"31241248","name":"Ballyleague","lat":53.6753208,"lon":-7.9954124,"type":"village"},{"id":"32854991","name":"Ballinahown","lat":53.3504097,"lon":-7.8490283,"type":"village"},{"id":"33583163","name":"Horseleap","lat":53.3926367,"lon":-7.5814989,"type":"village"},{"id":"36681797","name":"Kilruane","lat":52.8945265,"lon":-8.1368806,"type":"village"},{"id":"51995744","name":"Ballyogan","lat":53.2582951,"lon":-6.1971705,"type":"village"},{"id":"52218198","name":"Ballinrobe","lat":53.6240883,"lon":-9.2220833,"type":"town"},{"id":"52218265","name":"Fenit","lat":52.2766382,"lon":-9.8644109,"type":"village"},{"id":"52218266","name":"Bellewstown","lat":53.6454553,"lon":-6.3486621,"type":"village"},{"id":"52218272","name":"Rathangan","lat":53.2203302,"lon":-6.9929735,"type":"village"},{"id":"52218286","name":"An Clochán Liath","lat":54.9506706,"lon":-8.3597405,"type":"town"},{"id":"52218287","name":"Emyvale","lat":54.3407498,"lon":-6.9593554,"type":"village"},{"id":"52218295","name":"Bangor Erris","lat":54.1444001,"lon":-9.7427281,"type":"village"},{"id":"52218298","name":"Murrisk","lat":53.7790044,"lon":-9.6354075,"type":"village"},{"id":"52218307","name":"An Baile Thiar","lat":55.2649716,"lon":-8.2272976,"type":"village"},{"id":"52218309","name":"Arklow","lat":52.798221,"lon":-6.1540035,"type":"town"},{"id":"52218310","name":"Crinkill","lat":53.0778755,"lon":-7.8987379,"type":"village"},{"id":"52218312","name":"Béal an Mhuirthead","lat":54.22411,"lon":-9.9872173,"type":"town"},{"id":"52218368","name":"Midleton","lat":51.9142741,"lon":-8.1700962,"type":"town"},{"id":"52218982","name":"Ardagh","lat":52.494444,"lon":-9.0630561,"type":"village"},{"id":"52218985","name":"Ballyhooly","lat":52.1441412,"lon":-8.3978625,"type":"village"},{"id":"52218993","name":"Ferns","lat":52.5897916,"lon":-6.4952889,"type":"town"},{"id":"52218998","name":"Dromineer","lat":52.9243713,"lon":-8.2765168,"type":"village"},{"id":"52219001","name":"Brittas","lat":53.2360108,"lon":-6.4541965,"type":"village"},{"id":"52219003","name":"Clane","lat":53.2911753,"lon":-6.6861147,"type":"town"},{"id":"52219009","name":"Shannon","lat":52.7104544,"lon":-8.8788366,"type":"town"},{"id":"52219010","name":"Stradbally","lat":53.0160548,"lon":-7.1499661,"type":"town"},{"id":"52219012","name":"Killorglin","lat":52.1061973,"lon":-9.7867881,"type":"town"},{"id":"52219016","name":"Clonkeen","lat":51.9883463,"lon":-9.2967956,"type":"village"},{"id":"52219071","name":"Eanach Dhúin","lat":53.3866665,"lon":-9.068852,"type":"village"},{"id":"52219148","name":"Milford","lat":52.3408811,"lon":-8.8560775,"type":"village"},{"id":"52219154","name":"Ballinagleragh","lat":54.1564692,"lon":-8.0057339,"type":"village"},{"id":"52219159","name":"Swanlinbar","lat":54.194722,"lon":-7.704444,"type":"village"},{"id":"52219183","name":"Casla","lat":53.2885187,"lon":-9.5529889,"type":"village"},{"id":"52219218","name":"Abbeyfeale","lat":52.3847629,"lon":-9.301549,"type":"town"},{"id":"52219229","name":"Bridgend","lat":55.0413841,"lon":-7.3791898,"type":"village"},{"id":"52219240","name":"Ros Dumhach","lat":54.281667,"lon":-9.799722,"type":"village"},{"id":"52219263","name":"Ballinspittle","lat":51.666677,"lon":-8.5955782,"type":"village"},{"id":"52219278","name":"Bunclody","lat":52.6551145,"lon":-6.6520502,"type":"town"},{"id":"52219282","name":"Laytown","lat":53.681944,"lon":-6.239167,"type":"village"},{"id":"52219287","name":"Carrigkerry","lat":52.4942655,"lon":-9.1476629,"type":"village"},{"id":"52219309","name":"Glenville","lat":52.043889,"lon":-8.424722,"type":"village"},{"id":"52219361","name":"Ailt an Chorráin","lat":54.9811945,"lon":-8.4225429,"type":"village"},{"id":"52219385","name":"Ballybofey","lat":54.7990639,"lon":-7.7819496,"type":"town"},{"id":"52219400","name":"Tydavnet","lat":54.2969425,"lon":-7.0151348,"type":"village"},{"id":"52219423","name":"Ballinamore","lat":54.0526883,"lon":-7.8003268,"type":"town"},{"id":"52219431","name":"Kilmeague","lat":53.2507957,"lon":-6.8395794,"type":"village"},{"id":"52219455","name":"Letterkenny","lat":54.9517941,"lon":-7.7354368,"type":"town"},{"id":"52219475","name":"Ballylongford","lat":52.5459637,"lon":-9.4750396,"type":"village"},{"id":"52219502","name":"Bailieborough","lat":53.9168576,"lon":-6.9707125,"type":"town"},{"id":"52219541","name":"Burnfoot","lat":55.0583559,"lon":-7.4051055,"type":"village"},{"id":"52219546","name":"Milltownpass","lat":53.4420544,"lon":-7.2441662,"type":"village"},{"id":"52219602","name":"Errill","lat":52.8599041,"lon":-7.6779118,"type":"village"},{"id":"52219643","name":"Buttevant","lat":52.23317,"lon":-8.6704936,"type":"town"},{"id":"52219670","name":"Carracastle","lat":53.950278,"lon":-8.6925,"type":"village"},{"id":"52219711","name":"Dromod","lat":53.8573843,"lon":-7.9206135,"type":"village"},{"id":"52219743","name":"Oldcastle","lat":53.7692495,"lon":-7.1625368,"type":"town"},{"id":"52219770","name":"Garryvoe","lat":51.8600728,"lon":-8.0027265,"type":"village"},{"id":"52219782","name":"Broadford","lat":52.805536,"lon":-8.6338474,"type":"village"},{"id":"52219787","name":"Killurin","lat":52.3837871,"lon":-6.5785299,"type":"village"},{"id":"52219822","name":"Gort","lat":53.0669917,"lon":-8.8195236,"type":"town"},{"id":"52219854","name":"Clonegal","lat":52.695444,"lon":-6.6483943,"type":"village"},{"id":"52219858","name":"Ballinameen","lat":53.897051,"lon":-8.3022343,"type":"village"},{"id":"52219866","name":"Arles","lat":52.8923041,"lon":-7.0195019,"type":"village"},{"id":"52219922","name":"Scotshouse","lat":54.1225169,"lon":-7.2486101,"type":"village"},{"id":"52219956","name":"Ballinagar","lat":53.2660341,"lon":-7.3379011,"type":"village"},{"id":"52220010","name":"Ardrahan","lat":53.15675,"lon":-8.8059911,"type":"village"},{"id":"52220015","name":"Abbeyleix","lat":52.9144763,"lon":-7.3482153,"type":"town"},{"id":"52220019","name":"Hugginstown","lat":52.4516236,"lon":-7.2516823,"type":"village"},{"id":"52220076","name":"Pettigo","lat":54.5494414,"lon":-7.8321522,"type":"village"},{"id":"52220113","name":"Williamstown","lat":53.6779163,"lon":-8.5786917,"type":"village"},{"id":"52220160","name":"Ballyroan","lat":52.9480957,"lon":-7.3051573,"type":"village"},{"id":"52220222","name":"Glaslough","lat":54.3172593,"lon":-6.8950858,"type":"village"},{"id":"52220248","name":"Strandhill","lat":54.2699517,"lon":-8.5942985,"type":"village"},{"id":"52220308","name":"Ballymahon","lat":53.5617282,"lon":-7.7617266,"type":"town"},{"id":"52220318","name":"Tallanstown","lat":53.9195878,"lon":-6.547758,"type":"village"},{"id":"52220338","name":"Rathvilly","lat":52.8807968,"lon":-6.6944791,"type":"village"},{"id":"52220341","name":"Castlemaine","lat":52.1685671,"lon":-9.7011826,"type":"town"},{"id":"52220383","name":"Glynn","lat":52.3729473,"lon":-6.5832293,"type":"village"},{"id":"52220392","name":"Manulla","lat":53.8367877,"lon":-9.1798204,"type":"village"},{"id":"52220410","name":"Donard","lat":53.0223442,"lon":-6.6130514,"type":"village"},{"id":"52220422","name":"Cooraclare","lat":52.7008367,"lon":-9.4208264,"type":"village"},{"id":"52220440","name":"Crossakeel","lat":53.7142143,"lon":-7.0218205,"type":"village"},{"id":"52220478","name":"Doonbeg","lat":52.7309073,"lon":-9.5297119,"type":"village"},{"id":"52220516","name":"Scartaglen","lat":52.1804121,"lon":-9.4070006,"type":"village"},{"id":"52220544","name":"Ballaghaderreen","lat":53.9013669,"lon":-8.5788648,"type":"town"},{"id":"52220548","name":"Leitrim","lat":53.9905176,"lon":-8.065392,"type":"village"},{"id":"52220588","name":"Ballinamuck","lat":53.866667,"lon":-7.716667,"type":"village"},{"id":"52220609","name":"Mullingar","lat":53.525822,"lon":-7.341304,"type":"town"},{"id":"52220623","name":"Stamullen","lat":53.6285486,"lon":-6.2622712,"type":"village"},{"id":"52220675","name":"Duncannon","lat":52.2211436,"lon":-6.9335442,"type":"village"},{"id":"52220684","name":"Bawnboy","lat":54.1209979,"lon":-7.6757968,"type":"village"},{"id":"52220692","name":"Bruff","lat":52.4755288,"lon":-8.5474944,"type":"village"},{"id":"52220712","name":"Mullagh","lat":52.8004132,"lon":-9.4148971,"type":"village"},{"id":"52220746","name":"Inchigeelagh","lat":51.8420889,"lon":-9.1269796,"type":"village"},{"id":"52220786","name":"Timahoe","lat":52.9611523,"lon":-7.2017883,"type":"village"},{"id":"52220794","name":"Kilberry","lat":53.0449153,"lon":-7.0197487,"type":"village"},{"id":"52220806","name":"Duncormick","lat":52.2295313,"lon":-6.6531555,"type":"village"},{"id":"52221948","name":"Newport","lat":52.710714,"lon":-8.4061436,"type":"village"},{"id":"52221968","name":"Tullaroan","lat":52.6621702,"lon":-7.4382848,"type":"village"},{"id":"52222025","name":"Twomileborris","lat":52.671667,"lon":-7.72,"type":"village"},{"id":"52222140","name":"Ballydehob","lat":51.5621926,"lon":-9.4607391,"type":"village"},{"id":"52222395","name":"Baltinglass","lat":52.9401946,"lon":-6.7083978,"type":"town"},{"id":"52222488","name":"Clogher","lat":53.7599917,"lon":-9.2258163,"type":"village"},{"id":"52222544","name":"Carnaross","lat":53.7513547,"lon":-6.9564381,"type":"village"},{"id":"52222554","name":"Virginia","lat":53.8350708,"lon":-7.0831588,"type":"town"},{"id":"52222565","name":"Bréanainn","lat":52.2673916,"lon":-10.1621784,"type":"village"},{"id":"52222566","name":"Waterville","lat":51.8271274,"lon":-10.1718452,"type":"village"},{"id":"52222584","name":"Glounthaune","lat":51.9116039,"lon":-8.3359594,"type":"village"},{"id":"52222587","name":"Tullamore","lat":53.2743768,"lon":-7.4927486,"type":"town"},{"id":"52222655","name":"Drumsna","lat":53.9270301,"lon":-8.0077686,"type":"village"},{"id":"52222675","name":"Durrow","lat":52.8456582,"lon":-7.3957085,"type":"town"},{"id":"52222677","name":"Cleggan","lat":53.5564592,"lon":-10.11069,"type":"village"},{"id":"52222720","name":"Kildorrery","lat":52.246173,"lon":-8.4271099,"type":"village"},{"id":"52222745","name":"Lisgoold","lat":51.9735796,"lon":-8.2176018,"type":"village"},{"id":"52222760","name":"Cliffoney","lat":54.4302562,"lon":-8.4538229,"type":"village"},{"id":"52222795","name":"Courtmacsherry","lat":51.6333396,"lon":-8.7000873,"type":"village"},{"id":"52222837","name":"Easky","lat":54.2853714,"lon":-8.9599351,"type":"village"},{"id":"52222840","name":"Ballyheigue","lat":52.3892873,"lon":-9.8352402,"type":"village"},{"id":"52222845","name":"Killeagh","lat":51.9414959,"lon":-7.9936609,"type":"village"},{"id":"52222876","name":"Crosskeys","lat":53.9190466,"lon":-7.2651761,"type":"village"},{"id":"52223090","name":"Mountrath","lat":53.0012446,"lon":-7.4742852,"type":"town"},{"id":"52223125","name":"Castledermot","lat":52.9119491,"lon":-6.8368376,"type":"town"},{"id":"52223178","name":"Goresbridge","lat":52.6301898,"lon":-6.9934713,"type":"village"},{"id":"52223191","name":"Scramoge","lat":53.7675294,"lon":-8.0503433,"type":"village"},{"id":"52223856","name":"Pallasgreen","lat":52.5679529,"lon":-8.3379697,"type":"village"},{"id":"52223863","name":"Ballyfad","lat":52.7674865,"lon":-6.2687845,"type":"village"},{"id":"52223894","name":"Rathowen","lat":53.6554046,"lon":-7.5197224,"type":"village"},{"id":"52224280","name":"Avoca","lat":52.8572265,"lon":-6.2130259,"type":"village"},{"id":"52226113","name":"Bundoran","lat":54.4788836,"lon":-8.278252,"type":"town"},{"id":"52226120","name":"Keel","lat":53.9733139,"lon":-10.085191,"type":"village"},{"id":"52226138","name":"Ennistymon","lat":52.9401873,"lon":-9.2932061,"type":"town"},{"id":"52226147","name":"Drumshanbo","lat":54.0467406,"lon":-8.0401507,"type":"town"},{"id":"52226168","name":"Lisdoonvarna","lat":53.0294117,"lon":-9.2895114,"type":"town"},{"id":"52226400","name":"Loughglinn","lat":53.8231265,"lon":-8.5638829,"type":"village"},{"id":"52226403","name":"Carrickroe","lat":54.3572349,"lon":-7.0274452,"type":"village"},{"id":"52226443","name":"Ballyhack","lat":52.2452333,"lon":-6.9682764,"type":"village"},{"id":"52226566","name":"Dunlavin","lat":53.0576351,"lon":-6.7015871,"type":"village"},{"id":"52226616","name":"Murrintown","lat":52.2871894,"lon":-6.521939,"type":"village"},{"id":"52226620","name":"Allenwood","lat":53.28391,"lon":-6.8610887,"type":"village"},{"id":"52226660","name":"Goleen","lat":51.4950346,"lon":-9.7112645,"type":"village"},{"id":"52226676","name":"Conna","lat":52.0925044,"lon":-8.1099774,"type":"village"},{"id":"52226705","name":"Kells","lat":53.7271798,"lon":-6.8767883,"type":"town"},{"id":"52226716","name":"Coill Dubh","lat":53.2932362,"lon":-6.8160187,"type":"village"},{"id":"52226776","name":"Grange Con","lat":52.9972622,"lon":-6.7436951,"type":"village"},{"id":"52227101","name":"Ballina","lat":54.1143359,"lon":-9.1532099,"type":"town"},{"id":"52227107","name":"Drommahane","lat":52.1052051,"lon":-8.6907718,"type":"village"},{"id":"52227277","name":"Rylane Cross","lat":51.9840752,"lon":-8.8410749,"type":"village"},{"id":"52229918","name":"Donegal","lat":54.6537924,"lon":-8.1102616,"type":"town"},{"id":"52229923","name":"Horse and Jockey","lat":52.616389,"lon":-7.775278,"type":"village"},{"id":"52229961","name":"Hollyford","lat":52.6326722,"lon":-8.1120165,"type":"village"},{"id":"52229964","name":"Aglish","lat":52.0706535,"lon":-7.8219084,"type":"village"},{"id":"52229985","name":"Monasterevin","lat":53.1426514,"lon":-7.0634579,"type":"town"},{"id":"52229988","name":"Barraduff","lat":52.0600275,"lon":-9.336189,"type":"village"},{"id":"52230456","name":"Windgap","lat":52.4617936,"lon":-7.3972298,"type":"village"},{"id":"52230484","name":"Ballingarry","lat":52.5865294,"lon":-7.5418999,"type":"village"},{"id":"52230513","name":"Ballyhean","lat":53.7935147,"lon":-9.3153008,"type":"village"},{"id":"52230545","name":"New Inn","lat":52.4407127,"lon":-7.8823796,"type":"village"},{"id":"52230629","name":"Walterstown","lat":53.611343,"lon":-6.5540602,"type":"village"},{"id":"52230654","name":"Na Forbacha","lat":53.2488923,"lon":-9.2079295,"type":"village"},{"id":"52230659","name":"An Fál Carrach","lat":55.1363986,"lon":-8.104027,"type":"town"},{"id":"52230666","name":"Knockainey","lat":52.473293,"lon":-8.4701294,"type":"village"},{"id":"52230942","name":"Mountcollins","lat":52.316667,"lon":-9.233333,"type":"village"},{"id":"52230970","name":"Carriganimmy","lat":51.9781426,"lon":-9.0359938,"type":"village"},{"id":"52231006","name":"Hollyfort","lat":52.7160701,"lon":-6.3475984,"type":"village"},{"id":"52231015","name":"Freemount","lat":52.276791,"lon":-8.8853683,"type":"village"},{"id":"52231061","name":"Skerries","lat":53.5806379,"lon":-6.1066867,"type":"town"},{"id":"52231065","name":"Ardcrony","lat":52.9350937,"lon":-8.1569908,"type":"village"},{"id":"52231074","name":"Ballygarrett","lat":52.5731982,"lon":-6.2299249,"type":"village"},{"id":"52231089","name":"Glenbrien","lat":52.4609689,"lon":-6.5014615,"type":"village"},{"id":"52231094","name":"Templemore","lat":52.794722,"lon":-7.833889,"type":"town"},{"id":"52231221","name":"Ballymurn","lat":52.4407733,"lon":-6.4762013,"type":"village"},{"id":"52231249","name":"Castlebar","lat":53.8568418,"lon":-9.297967,"type":"town"},{"id":"52231258","name":"Dumha Thuama","lat":54.071944,"lon":-9.940556,"type":"village"},{"id":"52231291","name":"Knock","lat":53.7947992,"lon":-8.9193547,"type":"town"},{"id":"52231327","name":"Baile na nGall","lat":52.1905735,"lon":-10.3747897,"type":"village"},{"id":"52231332","name":"Adare","lat":52.5636631,"lon":-8.7923958,"type":"village"},{"id":"52231353","name":"Granard","lat":53.779362,"lon":-7.4910079,"type":"town"},{"id":"52231383","name":"Maynooth","lat":53.3830239,"lon":-6.5922806,"type":"town"},{"id":"52231395","name":"Old Pallas","lat":52.5483893,"lon":-8.3541631,"type":"village"},{"id":"52231399","name":"Tobercurry","lat":54.0539302,"lon":-8.730565,"type":"town"},{"id":"52231450","name":"Mullinahone","lat":52.5122965,"lon":-7.5056022,"type":"village"},{"id":"52231458","name":"Cross","lat":53.5413149,"lon":-9.2156617,"type":"village"},{"id":"52231582","name":"Ballyboughal","lat":53.5205236,"lon":-6.2674973,"type":"village"},{"id":"52231619","name":"Ballyragget","lat":52.7887862,"lon":-7.3343201,"type":"village"},{"id":"52231621","name":"Crookstown","lat":51.8413698,"lon":-8.8310263,"type":"village"},{"id":"52231630","name":"Raphoe","lat":54.8735295,"lon":-7.599543,"type":"town"},{"id":"52231650","name":"Bansha","lat":52.4478055,"lon":-8.0639384,"type":"village"},{"id":"52231658","name":"Ballyvary","lat":53.8952489,"lon":-9.15033,"type":"village"},{"id":"52231678","name":"Cootehall","lat":53.9849175,"lon":-8.1588994,"type":"village"},{"id":"52231719","name":"Oulart","lat":52.5034251,"lon":-6.3916482,"type":"village"},{"id":"52231722","name":"Termonfeckin","lat":53.7615172,"lon":-6.271401,"type":"village"},{"id":"52231793","name":"Ballybunion","lat":52.5111587,"lon":-9.6701424,"type":"town"},{"id":"52231847","name":"Sallins","lat":53.249033,"lon":-6.665686,"type":"town"},{"id":"52231938","name":"Borris","lat":52.5987984,"lon":-6.9202139,"type":"village"},{"id":"52233753","name":"Cloghan","lat":53.2248823,"lon":-7.8825828,"type":"town"},{"id":"52233789","name":"Fedamore","lat":52.5453986,"lon":-8.6026924,"type":"village"},{"id":"52233791","name":"Kilbride","lat":53.4550427,"lon":-6.3952809,"type":"village"},{"id":"52233802","name":"Belturbet","lat":54.1007391,"lon":-7.4440418,"type":"town"},{"id":"52233812","name":"Birdhill","lat":52.767251,"lon":-8.4377757,"type":"village"},{"id":"52233856","name":"Tulsk","lat":53.7776262,"lon":-8.2514448,"type":"village"},{"id":"52233896","name":"Cloontuskert","lat":53.6992213,"lon":-8.0116494,"type":"village"},{"id":"52234004","name":"Graiguenamanagh","lat":52.5406101,"lon":-6.9553993,"type":"town"},{"id":"52234009","name":"Cill Chiaráin","lat":53.325833,"lon":-9.735278,"type":"village"},{"id":"52234103","name":"Annayalla","lat":54.1604232,"lon":-6.7904527,"type":"village"},{"id":"52234483","name":"Whitechurch","lat":52.3207325,"lon":-6.9614221,"type":"village"},{"id":"52234558","name":"Laragh","lat":53.0083959,"lon":-6.2976441,"type":"village"},{"id":"52234606","name":"Killeigh","lat":53.2136157,"lon":-7.4496184,"type":"village"},{"id":"52234625","name":"Maigh Cuilinn","lat":53.3377067,"lon":-9.1790603,"type":"town"},{"id":"52234652","name":"Slane","lat":53.7085594,"lon":-6.5431923,"type":"village"},{"id":"52234672","name":"Ahascragh","lat":53.3973146,"lon":-8.332594,"type":"village"},{"id":"52235063","name":"Newbawn","lat":52.3428999,"lon":-6.7905431,"type":"village"},{"id":"52235084","name":"Rathgormack","lat":52.305461,"lon":-7.4986519,"type":"village"},{"id":"52238772","name":"Irishtown","lat":53.6626542,"lon":-8.8880037,"type":"village"},{"id":"52238795","name":"Schull","lat":51.5271026,"lon":-9.5469428,"type":"village"},{"id":"52238807","name":"Monamolin","lat":52.5563021,"lon":-6.3485775,"type":"village"},{"id":"52239770","name":"Curragha","lat":53.5404625,"lon":-6.4418666,"type":"village"},{"id":"52239773","name":"Laghy","lat":54.6156354,"lon":-8.0884261,"type":"village"},{"id":"52239820","name":"Glenbrook","lat":51.8612519,"lon":-8.3345983,"type":"village"},{"id":"52239845","name":"Ballinaboola","lat":52.3692234,"lon":-6.8375031,"type":"village"},{"id":"52239902","name":"Kilrane","lat":52.2420146,"lon":-6.355294,"type":"village"},{"id":"52239919","name":"Geashill","lat":53.2353767,"lon":-7.3221015,"type":"village"},{"id":"52239937","name":"Liscannor","lat":52.9385765,"lon":-9.3914645,"type":"village"},{"id":"52239947","name":"Woodenbridge","lat":52.8316787,"lon":-6.2345771,"type":"village"},{"id":"52239957","name":"Bunnanaddan","lat":54.0521319,"lon":-8.6054085,"type":"village"},{"id":"52239969","name":"Tully Cross","lat":53.588386,"lon":-9.9631706,"type":"village"},{"id":"52240071","name":"Knockbridge","lat":53.9713873,"lon":-6.4869129,"type":"village"},{"id":"52240123","name":"Bunmahon","lat":52.1398615,"lon":-7.3708525,"type":"village"},{"id":"52240129","name":"Edenderry","lat":53.3433656,"lon":-7.0488576,"type":"town"},{"id":"52240137","name":"Gort a' Choirce","lat":55.119517,"lon":-8.1344091,"type":"village"},{"id":"52240173","name":"Mungret","lat":52.6358249,"lon":-8.6923876,"type":"village"},{"id":"52240197","name":"Monaghan","lat":54.2485576,"lon":-6.9688855,"type":"town"},{"id":"52240205","name":"Kilmihil","lat":52.7213091,"lon":-9.3200969,"type":"village"},{"id":"52240259","name":"Dunboyne","lat":53.4194359,"lon":-6.4760189,"type":"town"},{"id":"52240290","name":"Tower","lat":51.9251322,"lon":-8.6079225,"type":"village"},{"id":"52240293","name":"Carbury","lat":53.3558412,"lon":-6.9627118,"type":"village"},{"id":"52240400","name":"Bettystown","lat":53.6982898,"lon":-6.2444156,"type":"village"},{"id":"52240458","name":"Coon","lat":52.7869949,"lon":-7.1186003,"type":"village"},{"id":"52240470","name":"Cappawhite","lat":52.5816765,"lon":-8.1661357,"type":"village"},{"id":"52240478","name":"Cashel","lat":52.5167478,"lon":-7.8879311,"type":"town"},{"id":"52240498","name":"Ballylynan","lat":52.943611,"lon":-7.042222,"type":"village"},{"id":"52240501","name":"Scotstown","lat":54.2775945,"lon":-7.067498,"type":"village"},{"id":"52240518","name":"Clones","lat":54.1792105,"lon":-7.2320729,"type":"town"},{"id":"52240529","name":"Pollagh","lat":53.9726103,"lon":-10.1077656,"type":"village"},{"id":"52240543","name":"Doohamlet","lat":54.1287916,"lon":-6.8240494,"type":"village"},{"id":"52240633","name":"Crosshaven","lat":51.8023829,"lon":-8.2953269,"type":"village"},{"id":"52240662","name":"Quin","lat":52.8190491,"lon":-8.8670162,"type":"village"},{"id":"52240711","name":"Killygordon","lat":54.7972,"lon":-7.683303,"type":"village"},{"id":"52240714","name":"Moydow","lat":53.6637899,"lon":-7.7883618,"type":"village"},{"id":"52240732","name":"Fanore","lat":53.1164816,"lon":-9.2840825,"type":"village"},{"id":"52240784","name":"Leitir Mhic an Bhaird","lat":54.848056,"lon":-8.316389,"type":"village"},{"id":"52240813","name":"Dromina","lat":52.3137064,"lon":-8.8022158,"type":"village"},{"id":"52240829","name":"Annagassan","lat":53.8825341,"lon":-6.3432698,"type":"village"},{"id":"52240834","name":"Kilskyre","lat":53.6924123,"lon":-6.9969955,"type":"village"},{"id":"52240853","name":"Monaseed","lat":52.7227226,"lon":-6.3953407,"type":"village"},{"id":"52240944","name":"Whitechurch","lat":51.981389,"lon":-8.513889,"type":"village"},{"id":"52240965","name":"Tulla","lat":52.8666937,"lon":-8.7595259,"type":"village"},{"id":"52241011","name":"Kilcummin","lat":52.0986232,"lon":-9.4712021,"type":"village"},{"id":"52241016","name":"Hacketstown","lat":52.8652459,"lon":-6.5593626,"type":"village"},{"id":"52241130","name":"Carlanstown","lat":53.758488,"lon":-6.8413839,"type":"village"},{"id":"52241135","name":"Ballacolla","lat":52.8825907,"lon":-7.4467716,"type":"village"},{"id":"52241163","name":"Crossabeg","lat":52.3840514,"lon":-6.5005844,"type":"village"},{"id":"52241170","name":"Buncrana","lat":55.1353624,"lon":-7.453109,"type":"town"},{"id":"52241186","name":"Baile Mhic Íre","lat":51.9360369,"lon":-9.1456256,"type":"village"},{"id":"52241194","name":"Greenore","lat":54.0326495,"lon":-6.1334035,"type":"village"},{"id":"52241229","name":"Kilchreest","lat":53.1784884,"lon":-8.6527642,"type":"village"},{"id":"52241235","name":"Dingle / Daingean Uí Chúis","lat":52.1407781,"lon":-10.2687161,"type":"town"},{"id":"52241240","name":"Newmarket on Fergus","lat":52.7605895,"lon":-8.8961465,"type":"town"},{"id":"52241243","name":"Ballyglass","lat":53.7402938,"lon":-9.1728984,"type":"village"},{"id":"52241244","name":"Knocktopher","lat":52.486162,"lon":-7.2176975,"type":"village"},{"id":"52241298","name":"Wellingtonbridge","lat":52.2667111,"lon":-6.7500582,"type":"village"},{"id":"52241332","name":"Broadford","lat":52.3463495,"lon":-8.9749829,"type":"village"},{"id":"52241334","name":"Castletownbere","lat":51.6514159,"lon":-9.9104925,"type":"town"},{"id":"52241379","name":"Riverchapel","lat":52.6372385,"lon":-6.2342734,"type":"village"},{"id":"52241391","name":"Rerrin","lat":51.6353046,"lon":-9.8165074,"type":"village"},{"id":"52241410","name":"Holycross","lat":52.6382731,"lon":-7.8670349,"type":"village"},{"id":"52241434","name":"Attanagh","lat":52.8337461,"lon":-7.3470348,"type":"village"},{"id":"52241483","name":"Kildare","lat":53.1568465,"lon":-6.9117199,"type":"town"},{"id":"52241518","name":"Ballinalack","lat":53.6282387,"lon":-7.4695299,"type":"village"},{"id":"52241557","name":"Frenchpark","lat":53.8694829,"lon":-8.407222,"type":"village"},{"id":"52241685","name":"Mountbellew","lat":53.4695021,"lon":-8.5019101,"type":"town"},{"id":"52241765","name":"Fore","lat":53.6805181,"lon":-7.2263083,"type":"village"},{"id":"52241786","name":"Indreabhán","lat":53.246242,"lon":-9.3651492,"type":"village"},{"id":"52241788","name":"Ballymacarbry","lat":52.2676063,"lon":-7.7209844,"type":"village"},{"id":"52241804","name":"Elton","lat":52.4262497,"lon":-8.4578829,"type":"village"},{"id":"52241845","name":"Cill Ghallagáin","lat":54.3113665,"lon":-9.8442992,"type":"village"},{"id":"52241888","name":"Clohamon","lat":52.6368458,"lon":-6.620985,"type":"village"},{"id":"52241895","name":"Dungarvan","lat":52.0897488,"lon":-7.6210306,"type":"town"},{"id":"52241899","name":"Blacklion","lat":54.2915617,"lon":-7.8762017,"type":"village"},{"id":"52241941","name":"Mohill","lat":53.9217979,"lon":-7.8653154,"type":"town"},{"id":"52241944","name":"Tombrack","lat":52.6030514,"lon":-6.5488937,"type":"village"},{"id":"52241956","name":"Roosky","lat":53.832305,"lon":-7.9268047,"type":"village"},{"id":"52241972","name":"An Fhairche","lat":53.5452038,"lon":-9.3652241,"type":"village"},{"id":"52241975","name":"Bray","lat":53.2014604,"lon":-6.1105049,"type":"town"},{"id":"52241990","name":"Duleek","lat":53.656337,"lon":-6.4147493,"type":"village"},{"id":"52242162","name":"Rathcoffey","lat":53.3343227,"lon":-6.6789836,"type":"village"},{"id":"52242186","name":"Castletown","lat":52.9779105,"lon":-7.4942504,"type":"village"},{"id":"52242241","name":"Leixlip","lat":53.3644766,"lon":-6.4897438,"type":"town"},{"id":"52242301","name":"Navan","lat":53.6530941,"lon":-6.6840434,"type":"town"},{"id":"52242316","name":"Fethard","lat":52.467222,"lon":-7.691111,"type":"town"},{"id":"52242332","name":"Attymass","lat":54.0511738,"lon":-9.0829122,"type":"village"},{"id":"52242377","name":"Mountbolus","lat":53.1964828,"lon":-7.6289642,"type":"village"},{"id":"52242400","name":"Myshall","lat":52.685748,"lon":-6.7804072,"type":"village"},{"id":"52242420","name":"Castlecomer","lat":52.8060939,"lon":-7.210579,"type":"town"},{"id":"52242435","name":"Kilcullen","lat":53.1305819,"lon":-6.7456446,"type":"town"},{"id":"52242459","name":"Newcestown","lat":51.7820652,"lon":-8.8695481,"type":"village"},{"id":"52242491","name":"Killea","lat":54.9779914,"lon":-7.4093891,"type":"village"},{"id":"52242496","name":"Oranmore","lat":53.2683526,"lon":-8.9284158,"type":"town"},{"id":"52242508","name":"Rosslare","lat":52.2735675,"lon":-6.3869031,"type":"village"},{"id":"52242530","name":"Kilbeggan","lat":53.3681414,"lon":-7.4979792,"type":"town"},{"id":"52242575","name":"Liscarroll","lat":52.2604585,"lon":-8.8040051,"type":"village"},{"id":"52242585","name":"Calverstown","lat":53.0824929,"lon":-6.7985688,"type":"village"},{"id":"52242592","name":"Ros Muc","lat":53.350278,"lon":-9.615833,"type":"village"},{"id":"52242639","name":"An Caiseal","lat":54.7064907,"lon":-8.728503,"type":"village"},{"id":"52242647","name":"Headford","lat":53.4693403,"lon":-9.1070527,"type":"town"},{"id":"52242661","name":"Riverstick","lat":51.7726282,"lon":-8.4959018,"type":"village"},{"id":"52242666","name":"Convoy","lat":54.8602564,"lon":-7.664132,"type":"village"},{"id":"52242669","name":"Slieverue","lat":52.2852481,"lon":-7.0681903,"type":"village"},{"id":"52242699","name":"Clonakilty","lat":51.6232159,"lon":-8.8914072,"type":"town"},{"id":"52242892","name":"Moylough","lat":53.4880839,"lon":-8.5678014,"type":"village"},{"id":"52242969","name":"Hollywood","lat":53.092046,"lon":-6.597554,"type":"village"},{"id":"52242971","name":"Doon","lat":52.6043925,"lon":-8.2485219,"type":"village"},{"id":"52243007","name":"Clonsilla","lat":53.383333,"lon":-6.416667,"type":"village"},{"id":"52243030","name":"Castleblayney","lat":54.1201142,"lon":-6.7389328,"type":"town"},{"id":"52243045","name":"Kilmaine","lat":53.5800023,"lon":-9.1219306,"type":"village"},{"id":"52243076","name":"New Birmingham","lat":52.6172179,"lon":-7.6398864,"type":"village"},{"id":"52243084","name":"Campile","lat":52.2879607,"lon":-6.9413398,"type":"village"},{"id":"52243108","name":"Kells","lat":52.5396591,"lon":-7.2733725,"type":"village"},{"id":"52243157","name":"Abbeylara","lat":53.7652801,"lon":-7.4490178,"type":"village"},{"id":"52243171","name":"Lackagh","lat":53.370283,"lon":-8.8904238,"type":"village"},{"id":"52243174","name":"Carrigaholt","lat":52.6039992,"lon":-9.7104665,"type":"village"},{"id":"52243225","name":"Fahan","lat":55.088611,"lon":-7.474167,"type":"village"},{"id":"52243302","name":"Stradone","lat":53.982871,"lon":-7.2359584,"type":"village"},{"id":"52243307","name":"Rathmullan","lat":55.093889,"lon":-7.540278,"type":"village"},{"id":"52243316","name":"Carrigans","lat":54.9509259,"lon":-7.4294746,"type":"village"},{"id":"52243407","name":"Vicarstown","lat":53.0514949,"lon":-7.0854211,"type":"village"},{"id":"52243446","name":"The Harrow","lat":52.5642453,"lon":-6.4445063,"type":"village"},{"id":"52243449","name":"Creeslough","lat":55.122438,"lon":-7.9078234,"type":"village"},{"id":"52243455","name":"Balscaddan","lat":53.6180998,"lon":-6.2310327,"type":"village"},{"id":"52243507","name":"Mansfieldstown","lat":53.9058305,"lon":-6.4502183,"type":"village"},{"id":"52243537","name":"Dungourney","lat":51.9683623,"lon":-8.0969278,"type":"village"},{"id":"52243576","name":"Woodford","lat":53.0521806,"lon":-8.399454,"type":"village"},{"id":"52243582","name":"Tomhaggard","lat":52.2155749,"lon":-6.4939063,"type":"village"},{"id":"52243602","name":"Malahide","lat":53.4508401,"lon":-6.15367,"type":"town"},{"id":"52243608","name":"Cloyne","lat":51.8632525,"lon":-8.1208599,"type":"town"},{"id":"52243627","name":"Leap","lat":51.5810635,"lon":-9.1433393,"type":"village"},{"id":"52243635","name":"Kilmovee","lat":53.88875,"lon":-8.6883263,"type":"village"},{"id":"52243714","name":"Baile Chláir","lat":53.3404819,"lon":-8.9462388,"type":"village"},{"id":"52243723","name":"Keshcarrigan","lat":54.017778,"lon":-7.943333,"type":"village"},{"id":"52243733","name":"Shanagolden","lat":52.5738934,"lon":-9.09996,"type":"village"},{"id":"52243759","name":"Dún Chaoin","lat":52.1336541,"lon":-10.4539983,"type":"village"},{"id":"52243812","name":"Celbridge","lat":53.3383004,"lon":-6.5396223,"type":"town"},{"id":"52243850","name":"Drumcliff","lat":54.3285784,"lon":-8.5001502,"type":"village"},{"id":"52243911","name":"Ballyclogh","lat":52.1672872,"lon":-8.7414493,"type":"village"},{"id":"52243960","name":"Glenisland","lat":53.900833,"lon":-9.406389,"type":"village"},{"id":"52243982","name":"Blessington","lat":53.1726046,"lon":-6.5330892,"type":"town"},{"id":"52244000","name":"Westport","lat":53.8000645,"lon":-9.520218,"type":"town"},{"id":"52244002","name":"Athenry","lat":53.2991901,"lon":-8.7468297,"type":"town"},{"id":"52244020","name":"Thurles","lat":52.6801547,"lon":-7.8151008,"type":"town"},{"id":"52244042","name":"Mayglass","lat":52.2442167,"lon":-6.5120419,"type":"village"},{"id":"52244092","name":"Newcastle","lat":53.0711432,"lon":-6.0638874,"type":"village"},{"id":"52244102","name":"Ballyvaughan","lat":53.1152862,"lon":-9.1487092,"type":"village"},{"id":"52244119","name":"Manorhamilton","lat":54.3040414,"lon":-8.1754431,"type":"town"},{"id":"52244148","name":"Garvagh","lat":53.9801685,"lon":-7.8578496,"type":"village"},{"id":"52244158","name":"Castletown Geoghegan","lat":53.4447178,"lon":-7.4857557,"type":"village"},{"id":"52244187","name":"Patrickswell","lat":52.597222,"lon":-8.708889,"type":"village"},{"id":"52244203","name":"Clontibret","lat":54.216268,"lon":-6.8515505,"type":"village"},{"id":"52244287","name":"Bunnyconnellan","lat":54.1096925,"lon":-9.0245158,"type":"village"},{"id":"52244290","name":"Clashmore","lat":52.0089017,"lon":-7.8193151,"type":"village"},{"id":"52244362","name":"Castledockrell","lat":52.5834317,"lon":-6.6063796,"type":"village"},{"id":"52244384","name":"Rathmore","lat":52.0843219,"lon":-9.2186143,"type":"village"},{"id":"52244655","name":"Athboy","lat":53.6227768,"lon":-6.9185291,"type":"town"},{"id":"52244672","name":"Greencastle","lat":55.2036701,"lon":-6.981019,"type":"village"},{"id":"52244742","name":"Enniskerry","lat":53.1927323,"lon":-6.1703572,"type":"village"},{"id":"52244748","name":"Leighlinbridge","lat":52.7360233,"lon":-6.9766258,"type":"village"},{"id":"52244752","name":"Batterstown","lat":53.4696243,"lon":-6.5372745,"type":"village"},{"id":"52244753","name":"Cahir","lat":52.3749915,"lon":-7.92424,"type":"town"},{"id":"52244761","name":"Milford","lat":55.0879227,"lon":-7.6989323,"type":"town"},{"id":"52244765","name":"Ballinalee","lat":53.7755877,"lon":-7.6580453,"type":"village"},{"id":"52244773","name":"Drumconrath","lat":53.8501294,"lon":-6.6533283,"type":"village"},{"id":"52244774","name":"Ballyneety","lat":52.5975274,"lon":-8.5487286,"type":"village"},{"id":"52244778","name":"Claddaghduff","lat":53.544444,"lon":-10.141667,"type":"village"},{"id":"52244779","name":"Asdee","lat":52.5519029,"lon":-9.5600625,"type":"village"},{"id":"52244783","name":"Feakle","lat":52.9253535,"lon":-8.6483386,"type":"village"},{"id":"52244993","name":"Ballinhassig","lat":51.8121921,"lon":-8.5285968,"type":"village"},{"id":"52245011","name":"Dumha Éige","lat":53.9220882,"lon":-10.0270459,"type":"village"},{"id":"52245055","name":"Wexford","lat":52.3367671,"lon":-6.4601397,"type":"town"},{"id":"52245110","name":"Saint Johnston","lat":54.9345187,"lon":-7.4582401,"type":"village"},{"id":"52245139","name":"Bridgetown","lat":52.2313256,"lon":-6.552791,"type":"village"},{"id":"52245151","name":"Ballintubbert","lat":52.9834744,"lon":-7.0859065,"type":"village"},{"id":"52245194","name":"Ballygar","lat":53.5223233,"lon":-8.3261381,"type":"village"},{"id":"52245223","name":"Shannonbridge","lat":53.2795788,"lon":-8.0461136,"type":"village"},{"id":"52245261","name":"Beaufort","lat":52.0689701,"lon":-9.6366468,"type":"village"},{"id":"52245262","name":"Corofin","lat":52.9446534,"lon":-9.0632268,"type":"village"},{"id":"52245264","name":"Knocknagashel","lat":52.3314515,"lon":-9.3814903,"type":"village"},{"id":"52245274","name":"Crossmolina","lat":54.1,"lon":-9.316667,"type":"town"},{"id":"52245283","name":"Leckemy","lat":55.233333,"lon":-7.083333,"type":"village"},{"id":"52245324","name":"Naul","lat":53.5861596,"lon":-6.2902682,"type":"village"},{"id":"52245339","name":"Killashandra","lat":54.0146118,"lon":-7.5286568,"type":"village"},{"id":"52245361","name":"Terryglass","lat":53.0553396,"lon":-8.2055297,"type":"village"},{"id":"52245429","name":"Robertstown","lat":53.2697889,"lon":-6.8161946,"type":"village"},{"id":"52245451","name":"An tInbhear","lat":54.2450321,"lon":-9.8655368,"type":"village"},{"id":"52245459","name":"Caherconlish","lat":52.5935697,"lon":-8.471989,"type":"village"},{"id":"52245488","name":"Bree","lat":52.4349526,"lon":-6.6089264,"type":"village"},{"id":"52245510","name":"Rathdrum","lat":52.9316289,"lon":-6.2313761,"type":"town"},{"id":"52245515","name":"Breaghwy","lat":53.8490149,"lon":-9.2395978,"type":"village"},{"id":"52245527","name":"Moone","lat":52.974503,"lon":-6.815744,"type":"village"},{"id":"52245546","name":"Kinnegad","lat":53.4548146,"lon":-7.1011946,"type":"town"},{"id":"52245580","name":"Birr","lat":53.0961172,"lon":-7.9109221,"type":"town"},{"id":"52245602","name":"Dundrum","lat":52.5602364,"lon":-8.0452754,"type":"village"},{"id":"52245611","name":"Newbliss","lat":54.157845,"lon":-7.1365822,"type":"village"},{"id":"52245615","name":"Riverstown","lat":53.0827095,"lon":-7.9243211,"type":"village"},{"id":"52245630","name":"Killenard","lat":53.1328299,"lon":-7.1473275,"type":"village"},{"id":"52245636","name":"Cloondara","lat":53.7312673,"lon":-7.9058872,"type":"village"},{"id":"52245810","name":"Rockchapel","lat":52.2891183,"lon":-9.1436056,"type":"village"},{"id":"52245817","name":"Portlaoise","lat":53.0340093,"lon":-7.3000591,"type":"town"},{"id":"52245823","name":"Derrinturn","lat":53.3394986,"lon":-6.9399588,"type":"village"},{"id":"52245854","name":"Inniskeen","lat":54.0031722,"lon":-6.5795505,"type":"village"},{"id":"52245916","name":"Kilcock","lat":53.4003472,"lon":-6.667352,"type":"town"},{"id":"52245935","name":"Rosbercon","lat":52.3981098,"lon":-6.950414,"type":"village"},{"id":"52245943","name":"Kiltealy","lat":52.5652381,"lon":-6.7458751,"type":"village"},{"id":"52245959","name":"Gowran","lat":52.6282095,"lon":-7.068804,"type":"village"},{"id":"52245983","name":"Kilfinane","lat":52.3592022,"lon":-8.4724306,"type":"village"},{"id":"52245988","name":"Newmarket","lat":52.214904,"lon":-8.9988708,"type":"town"},{"id":"52246021","name":"Silvermines","lat":52.7928753,"lon":-8.2387156,"type":"village"},{"id":"52246057","name":"Lanesborough","lat":53.6728533,"lon":-7.9895762,"type":"village"},{"id":"52246174","name":"Galbally","lat":52.401488,"lon":-8.2958346,"type":"village"},{"id":"52246177","name":"Ballyliffin","lat":55.2806113,"lon":-7.3933812,"type":"village"},{"id":"52246188","name":"Drom","lat":52.7674904,"lon":-7.8966489,"type":"village"},{"id":"52246226","name":"Doneraile","lat":52.2171403,"lon":-8.5848179,"type":"village"},{"id":"52246279","name":"Royaloak","lat":52.7027501,"lon":-6.9852508,"type":"village"},{"id":"52246340","name":"Shannon Harbour","lat":53.2216586,"lon":-7.9517092,"type":"village"},{"id":"52246353","name":"Burncourt","lat":52.3116835,"lon":-8.0798362,"type":"village"},{"id":"52246371","name":"Ballineen","lat":51.7356014,"lon":-8.9508703,"type":"village"},{"id":"52246394","name":"Drogheda","lat":53.7149877,"lon":-6.3524183,"type":"town"},{"id":"52246399","name":"Aughrim","lat":53.3038135,"lon":-8.3165156,"type":"village"},{"id":"52246439","name":"Kinnitty","lat":53.0977181,"lon":-7.7204515,"type":"village"},{"id":"52246468","name":"Crossdoney","lat":53.9538498,"lon":-7.4346993,"type":"village"},{"id":"52246475","name":"Kilmeedy","lat":52.415289,"lon":-8.9162219,"type":"village"},{"id":"52246479","name":"Knocklong","lat":52.4371625,"lon":-8.4107217,"type":"village"},{"id":"52246493","name":"Nad","lat":52.0706939,"lon":-8.8349258,"type":"village"},{"id":"52246538","name":"Lorrha","lat":53.0927421,"lon":-8.1218363,"type":"village"},{"id":"52246555","name":"Portnablagh","lat":55.178056,"lon":-7.929444,"type":"village"},{"id":"52246566","name":"Lahardane","lat":54.0282478,"lon":-9.3216581,"type":"village"},{"id":"52246714","name":"Killarney","lat":52.0595746,"lon":-9.505322,"type":"town"},{"id":"52246719","name":"Na Gleannta","lat":54.7972091,"lon":-8.2839273,"type":"village"},{"id":"52246746","name":"Castlebaldwin","lat":54.0795527,"lon":-8.3763373,"type":"village"},{"id":"52246770","name":"Creggs","lat":53.5941595,"lon":-8.3623874,"type":"village"},{"id":"52246775","name":"Kill","lat":53.2487139,"lon":-6.589208,"type":"village"},{"id":"52246812","name":"Dunmore East","lat":52.1488395,"lon":-6.9947314,"type":"village"},{"id":"52246935","name":"Fermoy","lat":52.1381665,"lon":-8.275223,"type":"town"},{"id":"52246947","name":"Valleymount","lat":53.1067943,"lon":-6.5249835,"type":"village"},{"id":"52246963","name":"Timolin","lat":52.9853859,"lon":-6.8095179,"type":"village"},{"id":"52246971","name":"Lucan","lat":53.3567157,"lon":-6.4501534,"type":"town"},{"id":"52246993","name":"Toorlestraun","lat":54.0382488,"lon":-8.8429282,"type":"village"},{"id":"52247011","name":"Muff","lat":55.0674714,"lon":-7.2691516,"type":"village"},{"id":"52247248","name":"Tóin re Gaoth","lat":53.949167,"lon":-9.865278,"type":"village"},{"id":"52247414","name":"Nohoval","lat":51.7224626,"lon":-8.4017624,"type":"village"},{"id":"52247475","name":"Moneygall","lat":52.8797107,"lon":-7.9589322,"type":"village"},{"id":"52247486","name":"Coole","lat":53.7,"lon":-7.383333,"type":"village"},{"id":"52247507","name":"Hollymount","lat":53.6606924,"lon":-9.1172997,"type":"village"},{"id":"52247544","name":"Mullinavat","lat":52.3678497,"lon":-7.1713174,"type":"town"},{"id":"52247549","name":"Kill","lat":52.176111,"lon":-7.335,"type":"village"},{"id":"52247568","name":"Kilternan","lat":53.2355191,"lon":-6.1933991,"type":"village"},{"id":"52247582","name":"Ballymore","lat":53.4906871,"lon":-7.6739021,"type":"village"},{"id":"52247640","name":"Milltown","lat":54.0661824,"lon":-7.4776939,"type":"village"},{"id":"52247711","name":"Tuar Mhic Éadaigh","lat":53.6562806,"lon":-9.3648457,"type":"village"},{"id":"52247731","name":"Kilkea","lat":52.9482704,"lon":-6.895288,"type":"village"},{"id":"52247740","name":"Rossinver","lat":54.3857907,"lon":-8.1119732,"type":"village"},{"id":"52247778","name":"Ballycarney","lat":52.5826959,"lon":-6.5710855,"type":"village"},{"id":"52248002","name":"Shillelagh","lat":52.7538797,"lon":-6.5370584,"type":"village"},{"id":"52248015","name":"O'Callaghansmills","lat":52.8414275,"lon":-8.6806224,"type":"village"},{"id":"52248020","name":"Castleplunket","lat":53.7501133,"lon":-8.3446374,"type":"village"},{"id":"52248023","name":"Ballyhale","lat":52.4676782,"lon":-7.2007941,"type":"village"},{"id":"52248040","name":"Crookhaven","lat":51.4684326,"lon":-9.7256677,"type":"village"},{"id":"52248070","name":"An Caiseal","lat":53.958333,"lon":-9.966667,"type":"village"},{"id":"52248094","name":"Kiltegan","lat":52.9044564,"lon":-6.6067449,"type":"village"},{"id":"52248118","name":"Unionhall","lat":51.5588077,"lon":-9.1399099,"type":"village"},{"id":"52248148","name":"Baile na Finne","lat":54.870556,"lon":-8.113333,"type":"village"},{"id":"52248219","name":"Béal Átha an Ghaorthaidh","lat":51.8504484,"lon":-9.2330308,"type":"village"},{"id":"52248368","name":"Templenoe","lat":51.8666717,"lon":-9.6833357,"type":"village"},{"id":"52248398","name":"Dromahair","lat":54.2299343,"lon":-8.3014975,"type":"town"},{"id":"52248417","name":"Ballymurphy","lat":52.5721379,"lon":-6.8595023,"type":"village"},{"id":"52248466","name":"Elphin","lat":53.8457864,"lon":-8.1906903,"type":"town"},{"id":"52248483","name":"Gorteen","lat":53.992778,"lon":-8.510833,"type":"village"},{"id":"52248591","name":"Listowel","lat":52.4472298,"lon":-9.4846811,"type":"town"},{"id":"52248613","name":"Feenagh","lat":52.3895705,"lon":-8.87715,"type":"village"},{"id":"52248633","name":"Ballaghkeen","lat":52.4802972,"lon":-6.424415,"type":"village"},{"id":"52248722","name":"Castlegregory","lat":52.2556303,"lon":-10.0215862,"type":"village"},{"id":"52248841","name":"An Machaire","lat":54.929444,"lon":-8.441944,"type":"village"},{"id":"52248852","name":"Shankill","lat":53.2302278,"lon":-6.1241807,"type":"village"},{"id":"52248866","name":"Kilnaleck","lat":53.8612489,"lon":-7.3201437,"type":"village"},{"id":"52248970","name":"Raheen","lat":52.3920743,"lon":-6.7945534,"type":"village"},{"id":"52248991","name":"Foynes","lat":52.6111406,"lon":-9.1109507,"type":"town"},{"id":"52249491","name":"Killinaboy","lat":52.9699356,"lon":-9.0831471,"type":"village"},{"id":"52249571","name":"Athgarvan","lat":53.153403,"lon":-6.7772469,"type":"village"},{"id":"52249613","name":"Screen","lat":52.4123526,"lon":-6.4088775,"type":"village"},{"id":"52249643","name":"Castletown","lat":51.7695133,"lon":-8.9532641,"type":"village"},{"id":"52249665","name":"Touraneena","lat":52.2022553,"lon":-7.7159173,"type":"village"},{"id":"52249678","name":"Rathcoole","lat":53.2813003,"lon":-6.4679425,"type":"village"},{"id":"52249688","name":"An Dúchoraidh","lat":54.9060761,"lon":-8.2080328,"type":"village"},{"id":"52249692","name":"Thomastown","lat":52.525169,"lon":-7.1382466,"type":"town"},{"id":"52249736","name":"Ardpatrick","lat":52.3412838,"lon":-8.5254819,"type":"village"},{"id":"52249743","name":"An Eachléim","lat":54.1182038,"lon":-10.1012564,"type":"village"},{"id":"52249809","name":"Hospital","lat":52.4721802,"lon":-8.4306773,"type":"village"},{"id":"52250555","name":"Askamore","lat":52.6724486,"lon":-6.4795751,"type":"village"},{"id":"52250561","name":"Loughshinny","lat":53.5466255,"lon":-6.0863619,"type":"village"},{"id":"52250600","name":"Glanworth","lat":52.186667,"lon":-8.3575,"type":"village"},{"id":"52250651","name":"Moville","lat":55.1888784,"lon":-7.0405236,"type":"town"},{"id":"52250691","name":"Lifford","lat":54.8326995,"lon":-7.4834739,"type":"town"},{"id":"52250702","name":"Stradbally","lat":52.1307807,"lon":-7.4616828,"type":"village"},{"id":"52250706","name":"Ennis","lat":52.8435152,"lon":-8.983747,"type":"town"},{"id":"52250727","name":"Belmont","lat":53.2562566,"lon":-7.8943838,"type":"village"},{"id":"52250743","name":"Emly","lat":52.4638891,"lon":-8.3491671,"type":"village"},{"id":"52250747","name":"Sneem","lat":51.8381992,"lon":-9.8995313,"type":"village"},{"id":"52250779","name":"Tyrrellspass","lat":53.3885359,"lon":-7.3775607,"type":"village"},{"id":"52250788","name":"Kilmuckridge","lat":52.5127323,"lon":-6.2841717,"type":"village"},{"id":"52250817","name":"Roscrea","lat":52.9551598,"lon":-7.7990264,"type":"town"},{"id":"52250864","name":"Caltra","lat":53.4355055,"lon":-8.4369796,"type":"village"},{"id":"52250881","name":"Clonmellon","lat":53.6638408,"lon":-7.0161947,"type":"village"},{"id":"52250916","name":"Baltimore","lat":51.4833209,"lon":-9.3732052,"type":"village"},{"id":"52250923","name":"Puckaun","lat":52.9309734,"lon":-8.2377714,"type":"village"},{"id":"52250940","name":"Boyle","lat":53.9723298,"lon":-8.3012564,"type":"town"},{"id":"52250944","name":"Rahan","lat":53.2810415,"lon":-7.6153168,"type":"village"},{"id":"52250948","name":"Macroom","lat":51.9049705,"lon":-8.9599195,"type":"town"},{"id":"52250955","name":"Craanford","lat":52.6819249,"lon":-6.38914,"type":"village"},{"id":"52250974","name":"The Commons","lat":52.6268149,"lon":-7.5449821,"type":"village"},{"id":"52250990","name":"Doirí Beaga","lat":55.0782111,"lon":-8.2891221,"type":"village"},{"id":"52251110","name":"Donoughmore","lat":51.9890689,"lon":-8.7452997,"type":"village"},{"id":"52251148","name":"Glenealy","lat":52.9668073,"lon":-6.1430173,"type":"village"},{"id":"52251168","name":"Taghmon","lat":52.322808,"lon":-6.6542361,"type":"village"},{"id":"52251222","name":"Raharney","lat":53.5240013,"lon":-7.0954446,"type":"village"},{"id":"52251296","name":"Bandon","lat":51.7461712,"lon":-8.7369303,"type":"town"},{"id":"52251335","name":"Glenamaddy","lat":53.606577,"lon":-8.5599753,"type":"village"},{"id":"52251384","name":"Ballycanew","lat":52.6092117,"lon":-6.3043961,"type":"village"},{"id":"52251417","name":"Bantry","lat":51.6797696,"lon":-9.4523603,"type":"town"},{"id":"52251459","name":"Lixnaw","lat":52.4040167,"lon":-9.6172758,"type":"village"},{"id":"52251531","name":"Balla","lat":53.8045739,"lon":-9.1306207,"type":"village"},{"id":"52251556","name":"Scarriff","lat":52.9109784,"lon":-8.5315869,"type":"village"},{"id":"52251574","name":"Kilcogy","lat":53.8280361,"lon":-7.424689,"type":"village"},{"id":"52251585","name":"Passage East","lat":52.239197,"lon":-6.9730341,"type":"village"},{"id":"52251600","name":"Mitchelstown","lat":52.2661629,"lon":-8.2708001,"type":"town"},{"id":"52251606","name":"Castlebellingham","lat":53.8970616,"lon":-6.3890554,"type":"village"},{"id":"52251621","name":"Ballyjamesduff","lat":53.8639055,"lon":-7.2061572,"type":"town"},{"id":"52251630","name":"Killawalla","lat":53.7589601,"lon":-9.3663367,"type":"village"},{"id":"52251643","name":"Nurney","lat":53.0960729,"lon":-6.9481604,"type":"village"},{"id":"52251664","name":"Clonea","lat":52.2780108,"lon":-7.435935,"type":"village"},{"id":"52251670","name":"Tramore","lat":52.1606951,"lon":-7.1494391,"type":"town"},{"id":"52251676","name":"Clonee","lat":53.4104228,"lon":-6.4403825,"type":"village"},{"id":"52251718","name":"Baile Bhuirne","lat":51.9455757,"lon":-9.170658,"type":"village"},{"id":"52251728","name":"Clonmore","lat":52.8272032,"lon":-6.5689745,"type":"village"},{"id":"52251734","name":"Killybegs","lat":54.6362345,"lon":-8.4442592,"type":"town"},{"id":"52251782","name":"Kilsaran","lat":53.8864223,"lon":-6.3903472,"type":"village"},{"id":"52251802","name":"Longwood","lat":53.4550951,"lon":-6.9242396,"type":"village"},{"id":"52251899","name":"Minane Bridge","lat":51.7625761,"lon":-8.3727889,"type":"village"},{"id":"52251904","name":"Knockananna","lat":52.8725104,"lon":-6.4980433,"type":"village"},{"id":"52251966","name":"Dunshaughlin","lat":53.512484,"lon":-6.5394448,"type":"town"},{"id":"52251992","name":"Tarbert","lat":52.5725905,"lon":-9.3745404,"type":"town"},{"id":"52251999","name":"Montpelier","lat":52.7510115,"lon":-8.4955657,"type":"village"},{"id":"52252041","name":"Julianstown","lat":53.6712562,"lon":-6.2839899,"type":"village"},{"id":"52252106","name":"Frosses","lat":54.6686927,"lon":-8.2430627,"type":"village"},{"id":"52252157","name":"Kilbride","lat":53.1984705,"lon":-6.466736,"type":"village"},{"id":"52252166","name":"Kildoon","lat":53.0974699,"lon":-6.9153487,"type":"village"},{"id":"52252171","name":"Dundrum","lat":53.2891457,"lon":-6.2433756,"type":"town"},{"id":"52252199","name":"An Bun Beag","lat":55.059722,"lon":-8.300278,"type":"village"},{"id":"52252228","name":"Tashinny","lat":53.5921307,"lon":-7.6981909,"type":"village"},{"id":"52252242","name":"Lismore","lat":52.1368018,"lon":-7.9330526,"type":"town"},{"id":"52252274","name":"Eyrecourt","lat":53.200146,"lon":-8.1317817,"type":"village"},{"id":"52252944","name":"Corr na Móna","lat":53.5149158,"lon":-9.4482422,"type":"village"},{"id":"52252949","name":"Raheen","lat":52.9650077,"lon":-7.3695229,"type":"village"},{"id":"52252967","name":"Butlers Bridge","lat":54.0437368,"lon":-7.377083,"type":"village"},{"id":"52252984","name":"Aughrim","lat":52.8550688,"lon":-6.3290334,"type":"town"},{"id":"52252989","name":"Killala","lat":54.2138959,"lon":-9.2209417,"type":"village"},{"id":"52253009","name":"Arigna","lat":54.0768541,"lon":-8.1077103,"type":"village"},{"id":"52253058","name":"Old Ross","lat":52.3919477,"lon":-6.8264485,"type":"village"},{"id":"52253097","name":"Clonaslee","lat":53.1487985,"lon":-7.5252101,"type":"village"},{"id":"52253126","name":"Aherla","lat":51.8537288,"lon":-8.7328302,"type":"village"},{"id":"52253160","name":"Howth","lat":53.3858337,"lon":-6.0651186,"type":"town"},{"id":"52253178","name":"Inishcrone","lat":54.2132221,"lon":-9.0934543,"type":"town"},{"id":"52253214","name":"Dunfanaghy","lat":55.1833879,"lon":-7.9717773,"type":"town"},{"id":"52253295","name":"Abbeydorney","lat":52.3465664,"lon":-9.6874115,"type":"village"},{"id":"52253408","name":"Baldwinstown","lat":52.2358971,"lon":-6.5836929,"type":"village"},{"id":"52253428","name":"Littleton","lat":52.639444,"lon":-7.738056,"type":"village"},{"id":"52253446","name":"Castlemagner","lat":52.1665981,"lon":-8.8249919,"type":"village"},{"id":"52253472","name":"Mionlach","lat":53.3023542,"lon":-9.0735612,"type":"village"},{"id":"52253508","name":"Prosperous","lat":53.2882056,"lon":-6.751986,"type":"town"},{"id":"52253535","name":"Drumcree","lat":53.6360135,"lon":-7.1646343,"type":"village"},{"id":"52253552","name":"Bogtown","lat":54.307778,"lon":-9.354167,"type":"village"},{"id":"52253554","name":"Kilfenora","lat":52.9899199,"lon":-9.2170013,"type":"village"},{"id":"52253576","name":"Kilrush","lat":52.6397222,"lon":-9.4833283,"type":"town"},{"id":"52253578","name":"Stranorlar","lat":54.8044663,"lon":-7.7691565,"type":"town"},{"id":"52253602","name":"Rathnew","lat":52.9949196,"lon":-6.0821282,"type":"village"},{"id":"52253632","name":"Carlow","lat":52.8408344,"lon":-6.9261131,"type":"town"},{"id":"52253654","name":"Glandore","lat":51.5657504,"lon":-9.1197077,"type":"village"},{"id":"52253656","name":"Cleristown","lat":52.2764036,"lon":-6.5950661,"type":"village"},{"id":"52253685","name":"Shanballymore","lat":52.2179275,"lon":-8.4752101,"type":"village"},{"id":"52253695","name":"Ballylanders","lat":52.3714932,"lon":-8.3473484,"type":"village"},{"id":"52253755","name":"Redcross","lat":52.8901418,"lon":-6.1451017,"type":"village"},{"id":"52253761","name":"Finuge","lat":52.4246791,"lon":-9.5370984,"type":"village"},{"id":"52253770","name":"Dooagh","lat":53.9749647,"lon":-10.1279582,"type":"village"},{"id":"52253773","name":"Doogort","lat":54.005221,"lon":-10.0270202,"type":"village"},{"id":"52253809","name":"Piercetown","lat":52.2855925,"lon":-6.4901931,"type":"village"},{"id":"52253817","name":"Meelin","lat":52.2646053,"lon":-9.0312838,"type":"village"},{"id":"52253820","name":"Kilkishen","lat":52.806667,"lon":-8.745833,"type":"village"},{"id":"52253827","name":"Camp","lat":52.2208624,"lon":-9.9087276,"type":"village"},{"id":"52253841","name":"Mulhuddart","lat":53.4027828,"lon":-6.398205,"type":"village"},{"id":"52253844","name":"Castlefinn","lat":54.8033847,"lon":-7.5931697,"type":"town"},{"id":"52253871","name":"Cloonacool","lat":54.100604,"lon":-8.7776931,"type":"village"},{"id":"52253896","name":"Castletown","lat":52.7224355,"lon":-6.1890659,"type":"village"},{"id":"52253901","name":"Mooncoin","lat":52.2908987,"lon":-7.2514947,"type":"town"},{"id":"52253911","name":"Balrothery","lat":53.5877338,"lon":-6.1880637,"type":"village"},{"id":"52253923","name":"Watch House Village","lat":52.6919882,"lon":-6.6414552,"type":"village"},{"id":"52253937","name":"Louisburgh","lat":53.7635338,"lon":-9.8084904,"type":"town"},{"id":"52253943","name":"Killeen","lat":52.90672,"lon":-6.966408,"type":"village"},{"id":"52253968","name":"Paulstown","lat":52.6796993,"lon":-7.0203285,"type":"village"},{"id":"52253992","name":"Ballymore Eustace","lat":53.1334772,"lon":-6.6152013,"type":"town"},{"id":"52253997","name":"Portlaw","lat":52.2883326,"lon":-7.3205489,"type":"town"},{"id":"52254033","name":"An Cheathrú Rua","lat":53.2634208,"lon":-9.5997478,"type":"village"},{"id":"52254063","name":"Oola","lat":52.5297236,"lon":-8.2595775,"type":"village"},{"id":"52254097","name":"Urlingford","lat":52.720556,"lon":-7.5825,"type":"town"},{"id":"52254129","name":"Croom","lat":52.5192086,"lon":-8.7171793,"type":"town"},{"id":"52254149","name":"Ballinacurra","lat":51.8980545,"lon":-8.1660765,"type":"village"},{"id":"52254164","name":"Castleknock","lat":53.3729581,"lon":-6.3624744,"type":"village"},{"id":"52254184","name":"Aughagower","lat":53.7638445,"lon":-9.4658344,"type":"village"},{"id":"52254194","name":"Lauragh","lat":51.7671858,"lon":-9.7699786,"type":"village"},{"id":"52254199","name":"Swinford","lat":53.9435164,"lon":-8.9498117,"type":"town"},{"id":"52254243","name":"Quilty","lat":52.816831,"lon":-9.4563636,"type":"village"},{"id":"52254363","name":"Bennettsbridge","lat":52.5916772,"lon":-7.1835352,"type":"village"},{"id":"52254387","name":"Knockraha","lat":51.9591306,"lon":-8.339844,"type":"village"},{"id":"52254452","name":"Portahack","lat":55.300774,"lon":-7.1607061,"type":"village"},{"id":"52254526","name":"Newbridge","lat":53.1801492,"lon":-6.7981931,"type":"town"},{"id":"52254528","name":"Belcarra","lat":53.8017945,"lon":-9.2161763,"type":"village"},{"id":"52254559","name":"Aclare","lat":54.0364394,"lon":-8.8985892,"type":"village"},{"id":"52254568","name":"Carnew","lat":52.7095613,"lon":-6.4962699,"type":"village"},{"id":"52254574","name":"Collooney","lat":54.1836971,"lon":-8.4924684,"type":"town"},{"id":"52254602","name":"Tuamgraney","lat":52.8982531,"lon":-8.5408566,"type":"village"},{"id":"52254604","name":"Kilmessan","lat":53.5607425,"lon":-6.6620361,"type":"village"},{"id":"52254672","name":"Tralee","lat":52.2692116,"lon":-9.7057047,"type":"town"},{"id":"52254680","name":"Caherdaniel","lat":51.7696536,"lon":-10.0994464,"type":"village"},{"id":"52254684","name":"Coolderry","lat":53.0126192,"lon":-7.8395533,"type":"village"},{"id":"52254688","name":"Lissycasey","lat":52.7474391,"lon":-9.1501256,"type":"village"},{"id":"52255617","name":"Killadysert","lat":52.6738875,"lon":-9.1078412,"type":"village"},{"id":"52255645","name":"Coolgreany","lat":52.7641067,"lon":-6.2370666,"type":"village"},{"id":"52255667","name":"Kilmainhamwood","lat":53.84947,"lon":-6.8063229,"type":"village"},{"id":"52255674","name":"Fennagh","lat":52.7118608,"lon":-6.8472036,"type":"village"},{"id":"52255686","name":"Blackrock","lat":53.3018639,"lon":-6.1788342,"type":"town"},{"id":"52255726","name":"An Charraig","lat":54.6575,"lon":-8.631667,"type":"village"},{"id":"52255796","name":"Garristown","lat":53.566876,"lon":-6.3836331,"type":"village"},{"id":"52255821","name":"Kiltimagh","lat":53.85,"lon":-9.0,"type":"town"},{"id":"52255825","name":"Mallow","lat":52.1373851,"lon":-8.6450328,"type":"town"},{"id":"52255878","name":"Tuam","lat":53.5147915,"lon":-8.8512875,"type":"town"},{"id":"52255886","name":"Firies","lat":52.1705363,"lon":-9.5979293,"type":"village"},{"id":"52255911","name":"Newport","lat":53.8848021,"lon":-9.5466736,"type":"town"},{"id":"52255914","name":"Kilmacrennan","lat":55.0305186,"lon":-7.7792108,"type":"village"},{"id":"52255948","name":"Monivea","lat":53.3749518,"lon":-8.7028908,"type":"village"},{"id":"52255952","name":"Cadamstown","lat":53.1271164,"lon":-7.660297,"type":"village"},{"id":"52255967","name":"Ballygarvan","lat":51.8241133,"lon":-8.4621398,"type":"village"},{"id":"52256015","name":"Ryefield","lat":53.786659,"lon":-7.055637,"type":"village"},{"id":"52256059","name":"Ballindrait","lat":54.8448589,"lon":-7.5264016,"type":"village"},{"id":"52256087","name":"Ballintra","lat":54.5774828,"lon":-8.1251832,"type":"village"},{"id":"52256136","name":"Ardfert","lat":52.327242,"lon":-9.7809541,"type":"village"},{"id":"52256181","name":"Cloonfad","lat":53.686962,"lon":-8.752333,"type":"village"},{"id":"52256214","name":"Lisronagh","lat":52.418056,"lon":-7.703889,"type":"village"},{"id":"52256253","name":"Ringaskiddy","lat":51.8302347,"lon":-8.3207701,"type":"village"},{"id":"52256324","name":"Redhills","lat":54.1003515,"lon":-7.3200054,"type":"village"},{"id":"52256336","name":"Enniscorthy","lat":52.5011493,"lon":-6.5674944,"type":"town"},{"id":"52256353","name":"Rathfarnham","lat":53.2988099,"lon":-6.2855388,"type":"village"},{"id":"52256364","name":"Shrule","lat":53.5199658,"lon":-9.0877716,"type":"village"},{"id":"52256411","name":"Athlacca","lat":52.4569474,"lon":-8.64861,"type":"village"},{"id":"52256451","name":"Carndonagh","lat":55.2513051,"lon":-7.2611461,"type":"town"},{"id":"52256478","name":"An Tearman","lat":55.0494874,"lon":-7.81725,"type":"village"},{"id":"52256481","name":"Ballygawley","lat":54.1914404,"lon":-8.4464938,"type":"village"},{"id":"52256552","name":"Rosses Point","lat":54.305943,"lon":-8.5589438,"type":"village"},{"id":"52256569","name":"Ashford","lat":53.0110876,"lon":-6.1083836,"type":"village"},{"id":"52256700","name":"Ballymacoda","lat":51.8916365,"lon":-7.9385768,"type":"village"},{"id":"52256708","name":"Banoge","lat":52.4814529,"lon":-8.7097122,"type":"village"},{"id":"52256714","name":"Kiltormer","lat":53.2359394,"lon":-8.2716154,"type":"village"},{"id":"52256741","name":"Dunmanway","lat":51.7202004,"lon":-9.1126898,"type":"town"},{"id":"52256776","name":"Kilkee","lat":52.679167,"lon":-9.644167,"type":"town"},{"id":"52256853","name":"Enniskean","lat":51.7382577,"lon":-8.9312967,"type":"village"},{"id":"52256876","name":"Castlecor","lat":53.7751859,"lon":-7.1981394,"type":"village"},{"id":"52256913","name":"Milltown","lat":53.6150022,"lon":-8.9009149,"type":"village"},{"id":"52256997","name":"Kildimo","lat":52.623333,"lon":-8.812222,"type":"village"},{"id":"52257008","name":"Stepaside","lat":53.2531104,"lon":-6.2143744,"type":"village"},{"id":"52257039","name":"Dalkey","lat":53.2782812,"lon":-6.1074381,"type":"village"},{"id":"52257043","name":"Rhode","lat":53.3495675,"lon":-7.1990013,"type":"village"},{"id":"52257053","name":"Rathkeale","lat":52.5236119,"lon":-8.9377374,"type":"town"},{"id":"52257060","name":"Tullaghan","lat":54.4690469,"lon":-8.3294319,"type":"village"},{"id":"52257088","name":"Ceathrú Thaidhg","lat":54.312222,"lon":-9.812778,"type":"village"},{"id":"52257127","name":"Enfield","lat":53.4141315,"lon":-6.8290575,"type":"town"},{"id":"52257281","name":"Anagaire","lat":55.0216691,"lon":-8.3178413,"type":"village"},{"id":"52257296","name":"Broadway","lat":52.2199395,"lon":-6.3883138,"type":"village"},{"id":"52257297","name":"Collinstown","lat":53.6471001,"lon":-7.2120269,"type":"village"},{"id":"52257343","name":"Lios Póil","lat":52.1425,"lon":-10.160278,"type":"village"},{"id":"52257358","name":"Na Dúnaibh","lat":55.1948985,"lon":-7.8351051,"type":"village"},{"id":"52257395","name":"Borrisokane","lat":52.9951117,"lon":-8.1274832,"type":"town"},{"id":"52257410","name":"Kinlough","lat":54.4477324,"lon":-8.2854402,"type":"village"},{"id":"52257440","name":"Ballitore","lat":53.0093927,"lon":-6.815586,"type":"village"},{"id":"52257454","name":"Killinkere","lat":53.885501,"lon":-7.0632286,"type":"village"},{"id":"52257460","name":"Shanagarry","lat":51.8518462,"lon":-8.0362432,"type":"village"},{"id":"52257533","name":"Glenbeigh","lat":52.0560543,"lon":-9.9394238,"type":"village"},{"id":"52257552","name":"Neale","lat":53.5687508,"lon":-9.2339405,"type":"village"},{"id":"52257594","name":"Cloneen","lat":52.475556,"lon":-7.595833,"type":"village"},{"id":"52257598","name":"Suncroft","lat":53.1075001,"lon":-6.8618418,"type":"village"},{"id":"52257639","name":"Rathdowney","lat":52.855426,"lon":-7.5838016,"type":"town"},{"id":"52257646","name":"Johnstown","lat":53.2365208,"lon":-6.6234082,"type":"village"},{"id":"52257661","name":"The Swan","lat":52.8861003,"lon":-7.1562448,"type":"village"},{"id":"52257665","name":"Crusheen","lat":52.9384764,"lon":-8.8984123,"type":"village"},{"id":"52257680","name":"Dripsey","lat":51.9149422,"lon":-8.7419911,"type":"village"},{"id":"52257705","name":"Baltray","lat":53.7372378,"lon":-6.2671964,"type":"village"},{"id":"52257735","name":"Nobber","lat":53.8217308,"lon":-6.747929,"type":"village"},{"id":"52257739","name":"Ballyhaunis","lat":53.7633588,"lon":-8.7651532,"type":"town"},{"id":"52257765","name":"Clough","lat":52.6423975,"lon":-6.3434483,"type":"village"},{"id":"52257801","name":"Castlewarren","lat":52.693491,"lon":-7.1075858,"type":"village"},{"id":"52257812","name":"Ballindaggan","lat":52.5685521,"lon":-6.6813479,"type":"village"},{"id":"52257817","name":"Tír an Fhia","lat":53.2705439,"lon":-9.6627204,"type":"village"},{"id":"52257826","name":"Castlemartyr","lat":51.9122172,"lon":-8.054502,"type":"village"},{"id":"52257897","name":"Banagher","lat":53.1898776,"lon":-7.9868525,"type":"town"},{"id":"52257901","name":"Kilcrohane","lat":51.5810541,"lon":-9.7031892,"type":"village"},{"id":"52257990","name":"Moate","lat":53.3962015,"lon":-7.7240549,"type":"town"},{"id":"52258064","name":"An Mhuiríoch","lat":52.1857337,"lon":-10.3625372,"type":"village"},{"id":"52258129","name":"An Geata Mór","lat":54.203889,"lon":-10.036111,"type":"village"},{"id":"52258196","name":"Golden","lat":52.4982989,"lon":-7.9808842,"type":"village"},{"id":"52258199","name":"Croithlí","lat":55.025,"lon":-8.260833,"type":"village"},{"id":"52258216","name":"Araglin","lat":52.2076019,"lon":-8.1066353,"type":"village"},{"id":"52258218","name":"Delgany","lat":53.1326345,"lon":-6.0922262,"type":"village"},{"id":"52258229","name":"Moyvalley","lat":53.4298379,"lon":-6.9199634,"type":"village"},{"id":"52258259","name":"Ballyconnell","lat":54.116667,"lon":-7.583333,"type":"town"},{"id":"52258295","name":"Ballycotton","lat":51.8304762,"lon":-8.0132232,"type":"village"},{"id":"52258298","name":"Kilgarvan","lat":51.9037232,"lon":-9.4398829,"type":"village"},{"id":"52258355","name":"Moyvore","lat":53.5347279,"lon":-7.6312614,"type":"village"},{"id":"52258368","name":"Ballycumber","lat":53.3266439,"lon":-7.6844646,"type":"village"},{"id":"52258370","name":"Shercock","lat":53.9951052,"lon":-6.8982056,"type":"village"},{"id":"52258385","name":"Islandeady","lat":53.8263524,"lon":-9.4026307,"type":"village"},{"id":"52258389","name":"Camolin","lat":52.6166981,"lon":-6.4242938,"type":"village"},{"id":"52258418","name":"Foulksmills","lat":52.3135368,"lon":-6.7490959,"type":"village"},{"id":"52258423","name":"Stonyford","lat":52.5362671,"lon":-7.2278963,"type":"village"},{"id":"52258439","name":"Coachford","lat":51.9093226,"lon":-8.7881095,"type":"village"},{"id":"52258459","name":"Killyon","lat":53.1022185,"lon":-7.8029046,"type":"village"},{"id":"52258471","name":"Trim","lat":53.5556053,"lon":-6.7913717,"type":"town"},{"id":"52258506","name":"Ballyhahill","lat":52.5597181,"lon":-9.1900744,"type":"village"},{"id":"52258535","name":"Clongeen","lat":52.2983532,"lon":-6.7679782,"type":"village"},{"id":"52258561","name":"Askeaton","lat":52.599722,"lon":-8.975556,"type":"town"},{"id":"52258689","name":"Newtown","lat":52.8630155,"lon":-7.1113079,"type":"village"},{"id":"52258741","name":"Ballingarry","lat":52.4737994,"lon":-8.863349,"type":"village"},{"id":"52258756","name":"Garryspillane","lat":52.4127781,"lon":-8.379444,"type":"village"},{"id":"52258788","name":"Watergrasshill","lat":52.0115606,"lon":-8.3436011,"type":"town"},{"id":"52258794","name":"Ferbane","lat":53.2715862,"lon":-7.8277732,"type":"town"},{"id":"52258810","name":"Stuake","lat":51.9919143,"lon":-8.7564762,"type":"village"},{"id":"52258813","name":"Mountshannon","lat":52.9314122,"lon":-8.4273297,"type":"village"},{"id":"52258820","name":"Ballinasloe","lat":53.3302722,"lon":-8.221376,"type":"town"},{"id":"52258830","name":"Dromore West","lat":54.2491446,"lon":-8.8752953,"type":"village"},{"id":"52258835","name":"Narraghmore","lat":53.0490506,"lon":-6.83072,"type":"village"},{"id":"52258903","name":"Clonygowan","lat":53.1873907,"lon":-7.280685,"type":"village"},{"id":"52258938","name":"Cornafean","lat":53.9471107,"lon":-7.4859732,"type":"village"},{"id":"52258973","name":"Louth","lat":53.9508294,"lon":-6.5403319,"type":"village"},{"id":"52258981","name":"Delvin","lat":53.6119879,"lon":-7.0922919,"type":"town"},{"id":"52258999","name":"Clonlara","lat":52.722222,"lon":-8.553889,"type":"village"},{"id":"52259011","name":"Arvagh","lat":53.9241087,"lon":-7.5828683,"type":"village"},{"id":"52259019","name":"Newmarket","lat":52.470827,"lon":-7.2633291,"type":"village"},{"id":"52259026","name":"Oilgate","lat":52.423774,"lon":-6.5306667,"type":"village"},{"id":"52259029","name":"Partry","lat":53.7000024,"lon":-9.2833406,"type":"village"},{"id":"52259062","name":"Bun an Churraigh","lat":53.975,"lon":-9.975,"type":"village"},{"id":"52259099","name":"Dunnamaggan","lat":52.5024363,"lon":-7.2987581,"type":"village"},{"id":"52259119","name":"Clifden","lat":53.4884916,"lon":-10.0210673,"type":"town"},{"id":"52259148","name":"Castleblakeney","lat":53.4295506,"lon":-8.4755461,"type":"village"},{"id":"52259170","name":"Ballyconneely","lat":53.4314905,"lon":-10.0747505,"type":"village"},{"id":"52259181","name":"Shinrone","lat":52.984232,"lon":-7.9246821,"type":"village"},{"id":"52259231","name":"Kilmacow","lat":52.3161336,"lon":-7.1773747,"type":"village"},{"id":"52259235","name":"Ballynonty","lat":52.5901861,"lon":-7.6666744,"type":"village"},{"id":"52259242","name":"Pollagh","lat":53.2778609,"lon":-7.71047,"type":"village"},{"id":"52259246","name":"Rosscarbery","lat":51.5775144,"lon":-9.0329284,"type":"village"},{"id":"52259266","name":"Kildavin","lat":52.68384,"lon":-6.6853541,"type":"village"},{"id":"52259277","name":"Bartlemy","lat":52.0489103,"lon":-8.2648513,"type":"village"},{"id":"52259306","name":"Gob an Choire","lat":53.9296352,"lon":-9.9274511,"type":"village"},{"id":"52259342","name":"Ramsgrange","lat":52.2451176,"lon":-6.9196647,"type":"village"},{"id":"52259477","name":"Kerrykeel","lat":55.1373255,"lon":-7.6663937,"type":"village"},{"id":"52259498","name":"Millstreet","lat":52.060231,"lon":-9.0640113,"type":"town"},{"id":"52259518","name":"Ardee","lat":53.8553092,"lon":-6.5389138,"type":"town"},{"id":"52259545","name":"Clarecastle","lat":52.8155649,"lon":-8.9664844,"type":"village"},{"id":"52259559","name":"Chapeltown","lat":51.9071681,"lon":-10.3360662,"type":"village"},{"id":"52259573","name":"Newtown Forbes","lat":53.7667448,"lon":-7.8348458,"type":"town"},{"id":"52259626","name":"Ballinakill","lat":52.873889,"lon":-7.308056,"type":"village"},{"id":"52259669","name":"Baile an Fheirtéaraigh","lat":52.1663478,"lon":-10.406082,"type":"village"},{"id":"52259672","name":"Killenaule","lat":52.5682093,"lon":-7.6731438,"type":"town"},{"id":"52259724","name":"Kenmare","lat":51.8791008,"lon":-9.583952,"type":"town"},{"id":"52259782","name":"Gaoth Dobhair","lat":55.0501027,"lon":-8.2322026,"type":"village"},{"id":"52259785","name":"Ballinascarty","lat":51.6703961,"lon":-8.8574829,"type":"village"},{"id":"52259811","name":"Kilcoole","lat":53.1054131,"lon":-6.0644448,"type":"village"},{"id":"52259824","name":"Rathdangan","lat":52.9198223,"lon":-6.545544,"type":"village"},{"id":"52259849","name":"Timoleague","lat":51.6440924,"lon":-8.7654642,"type":"village"},{"id":"52259853","name":"Johnstown Bridge","lat":53.4020279,"lon":-6.854147,"type":"village"},{"id":"52259860","name":"Kinsale","lat":51.705737,"lon":-8.5229823,"type":"town"},{"id":"52259880","name":"Croghan","lat":53.3407532,"lon":-7.2792589,"type":"village"},{"id":"52259939","name":"Castletownroche","lat":52.1727472,"lon":-8.4635069,"type":"village"},{"id":"52259966","name":"Tipperary","lat":52.4734839,"lon":-8.1614446,"type":"town"},{"id":"52259985","name":"Callan","lat":52.5445861,"lon":-7.3900941,"type":"town"},{"id":"52260007","name":"Milltown Malbay","lat":52.8556213,"lon":-9.4005986,"type":"village"},{"id":"52260016","name":"Keenagh","lat":53.6225489,"lon":-7.8147197,"type":"village"},{"id":"52260081","name":"Blackwater","lat":52.4468932,"lon":-6.3475001,"type":"village"},{"id":"52260147","name":"Kilflynn","lat":52.3501687,"lon":-9.624856,"type":"village"},{"id":"52260161","name":"Sandyford","lat":53.2698337,"lon":-6.2245713,"type":"village"},{"id":"52260195","name":"Glin","lat":52.5717329,"lon":-9.2856555,"type":"village"},{"id":"52260205","name":"Palmerstown","lat":53.3559822,"lon":-6.3704956,"type":"village"},{"id":"52260215","name":"Monkstown","lat":51.8483695,"lon":-8.3333967,"type":"village"},{"id":"52260220","name":"Rosemount","lat":53.4303549,"lon":-7.6405844,"type":"village"},{"id":"52260270","name":"Clonbulloge","lat":53.2621591,"lon":-7.087043,"type":"village"},{"id":"52260318","name":"Castlelyons","lat":52.0889073,"lon":-8.2338663,"type":"village"},{"id":"52260329","name":"Carraig Airt","lat":55.1771751,"lon":-7.7941392,"type":"village"},{"id":"52260358","name":"Boolavogue","lat":52.5541798,"lon":-6.4182625,"type":"village"},{"id":"52260368","name":"Ballindine","lat":53.669328,"lon":-8.9570134,"type":"village"},{"id":"52260397","name":"Mountmellick","lat":53.1175082,"lon":-7.3251863,"type":"town"},{"id":"52260406","name":"Foxford","lat":53.983333,"lon":-9.116667,"type":"town"},{"id":"52260410","name":"Mullagh","lat":53.811536,"lon":-6.9485592,"type":"village"},{"id":"52260448","name":"Herbertstown","lat":52.5181353,"lon":-8.4686868,"type":"village"},{"id":"52260452","name":"Clogherhead","lat":53.7917202,"lon":-6.2390693,"type":"village"},{"id":"52260470","name":"Kilcolgan","lat":53.2079031,"lon":-8.8672488,"type":"village"},{"id":"52260496","name":"Glynn","lat":52.5031587,"lon":-6.9062968,"type":"village"},{"id":"52260498","name":"Mayo Abbey","lat":53.7619629,"lon":-9.1208355,"type":"village"},{"id":"52260501","name":"Clarinbridge","lat":53.2277017,"lon":-8.8803111,"type":"village"},{"id":"52260527","name":"Ardmore","lat":51.9508055,"lon":-7.7255148,"type":"village"},{"id":"52260539","name":"Nenagh","lat":52.861944,"lon":-8.196667,"type":"town"},{"id":"52260547","name":"Cill Rónáin","lat":53.1202153,"lon":-9.6694516,"type":"village"},{"id":"52260563","name":"Lusk","lat":53.5255827,"lon":-6.1658125,"type":"town"},{"id":"52260569","name":"Mogeely","lat":51.9315263,"lon":-8.0560988,"type":"village"},{"id":"52260653","name":"Kildalkey","lat":53.5712056,"lon":-6.9054866,"type":"village"},{"id":"52260697","name":"Castlepollard","lat":53.6796939,"lon":-7.2981856,"type":"town"},{"id":"52260715","name":"Killashee","lat":53.6808772,"lon":-7.8803461,"type":"village"},{"id":"52260756","name":"Málainn Mhóir","lat":54.6949999,"lon":-8.7736111,"type":"village"},{"id":"52260759","name":"Carrick-on-Suir","lat":52.349167,"lon":-7.413056,"type":"town"},{"id":"52260761","name":"Churchtown","lat":52.2711931,"lon":-8.7309549,"type":"village"},{"id":"52260773","name":"Rosenallis","lat":53.1358311,"lon":-7.4065616,"type":"village"},{"id":"52260792","name":"Carrigtwohill","lat":51.9094617,"lon":-8.2611809,"type":"town"},{"id":"52260827","name":"Loughrea","lat":53.1981624,"lon":-8.5690594,"type":"town"},{"id":"52260836","name":"Clonmany","lat":55.263012,"lon":-7.4122336,"type":"village"},{"id":"52260847","name":"Cill Charthaigh","lat":54.632607,"lon":-8.5923665,"type":"village"},{"id":"52260946","name":"Rathwire","lat":53.5082202,"lon":-7.1412,"type":"village"},{"id":"52260949","name":"Smithborough","lat":54.2214063,"lon":-7.0977582,"type":"village"},{"id":"52260991","name":"Cobh","lat":51.8502284,"lon":-8.2950649,"type":"town"},{"id":"52260995","name":"Abbeyshrule","lat":53.5832082,"lon":-7.6565897,"type":"village"},{"id":"52261034","name":"Shanaglish","lat":53.0106742,"lon":-8.8389224,"type":"village"},{"id":"52261050","name":"Lisselton","lat":52.4881823,"lon":-9.5766445,"type":"village"},{"id":"52261053","name":"Drumfries","lat":55.1963037,"lon":-7.3955721,"type":"village"},{"id":"52261060","name":"Milltown","lat":53.2047837,"lon":-6.8609259,"type":"village"},{"id":"52261099","name":"Ballybrittas","lat":53.109699,"lon":-7.1356042,"type":"village"},{"id":"52261121","name":"Drimoleague","lat":51.6608501,"lon":-9.2599704,"type":"village"},{"id":"52261185","name":"Dowra","lat":54.1902533,"lon":-8.0146335,"type":"village"},{"id":"52261206","name":"Kilreekill","lat":53.2297725,"lon":-8.4524113,"type":"village"},{"id":"52261217","name":"Glencullen","lat":53.2221412,"lon":-6.2180851,"type":"village"},{"id":"52261285","name":"Clogharinka","lat":53.3982107,"lon":-7.0159083,"type":"village"},{"id":"52261306","name":"Ballyduff","lat":52.1479546,"lon":-8.0526022,"type":"village"},{"id":"52261320","name":"Roundstone","lat":53.3963153,"lon":-9.9187505,"type":"village"},{"id":"52261327","name":"Duagh","lat":52.4141539,"lon":-9.3899096,"type":"village"},{"id":"52261360","name":"Blennerville","lat":52.2566726,"lon":-9.7353267,"type":"village"},{"id":"52261374","name":"Dunkineely","lat":54.6319602,"lon":-8.3603542,"type":"village"},{"id":"52261386","name":"Tinahely","lat":52.7995433,"lon":-6.4635618,"type":"town"},{"id":"52261438","name":"Ballycroy","lat":54.0249605,"lon":-9.82621,"type":"village"},{"id":"52261457","name":"Finea","lat":53.78006,"lon":-7.3891762,"type":"village"},{"id":"52261466","name":"Kilworth","lat":52.176389,"lon":-8.244167,"type":"village"},{"id":"52261479","name":"Dunleer","lat":53.8316175,"lon":-6.3950752,"type":"town"},{"id":"52261517","name":"Kilkelly","lat":53.8708104,"lon":-8.8493255,"type":"village"},{"id":"52261572","name":"Sixmilebridge","lat":52.741389,"lon":-8.774167,"type":"village"},{"id":"52261585","name":"Killucan","lat":53.5137326,"lon":-7.1427449,"type":"village"},{"id":"52261610","name":"Ashbourne","lat":53.5116146,"lon":-6.3981743,"type":"town"},{"id":"52261614","name":"Oldtown","lat":53.5240077,"lon":-6.3151517,"type":"village"},{"id":"52261637","name":"Tynagh","lat":53.1502226,"lon":-8.3743502,"type":"village"},{"id":"52261671","name":"Carrigallen","lat":53.9769538,"lon":-7.6462461,"type":"village"},{"id":"52261675","name":"Clonmel","lat":52.355,"lon":-7.703889,"type":"town"},{"id":"52261710","name":"Killinick","lat":52.2565747,"lon":-6.4565561,"type":"village"},{"id":"52261770","name":"Kingscourt","lat":53.9080467,"lon":-6.8054428,"type":"town"},{"id":"52261797","name":"Aghamore","lat":53.9013199,"lon":-7.9562007,"type":"village"},{"id":"52261802","name":"Myna","lat":53.8431482,"lon":-9.5729724,"type":"village"},{"id":"52261805","name":"Killann","lat":52.5216745,"lon":-6.745328,"type":"village"},{"id":"52261881","name":"Ardagh","lat":53.6673656,"lon":-7.6939163,"type":"village"},{"id":"52261891","name":"Charlestown","lat":53.964167,"lon":-8.794167,"type":"town"},{"id":"52261912","name":"Killavullen","lat":52.1456172,"lon":-8.5148547,"type":"village"},{"id":"52261916","name":"Wicklow","lat":52.9802376,"lon":-6.0414184,"type":"town"},{"id":"52261961","name":"Ballywilliam","lat":52.4479192,"lon":-6.8647066,"type":"village"},{"id":"52261979","name":"Piltown","lat":52.3497374,"lon":-7.3302765,"type":"village"},{"id":"52262001","name":"Dunmore","lat":53.6190495,"lon":-8.7422555,"type":"village"},{"id":"52262004","name":"Old Connaught","lat":53.2091156,"lon":-6.1334673,"type":"village"},{"id":"52262173","name":"Portsalon","lat":55.2088876,"lon":-7.6223447,"type":"village"},{"id":"52262288","name":"Mulranny","lat":53.9074074,"lon":-9.7701109,"type":"village"},{"id":"52262329","name":"Leitir Mealláin","lat":53.2425888,"lon":-9.7299408,"type":"village"},{"id":"52262343","name":"Brosna","lat":52.3119967,"lon":-9.2662439,"type":"village"},{"id":"52262349","name":"Multyfarnham","lat":53.6254597,"lon":-7.3886901,"type":"village"},{"id":"52262354","name":"Poll an tSómais","lat":54.261944,"lon":-9.798056,"type":"village"},{"id":"52262372","name":"Kilmallock","lat":52.3993029,"lon":-8.5744751,"type":"town"},{"id":"52262458","name":"Carrick","lat":52.2405608,"lon":-6.7314607,"type":"village"},{"id":"52262469","name":"Glangevlin","lat":54.1949307,"lon":-7.8926673,"type":"village"},{"id":"52262511","name":"Ballyorgan","lat":52.3158027,"lon":-8.4698791,"type":"village"},{"id":"52262532","name":"Newtown Cunningham","lat":54.9972443,"lon":-7.5175289,"type":"village"},{"id":"52262537","name":"Clonmult","lat":51.993611,"lon":-8.107222,"type":"village"},{"id":"52262551","name":"Bruree","lat":52.4243387,"lon":-8.6605818,"type":"village"},{"id":"52262603","name":"Termonbarry","lat":53.7425789,"lon":-7.9188223,"type":"village"},{"id":"52262623","name":"Kinvarra","lat":53.1389892,"lon":-8.9394261,"type":"village"},{"id":"52262640","name":"Béal an Daingin","lat":53.3136275,"lon":-9.6175411,"type":"village"},{"id":"52262655","name":"Goatenbridge","lat":52.276111,"lon":-7.871944,"type":"village"},{"id":"52262662","name":"Skibbereen","lat":51.5478232,"lon":-9.2662109,"type":"town"},{"id":"52262677","name":"Coolboy","lat":52.7624456,"lon":-6.4620387,"type":"village"},{"id":"52262699","name":"Inistioge","lat":52.4883664,"lon":-7.0656372,"type":"village"},{"id":"52262717","name":"Arthurstown","lat":52.2419927,"lon":-6.9518356,"type":"village"},{"id":"52262733","name":"Portroe","lat":52.8829864,"lon":-8.3522192,"type":"village"},{"id":"52262789","name":"Ballyhaise","lat":54.0470453,"lon":-7.3171962,"type":"village"},{"id":"52262844","name":"Ballymascanlan","lat":54.028333,"lon":-6.350833,"type":"village"},{"id":"52262886","name":"Ballymote","lat":54.0885294,"lon":-8.5155338,"type":"town"},{"id":"52262968","name":"Tagoat","lat":52.2435457,"lon":-6.390351,"type":"village"},{"id":"52262988","name":"Barry","lat":53.5962753,"lon":-7.7621416,"type":"village"},{"id":"52262991","name":"Owning","lat":52.3878759,"lon":-7.3438403,"type":"village"},{"id":"52263024","name":"Straffan","lat":53.3125051,"lon":-6.6082372,"type":"village"},{"id":"52263057","name":"Newcastle","lat":52.2725883,"lon":-7.8109313,"type":"village"},{"id":"52263071","name":"Clara","lat":53.3425,"lon":-7.613889,"type":"town"},{"id":"52263077","name":"Castlerea","lat":53.7664969,"lon":-8.487153,"type":"town"},{"id":"52263102","name":"Kildangan","lat":53.1049821,"lon":-7.0150655,"type":"village"},{"id":"52263192","name":"Mullinalaghta","lat":53.8375431,"lon":-7.5170415,"type":"village"},{"id":"52263218","name":"Rockcorry","lat":54.1175895,"lon":-7.0153826,"type":"village"},{"id":"52263228","name":"Ballyduff","lat":52.4555609,"lon":-9.6627219,"type":"village"},{"id":"52263292","name":"Waterford","lat":52.2609997,"lon":-7.1119081,"type":"city"},{"id":"52263305","name":"Passage West","lat":51.8711088,"lon":-8.3354199,"type":"town"},{"id":"52263311","name":"Kanturk","lat":52.1774522,"lon":-8.9065541,"type":"town"},{"id":"52263332","name":"Lislevane","lat":51.6081568,"lon":-8.7552753,"type":"village"},{"id":"52263371","name":"Ballyfarnan","lat":54.0727264,"lon":-8.2046836,"type":"village"},{"id":"52263431","name":"Ballynacarrigy","lat":53.5830319,"lon":-7.5383476,"type":"village"},{"id":"52263449","name":"Shanbally","lat":51.831942,"lon":-8.354282,"type":"village"},{"id":"52263467","name":"Athea","lat":52.4616631,"lon":-9.2890747,"type":"village"},{"id":"52263471","name":"Balbriggan","lat":53.609832,"lon":-6.1861964,"type":"town"},{"id":"52263477","name":"Aghamore","lat":53.8277976,"lon":-8.8246435,"type":"village"},{"id":"52263501","name":"Belgooly","lat":51.7374331,"lon":-8.4839766,"type":"village"},{"id":"52263523","name":"New Ross","lat":52.3955671,"lon":-6.9446066,"type":"town"},{"id":"52263936","name":"Mullaghmore","lat":54.4663889,"lon":-8.448611,"type":"village"},{"id":"52266948","name":"Athleague","lat":53.567573,"lon":-8.2561657,"type":"village"},{"id":"52267809","name":"Milltown","lat":52.1452719,"lon":-9.7172394,"type":"town"},{"id":"52267883","name":"Mount Nugent","lat":53.81767,"lon":-7.2560698,"type":"village"},{"id":"52267926","name":"Leenaun","lat":53.5958058,"lon":-9.6942245,"type":"village"},{"id":"52267953","name":"Youghal","lat":51.9494736,"lon":-7.8431892,"type":"town"},{"id":"52268224","name":"Streamstown","lat":53.4390458,"lon":-7.5758735,"type":"village"},{"id":"52268255","name":"Kilmeadan","lat":52.2310498,"lon":-7.2399854,"type":"village"},{"id":"52268286","name":"Oughterard","lat":53.4284256,"lon":-9.3226023,"type":"town"},{"id":"52268297","name":"Kilmaganny","lat":52.4613731,"lon":-7.3281208,"type":"village"},{"id":"52268303","name":"Kesh","lat":54.0507069,"lon":-8.4458673,"type":"village"},{"id":"52268322","name":"Ballingarry","lat":53.018118,"lon":-8.0295509,"type":"village"},{"id":"52268439","name":"Castlebridge","lat":52.3827773,"lon":-6.4503235,"type":"village"},{"id":"52268527","name":"Killimor","lat":53.1650604,"lon":-8.2887968,"type":"village"},{"id":"52268534","name":"An Rinn","lat":52.048333,"lon":-7.585278,"type":"village"},{"id":"52268586","name":"Castleconnell","lat":52.7129293,"lon":-8.5001796,"type":"village"},{"id":"52268684","name":"Borris-in-Ossory","lat":52.9390951,"lon":-7.6314645,"type":"village"},{"id":"52268692","name":"Ballinderreen","lat":53.1862518,"lon":-8.9089205,"type":"village"},{"id":"52268712","name":"Stratford","lat":52.9878821,"lon":-6.6734457,"type":"village"},{"id":"52268740","name":"Ballybay","lat":54.1288793,"lon":-6.9029718,"type":"town"},{"id":"52268766","name":"Ballyagran","lat":52.4017549,"lon":-8.781955,"type":"village"},{"id":"52268771","name":"Clonroche","lat":52.4496112,"lon":-6.7179575,"type":"village"},{"id":"52268831","name":"Culdaff","lat":55.2869665,"lon":-7.166544,"type":"village"},{"id":"52268833","name":"Donore","lat":53.6923216,"lon":-6.4167748,"type":"village"},{"id":"52268840","name":"Freshford","lat":52.7325985,"lon":-7.3980463,"type":"village"},{"id":"52268851","name":"Doolin","lat":53.0163287,"lon":-9.3776097,"type":"village"},{"id":"52268863","name":"Ros an Mhíl","lat":53.2734571,"lon":-9.5409883,"type":"village"},{"id":"52268866","name":"Moyvane","lat":52.5014313,"lon":-9.3706916,"type":"village"},{"id":"52268885","name":"Kilbehenny","lat":52.2944078,"lon":-8.2050849,"type":"village"},{"id":"52268890","name":"Cootehill","lat":54.0725259,"lon":-7.0822524,"type":"town"},{"id":"52268908","name":"Teileann","lat":54.6358785,"lon":-8.6422625,"type":"village"},{"id":"52268929","name":"Swords","lat":53.4594799,"lon":-6.219175,"type":"town"},{"id":"52268941","name":"Tóin an tSeanbhaile","lat":54.013056,"lon":-9.961111,"type":"village"},{"id":"52268969","name":"Drumlish","lat":53.8200862,"lon":-7.7693182,"type":"village"},{"id":"52268972","name":"Ballinagh","lat":53.9319227,"lon":-7.4078788,"type":"village"},{"id":"52268976","name":"Laurencetown","lat":53.2365041,"lon":-8.1749341,"type":"village"},{"id":"52269003","name":"Ballinafad","lat":54.0272688,"lon":-8.3343456,"type":"village"},{"id":"52269014","name":"Lahinch","lat":52.932149,"lon":-9.3459078,"type":"village"},{"id":"52269022","name":"Portumna","lat":53.0923333,"lon":-8.2192922,"type":"town"},{"id":"52269031","name":"Legan","lat":53.6216091,"lon":-7.632065,"type":"village"},{"id":"52269040","name":"Omeath","lat":54.086944,"lon":-6.261667,"type":"village"},{"id":"52269076","name":"Muine Bheag","lat":52.7018267,"lon":-6.9566623,"type":"town"},{"id":"52269208","name":"Burren","lat":53.9119472,"lon":-9.305833,"type":"village"},{"id":"52269252","name":"Clondalkin","lat":53.3219624,"lon":-6.3942689,"type":"town"},{"id":"52269296","name":"O'Briensbridge","lat":52.7532636,"lon":-8.5013883,"type":"village"},{"id":"52269347","name":"Clonard","lat":53.4512563,"lon":-7.021757,"type":"village"},{"id":"52269351","name":"Gaoth Sáile","lat":54.1121097,"lon":-9.8986315,"type":"village"},{"id":"52269379","name":"Kilshanchoe","lat":53.3845744,"lon":-6.8881234,"type":"village"},{"id":"52269418","name":"Toomevara","lat":52.8501208,"lon":-8.0358937,"type":"village"},{"id":"52269481","name":"Bunratty","lat":52.696671,"lon":-8.8155617,"type":"village"},{"id":"52269488","name":"Roscommon","lat":53.6312446,"lon":-8.19068,"type":"town"},{"id":"52269496","name":"Ballynoe","lat":52.060307,"lon":-8.097583,"type":"village"},{"id":"52269512","name":"Turlough","lat":53.883334,"lon":-9.2166741,"type":"village"},{"id":"52269516","name":"Inch","lat":52.7400641,"lon":-6.2380157,"type":"village"},{"id":"52269553","name":"Ratoath","lat":53.5072716,"lon":-6.4640687,"type":"town"},{"id":"52269579","name":"Castletownshend","lat":51.5278343,"lon":-9.1777777,"type":"village"},{"id":"52269587","name":"Ballyshannon","lat":54.501979,"lon":-8.1897659,"type":"town"},{"id":"52269598","name":"Maghera","lat":53.7966716,"lon":-7.0301553,"type":"village"},{"id":"52269630","name":"Ballycullane","lat":52.2796739,"lon":-6.8393729,"type":"village"},{"id":"52269664","name":"Aghabullogue","lat":51.9448936,"lon":-8.8076793,"type":"village"},{"id":"52269698","name":"Cong","lat":53.5407963,"lon":-9.2859366,"type":"village"},{"id":"52269708","name":"Cavan","lat":53.9911042,"lon":-7.3603119,"type":"town"},{"id":"52269768","name":"Knockcroghery","lat":53.5755725,"lon":-8.0949464,"type":"village"},{"id":"52269790","name":"An Leadhb Gharbh","lat":54.9890715,"lon":-8.4981441,"type":"village"},{"id":"52269807","name":"Dromcollogher","lat":52.3392885,"lon":-8.9088061,"type":"town"},{"id":"52269829","name":"Cappamore","lat":52.6144391,"lon":-8.3355581,"type":"village"},{"id":"52269839","name":"Clogheen","lat":52.2769319,"lon":-7.9959442,"type":"village"},{"id":"52269841","name":"Strokestown","lat":53.7766267,"lon":-8.1022177,"type":"town"},{"id":"52269853","name":"Rathmolyon","lat":53.4881916,"lon":-6.8037584,"type":"village"},{"id":"52269859","name":"Carrigaline","lat":51.8149556,"lon":-8.3922675,"type":"town"},{"id":"52269863","name":"Borrisoleigh","lat":52.7520934,"lon":-7.9560089,"type":"village"},{"id":"52269866","name":"Saggart","lat":53.280278,"lon":-6.444448,"type":"village"},{"id":"52269880","name":"Carrignavar","lat":51.9877466,"lon":-8.4775974,"type":"village"},{"id":"52269887","name":"Rathnure","lat":52.4998307,"lon":-6.7685931,"type":"village"},{"id":"52269980","name":"Fethard","lat":52.1915688,"lon":-6.8398404,"type":"village"},{"id":"52270003","name":"An Clochán","lat":52.2349101,"lon":-10.1822504,"type":"village"},{"id":"52270015","name":"Kilmore","lat":52.2044063,"lon":-6.548882,"type":"village"},{"id":"52270031","name":"Glassan","lat":53.4697693,"lon":-7.8637638,"type":"village"},{"id":"52270049","name":"Garrykennedy","lat":52.9047038,"lon":-8.3473609,"type":"village"},{"id":"52270053","name":"Meanus","lat":52.511572,"lon":-8.6084534,"type":"village"},{"id":"52270067","name":"Mountcharles","lat":54.646389,"lon":-8.195556,"type":"village"},{"id":"52270078","name":"Kilmacthomas","lat":52.206047,"lon":-7.4246616,"type":"town"},{"id":"52270091","name":"Moynalty","lat":53.7890118,"lon":-6.886633,"type":"village"},{"id":"52270113","name":"Mornington","lat":53.7213844,"lon":-6.2825549,"type":"village"},{"id":"52270124","name":"Grenagh","lat":52.0122271,"lon":-8.6099993,"type":"village"},{"id":"52270165","name":"Newtownmountkennedy","lat":53.0895152,"lon":-6.1110122,"type":"village"},{"id":"52270191","name":"Kilteely","lat":52.5221953,"lon":-8.3996947,"type":"village"},{"id":"52270300","name":"Ballycastle","lat":54.2808401,"lon":-9.3737759,"type":"village"},{"id":"52270304","name":"Blanchardstown","lat":53.3844588,"lon":-6.3829415,"type":"town"},{"id":"52270346","name":"Letterfrack","lat":53.553524,"lon":-9.9483002,"type":"village"},{"id":"52270363","name":"Ardfinnan","lat":52.310998,"lon":-7.8784418,"type":"village"},{"id":"52270374","name":"Portarlington","lat":53.162222,"lon":-7.191111,"type":"town"},{"id":"52270386","name":"Labasheeda","lat":52.6232506,"lon":-9.2473969,"type":"village"},{"id":"52270423","name":"Collon","lat":53.7776528,"lon":-6.4863251,"type":"village"},{"id":"52270429","name":"Ballynacarrow","lat":54.1337743,"lon":-8.5613675,"type":"village"},{"id":"52270434","name":"Ballintober","lat":53.7178827,"lon":-8.4093972,"type":"village"},{"id":"52270446","name":"Roundwood","lat":53.0634659,"lon":-6.2247419,"type":"village"},{"id":"52270521","name":"Ballyheelan","lat":53.8365438,"lon":-7.3516667,"type":"village"},{"id":"52270591","name":"Gorey","lat":52.676135,"lon":-6.292752,"type":"town"},{"id":"52270618","name":"Courtown","lat":52.644821,"lon":-6.227824,"type":"village"},{"id":"52271494","name":"Ballymoe","lat":53.6951171,"lon":-8.460283,"type":"village"},{"id":"52271519","name":"Bohola","lat":53.9017656,"lon":-9.0527021,"type":"village"},{"id":"52271545","name":"Fiddown","lat":52.3316944,"lon":-7.3152624,"type":"village"},{"id":"52271584","name":"Newcastle","lat":53.2999844,"lon":-6.5013576,"type":"village"},{"id":"52271593","name":"Crookedwood","lat":53.6028545,"lon":-7.2928292,"type":"village"},{"id":"52271620","name":"Ballintober","lat":53.7443746,"lon":-9.2989057,"type":"village"},{"id":"52271669","name":"Ardara","lat":54.7636255,"lon":-8.4105918,"type":"town"},{"id":"52271704","name":"Drangan","lat":52.5162906,"lon":-7.5833527,"type":"village"},{"id":"52271772","name":"Athlone","lat":53.4228434,"lon":-7.9425897,"type":"town"},{"id":"52272061","name":"Saltmills","lat":52.225966,"lon":-6.8330602,"type":"village"},{"id":"60790031","name":"Templetouhy","lat":52.7884413,"lon":-7.7219474,"type":"village"},{"id":"60791902","name":"Longford","lat":53.7278,"lon":-7.7963816,"type":"town"},{"id":"132459155","name":"Cornelscourt","lat":53.2689117,"lon":-6.1664572,"type":"village"},{"id":"137938564","name":"Crawfordsburn","lat":54.658431,"lon":-5.727932,"type":"village"},{"id":"137947214","name":"Helen's Bay","lat":54.6727763,"lon":-5.7453327,"type":"village"},{"id":"154433955","name":"Portballintrae","lat":55.2150678,"lon":-6.5443609,"type":"village"},{"id":"154474123","name":"Greysteel","lat":55.0301747,"lon":-7.1201801,"type":"village"},{"id":"197673960","name":"Islandmagee","lat":54.7783413,"lon":-5.7084204,"type":"village"},{"id":"244053566","name":"Kealkill","lat":51.7494723,"lon":-9.3828771,"type":"village"},{"id":"249476277","name":"Glenmalure","lat":52.9576993,"lon":-6.3539662,"type":"village"},{"id":"258580405","name":"Ballinlough","lat":53.7417773,"lon":-8.6345581,"type":"village"},{"id":"262367615","name":"Killeshin","lat":52.8490299,"lon":-6.9938912,"type":"village"},{"id":"264796281","name":"Kentstown","lat":53.6271968,"lon":-6.5327937,"type":"village"},{"id":"266413754","name":"Kilanerin","lat":52.7309702,"lon":-6.2878066,"type":"village"},{"id":"266710218","name":"Quigley's Point","lat":55.1245741,"lon":-7.1952899,"type":"village"},{"id":"267762394","name":"Ballylumford","lat":54.8474402,"lon":-5.7888778,"type":"village"},{"id":"267762397","name":"Ballygowan","lat":54.5018813,"lon":-5.7918013,"type":"village"},{"id":"267762398","name":"Fintona","lat":54.4969713,"lon":-7.319246,"type":"village"},{"id":"267762401","name":"Carryduff","lat":54.5184788,"lon":-5.8874586,"type":"town"},{"id":"267762403","name":"Ballyeaston","lat":54.7717853,"lon":-5.9970822,"type":"village"},{"id":"267762406","name":"Rostrevor","lat":54.100725,"lon":-6.2004264,"type":"village"},{"id":"267762408","name":"Armoy","lat":55.1313382,"lon":-6.326702,"type":"village"},{"id":"267762414","name":"Castlerock","lat":55.16482,"lon":-6.7884142,"type":"village"},{"id":"267762420","name":"Kircubbin","lat":54.4870904,"lon":-5.53201,"type":"village"},{"id":"267762421","name":"Dervock","lat":55.1233432,"lon":-6.4684721,"type":"village"},{"id":"267762424","name":"Portavogie","lat":54.4612678,"lon":-5.4433576,"type":"village"},{"id":"267762426","name":"Kilskeery","lat":54.4423387,"lon":-7.5388052,"type":"village"},{"id":"267762431","name":"Greyabbey","lat":54.5362024,"lon":-5.5604594,"type":"village"},{"id":"267762434","name":"Dundonald","lat":54.5947412,"lon":-5.8105342,"type":"town"},{"id":"267762436","name":"Maghery","lat":54.5117941,"lon":-6.57269,"type":"village"},{"id":"267762441","name":"Benburb","lat":54.4124034,"lon":-6.7436419,"type":"village"},{"id":"267762443","name":"Balnamore","lat":55.0660456,"lon":-6.5618833,"type":"village"},{"id":"267762444","name":"Newtownhamilton","lat":54.1909481,"lon":-6.5762623,"type":"village"},{"id":"267762450","name":"Carland","lat":54.533333,"lon":-6.783333,"type":"village"},{"id":"267762451","name":"Kilkeel","lat":54.0626664,"lon":-6.0059949,"type":"town"},{"id":"267762454","name":"Fivemiletown","lat":54.3784847,"lon":-7.3153578,"type":"village"},{"id":"267762455","name":"Rathfriland","lat":54.2381785,"lon":-6.1603136,"type":"town"},{"id":"267762457","name":"Caledon","lat":54.3509691,"lon":-6.8377547,"type":"village"},{"id":"267762461","name":"Kinawley","lat":54.2263444,"lon":-7.6477195,"type":"village"},{"id":"267762472","name":"Meigh","lat":54.1222379,"lon":-6.3891182,"type":"village"},{"id":"267762478","name":"Loughbrickland","lat":54.3161717,"lon":-6.304167,"type":"village"},{"id":"267762485","name":"Antrim","lat":54.715139,"lon":-6.2192038,"type":"town"},{"id":"267762488","name":"Moy","lat":54.4467386,"lon":-6.6911155,"type":"village"},{"id":"267762492","name":"Ederney","lat":54.5326002,"lon":-7.6587105,"type":"village"},{"id":"267762494","name":"Ballybogey","lat":55.1302424,"lon":-6.55764,"type":"village"},{"id":"267762496","name":"Clough","lat":54.2907175,"lon":-5.8383498,"type":"village"},{"id":"267762497","name":"Richhill","lat":54.3710151,"lon":-6.5487914,"type":"village"},{"id":"267762502","name":"Kilrea","lat":54.950167,"lon":-6.5564648,"type":"village"},{"id":"267762505","name":"Newbuildings","lat":54.959093,"lon":-7.3587103,"type":"village"},{"id":"267762506","name":"Artigarvan","lat":54.8559044,"lon":-7.4079831,"type":"village"},{"id":"267762511","name":"Carrowdore","lat":54.5761845,"lon":-5.5536121,"type":"village"},{"id":"267762515","name":"Ballinamallard","lat":54.4228702,"lon":-7.5950403,"type":"village"},{"id":"267762522","name":"Derry/Londonderry","lat":54.9978678,"lon":-7.3213056,"type":"city"},{"id":"267762523","name":"Greenisland","lat":54.7000898,"lon":-5.8724792,"type":"village"},{"id":"267762531","name":"Ballintoy","lat":55.2367811,"lon":-6.3593257,"type":"village"},{"id":"267762532","name":"Gracehill","lat":54.853851,"lon":-6.3271822,"type":"village"},{"id":"267762533","name":"Strabane","lat":54.826115,"lon":-7.4627993,"type":"town"},{"id":"267762534","name":"Kesh","lat":54.5233599,"lon":-7.7225138,"type":"village"},{"id":"267762535","name":"Cushendall","lat":55.080819,"lon":-6.0640644,"type":"village"},{"id":"267762536","name":"Crossmaglen","lat":54.077193,"lon":-6.607368,"type":"town"},{"id":"267762546","name":"Royal Hillsborough","lat":54.462813,"lon":-6.0830844,"type":"village"},{"id":"267762547","name":"Newmills","lat":54.5516861,"lon":-6.740477,"type":"village"},{"id":"267762552","name":"Newtownbutler","lat":54.1824929,"lon":-7.3610829,"type":"village"},{"id":"267762556","name":"Ravernet","lat":54.4810594,"lon":-6.0458286,"type":"village"},{"id":"267762557","name":"Drumbo","lat":54.5161342,"lon":-5.957242,"type":"village"},{"id":"267762560","name":"Banbridge","lat":54.3514168,"lon":-6.2714623,"type":"town"},{"id":"267762565","name":"Comber","lat":54.5498342,"lon":-5.7454313,"type":"town"},{"id":"267762572","name":"Lisbellaw","lat":54.3171222,"lon":-7.5373355,"type":"village"},{"id":"267762575","name":"Donagh","lat":54.2166519,"lon":-7.3909891,"type":"village"},{"id":"267762580","name":"Milford","lat":54.3334328,"lon":-6.6820317,"type":"village"},{"id":"267762585","name":"Bessbrook","lat":54.1941791,"lon":-6.3965548,"type":"village"},{"id":"267762588","name":"Cookstown","lat":54.6436734,"lon":-6.7416008,"type":"town"},{"id":"267762589","name":"Ballyvoy","lat":55.199788,"lon":-6.1860791,"type":"village"},{"id":"267762593","name":"Dundrum","lat":54.2581955,"lon":-5.8426084,"type":"village"},{"id":"267762596","name":"Glenoe","lat":54.7991345,"lon":-5.8306826,"type":"village"},{"id":"267762597","name":"Gilford","lat":54.3733602,"lon":-6.359485,"type":"village"},{"id":"267762598","name":"Garrison","lat":54.4150499,"lon":-8.0903014,"type":"village"},{"id":"267762600","name":"Moss-side","lat":55.1549419,"lon":-6.4102066,"type":"village"},{"id":"267762601","name":"Portglenone","lat":54.8733857,"lon":-6.4751493,"type":"village"},{"id":"267762604","name":"Donaghadee","lat":54.6425446,"lon":-5.5375794,"type":"town"},{"id":"267762608","name":"Portadown","lat":54.4242284,"lon":-6.4412133,"type":"town"},{"id":"267762618","name":"Cullybackey","lat":54.8889956,"lon":-6.356308,"type":"village"},{"id":"267762623","name":"Ballykinler","lat":54.2579586,"lon":-5.7938075,"type":"village"},{"id":"267762625","name":"Bellaghy","lat":54.8081197,"lon":-6.518436,"type":"village"},{"id":"267762626","name":"Ballynure","lat":54.7724456,"lon":-5.951582,"type":"village"},{"id":"267762631","name":"Conlig","lat":54.6294391,"lon":-5.6772097,"type":"village"},{"id":"267762635","name":"Glenavy","lat":54.5916242,"lon":-6.2131694,"type":"village"},{"id":"267762637","name":"Markethill","lat":54.2968976,"lon":-6.5209906,"type":"village"},{"id":"267762648","name":"Lawrencetown","lat":54.3805238,"lon":-6.3085755,"type":"village"},{"id":"267762655","name":"Cushendun","lat":55.1252468,"lon":-6.0423483,"type":"village"},{"id":"267762658","name":"Hamiltons Bawn","lat":54.3416751,"lon":-6.5440119,"type":"village"},{"id":"267762659","name":"The Birches","lat":54.4824066,"lon":-6.5467995,"type":"village"},{"id":"267762667","name":"Lisnarrick","lat":54.4769243,"lon":-7.6987719,"type":"village"},{"id":"267762669","name":"Tobermore","lat":54.8119443,"lon":-6.7076173,"type":"village"},{"id":"267762672","name":"Killen","lat":54.6734297,"lon":-7.6274643,"type":"village"},{"id":"267762675","name":"Augher","lat":54.4283084,"lon":-7.1320426,"type":"village"},{"id":"267762676","name":"Seskinore","lat":54.5174818,"lon":-7.2538019,"type":"village"},{"id":"267762677","name":"Magherafelt","lat":54.7544757,"lon":-6.6078073,"type":"town"},{"id":"267762680","name":"Donaghmore","lat":54.5311658,"lon":-6.8128776,"type":"village"},{"id":"267762682","name":"Toome","lat":54.7551198,"lon":-6.4621064,"type":"village"},{"id":"267762683","name":"Bangor","lat":54.662595,"lon":-5.6679127,"type":"city"},{"id":"267762686","name":"Ballymartin","lat":54.0808471,"lon":-5.9500816,"type":"village"},{"id":"267762690","name":"Waringsford","lat":54.3741365,"lon":-6.1078407,"type":"village"},{"id":"267762691","name":"Arney","lat":54.2915763,"lon":-7.6785269,"type":"village"},{"id":"267762702","name":"Roslea / Rosslea","lat":54.2397417,"lon":-7.1735134,"type":"village"},