[{"id":"53370352","name":"Port Royal","lat":17.9360762,"lon":-76.8417961,"type":"village"},{"id":"53371112","name":"Kingston","lat":17.9712148,"lon":-76.7928128,"type":"city"},{"id":"246080951","name":"Belmont","lat":18.1537142,"lon":-78.0284161,"type":"village"},{"id":"247716893","name":"Spanish Town","lat":17.9956926,"lon":-76.9540831,"type":"city"},{"id":"290111762","name":"Negril","lat":18.2779531,"lon":-78.3494771,"type":"city"},{"id":"290162360","name":"Savanna-la-Mar","lat":18.2193686,"lon":-78.1326673,"type":"town"},{"id":"290163156","name":"Unity Hall","lat":18.4481907,"lon":-77.9884658,"type":"village"},{"id":"290163159","name":"Hopewell","lat":18.4568429,"lon":-78.0119125,"type":"village"},{"id":"290163161","name":"Elgin Town","lat":18.4450833,"lon":-78.1510037,"type":"village"},{"id":"290163164","name":"Johnson Town","lat":18.4351936,"lon":-78.1680209,"type":"village"},{"id":"290163166","name":"Lucea","lat":18.4472235,"lon":-78.1729253,"type":"town"},{"id":"290163168","name":"Davis Cove","lat":18.413323,"lon":-78.2465098,"type":"village"},{"id":"290163170","name":"Green Island","lat":18.3887509,"lon":-78.2737894,"type":"village"},{"id":"290801759","name":"Ocho Rios","lat":18.4081045,"lon":-77.1011092,"type":"city"},{"id":"290802324","name":"Morant Bay","lat":17.8820832,"lon":-76.4115503,"type":"village"},{"id":"290802760","name":"Old Harbour Bay","lat":17.9071163,"lon":-77.0979339,"type":"village"},{"id":"290802771","name":"Old Harbour","lat":17.9383872,"lon":-77.1134173,"type":"town"},{"id":"290802776","name":"May Pen","lat":17.974637,"lon":-77.2581951,"type":"town"},{"id":"290803148","name":"Whitehouse","lat":18.0908625,"lon":-77.9669634,"type":"village"},{"id":"290803535","name":"Portmore","lat":17.9717917,"lon":-76.8738048,"type":"city"},{"id":"290803556","name":"Mandeville","lat":18.0431254,"lon":-77.50741,"type":"town"},{"id":"300899552","name":"Georges Plain","lat":18.2806362,"lon":-78.1429286,"type":"village"},{"id":"300899909","name":"Kew","lat":18.4390363,"lon":-78.1531126,"type":"village"},{"id":"300899929","name":"Kingsvale","lat":18.3836737,"lon":-78.2027272,"type":"village"},{"id":"300899934","name":"Lances Bay","lat":18.4433462,"lon":-78.2164919,"type":"village"},{"id":"300899935","name":"Dias","lat":18.39746,"lon":-78.1931411,"type":"village"},{"id":"301634808","name":"Frome","lat":18.2914582,"lon":-78.1593887,"type":"town"},{"id":"302639425","name":"Grange Hill","lat":18.3113613,"lon":-78.1824137,"type":"village"},{"id":"302639559","name":"Truro Gate","lat":18.3081454,"lon":-78.150953,"type":"village"},{"id":"306444988","name":"White River","lat":18.4126467,"lon":-77.075693,"type":"village"},{"id":"306444994","name":"Drapers","lat":18.1757734,"lon":-76.4106203,"type":"village"},{"id":"306445095","name":"Port Morant","lat":17.8909629,"lon":-76.3263799,"type":"village"},{"id":"307991945","name":"New Holland","lat":18.1050451,"lon":-77.8228475,"type":"village"},{"id":"307991968","name":"Middle Quarters","lat":18.1029565,"lon":-77.834164,"type":"village"},{"id":"307991972","name":"Luana","lat":18.0643637,"lon":-77.8587864,"type":"village"},{"id":"307991975","name":"Baptist","lat":18.0877325,"lon":-77.8507648,"type":"village"},{"id":"307992103","name":"Santa Cruz","lat":18.0530404,"lon":-77.6996418,"type":"town"},{"id":"309714746","name":"Clarendon Park","lat":17.9915566,"lon":-77.3713203,"type":"village"},{"id":"309714750","name":"Curatoe Hill","lat":17.9595856,"lon":-77.256501,"type":"village"},{"id":"309714803","name":"Whitney Turn","lat":18.0324131,"lon":-77.392982,"type":"village"},{"id":"309714869","name":"Pepper","lat":18.0241197,"lon":-77.6063233,"type":"village"},{"id":"309714888","name":"Wilton","lat":18.0583037,"lon":-77.6568448,"type":"village"},{"id":"309715173","name":"Cambridge","lat":18.062835,"lon":-77.8906476,"type":"village"},{"id":"309715178","name":"Sandy Ground","lat":18.053438,"lon":-77.8995526,"type":"village"},{"id":"309715188","name":"Crawford","lat":18.0425216,"lon":-77.9096479,"type":"village"},{"id":"309715195","name":"Bluefields","lat":18.1665035,"lon":-78.0230925,"type":"village"},{"id":"332059901","name":"Harding Hall","lat":18.3975476,"lon":-78.2647373,"type":"village"},{"id":"636787852","name":"Accompong","lat":18.2256769,"lon":-77.7552172,"type":"village"},{"id":"641208237","name":"Moneague","lat":18.2732776,"lon":-77.1125298,"type":"village"},{"id":"641278439","name":"Bog Walk","lat":18.1028531,"lon":-77.0058453,"type":"village"},{"id":"818347790","name":"Hellshire","lat":17.8995728,"lon":-76.8969704,"type":"village"},{"id":"838967332","name":"Fairy Hill","lat":18.1647527,"lon":-76.3718784,"type":"village"},{"id":"838967448","name":"Long Bay","lat":18.1060022,"lon":-76.3189878,"type":"village"},{"id":"974287187","name":"Hampton Court","lat":17.9126675,"lon":-76.2669198,"type":"village"},{"id":"974287190","name":"Duckendfield","lat":17.9223822,"lon":-76.2588428,"type":"village"},{"id":"974287221","name":"Dalvey","lat":17.9107072,"lon":-76.249613,"type":"village"},{"id":"974293660","name":"Stokes Hall","lat":17.9249398,"lon":-76.2831766,"type":"village"},{"id":"974300722","name":"Arcadia","lat":17.9211505,"lon":-76.3047057,"type":"village"},{"id":"1338118013","name":"Sandy Bay","lat":18.4496132,"lon":-78.0767186,"type":"village"},{"id":"1890020100","name":"Albert Town","lat":18.293758,"lon":-77.5416404,"type":"village"},{"id":"1891429623","name":"Alligator Pond","lat":17.8698599,"lon":-77.566115,"type":"town"},{"id":"2521566318","name":"Linstead","lat":18.136603,"lon":-77.0304484,"type":"village"},{"id":"2630160349","name":"Malvern","lat":17.9728317,"lon":-77.7015869,"type":"village"},{"id":"2742657194","name":"Central Village","lat":17.9985014,"lon":-76.9161985,"type":"village"},{"id":"2937739044","name":"Colgate","lat":18.361317,"lon":-77.0904014,"type":"village"},{"id":"3126227601","name":"Gordon Town","lat":18.036453,"lon":-76.7189455,"type":"village"},{"id":"3201267865","name":"Nine Mile","lat":18.2970016,"lon":-77.2811943,"type":"village"},{"id":"3239873152","name":"Troy","lat":18.2480058,"lon":-77.6111486,"type":"village"},{"id":"3240137441","name":"Clark's Town","lat":18.4184249,"lon":-77.543268,"type":"village"},{"id":"3244514624","name":"Maggotty","lat":18.159508,"lon":-77.7624541,"type":"village"},{"id":"3246092083","name":"Balaclava","lat":18.170981,"lon":-77.6481203,"type":"village"},{"id":"3246855659","name":"Junction","lat":17.906319,"lon":-77.6081948,"type":"village"},{"id":"3248712464","name":"Southfield","lat":17.8849494,"lon":-77.6767903,"type":"village"},{"id":"3337265433","name":"Brown's Town","lat":18.3927895,"lon":-77.3676763,"type":"town"},{"id":"3356937893","name":"Seaforth","lat":17.9411419,"lon":-76.4592658,"type":"village"},{"id":"3356984258","name":"Trinityville","lat":17.962309,"lon":-76.5247092,"type":"village"},{"id":"3356994293","name":"Danvers Pen","lat":17.9346059,"lon":-76.4780444,"type":"village"},{"id":"3356994299","name":"Ramble","lat":17.9773558,"lon":-76.6191449,"type":"village"},{"id":"3356994301","name":"South Haven","lat":17.8769775,"lon":-76.5822517,"type":"village"},{"id":"3356997526","name":"Bull Bay","lat":17.9444836,"lon":-76.6660524,"type":"village"},{"id":"3356997528","name":"Eleven Mile","lat":17.932267,"lon":-76.6425624,"type":"village"},{"id":"3357012385","name":"Arntally","lat":18.0101237,"lon":-76.6023922,"type":"village"},{"id":"3357012390","name":"Hagley Gap","lat":18.0177255,"lon":-76.6164221,"type":"village"},{"id":"3357015894","name":"Leith Hall","lat":17.8746411,"lon":-76.3393672,"type":"village"},{"id":"3357015903","name":"Retreat","lat":17.8739202,"lon":-76.3671935,"type":"village"},{"id":"3358585001","name":"White Horses","lat":17.8730805,"lon":-76.4750789,"type":"village"},{"id":"3396985817","name":"Mavis Bank","lat":18.0295057,"lon":-76.6583499,"type":"village"},{"id":"3462635715","name":"Sherwood Content","lat":18.391354,"lon":-77.6273071,"type":"village"},{"id":"3538830723","name":"Chapelton","lat":18.0843845,"lon":-77.266386,"type":"village"},{"id":"3559598745","name":"Rickett's River","lat":18.2917376,"lon":-78.1501769,"type":"village"},{"id":"3634097229","name":"Bamboo","lat":18.3911824,"lon":-77.2663689,"type":"village"},{"id":"3662497457","name":"Lime Hall","lat":18.4019654,"lon":-77.2112753,"type":"village"},{"id":"3707332152","name":"Duck Pond","lat":18.1646763,"lon":-77.6121348,"type":"village"},{"id":"3707409358","name":"Contrivance","lat":18.1268822,"lon":-77.505615,"type":"village"},{"id":"3721456695","name":"Jackson Town","lat":18.4123841,"lon":-77.4839923,"type":"village"},{"id":"3766096616","name":"Port Antonio","lat":18.175168,"lon":-76.4474201,"type":"town"},{"id":"3766105257","name":"Montego Bay","lat":18.4724603,"lon":-77.9217357,"type":"city"},{"id":"3767940198","name":"Barrett Town","lat":18.5151949,"lon":-77.8011156,"type":"village"},{"id":"3767940199","name":"Falmouth","lat":18.4929078,"lon":-77.6574376,"type":"town"},{"id":"3767940200","name":"Florence Hall","lat":18.4761796,"lon":-77.6275685,"type":"village"},{"id":"3767940201","name":"Duncans","lat":18.4691988,"lon":-77.5362232,"type":"village"},{"id":"3767940202","name":"Rio Bueno","lat":18.4709288,"lon":-77.4610999,"type":"village"},{"id":"3767970367","name":"Discovery Bay","lat":18.4619125,"lon":-77.3968127,"type":"town"},{"id":"3767970369","name":"Salem","lat":18.4672653,"lon":-77.3040298,"type":"village"},{"id":"3767970370","name":"Priory","lat":18.444021,"lon":-77.2228339,"type":"village"},{"id":"3767970371","name":"St Ann's Bay","lat":18.435614,"lon":-77.2023419,"type":"village"},{"id":"3767970372","name":"Drax Hall","lat":18.4239086,"lon":-77.1730521,"type":"town"},{"id":"3767997588","name":"Rio Nuevo","lat":18.4086396,"lon":-77.0135573,"type":"village"},{"id":"3767997589","name":"Boscobel","lat":18.4051988,"lon":-76.9747403,"type":"village"},{"id":"3767997590","name":"Oracabessa","lat":18.404873,"lon":-76.9466308,"type":"village"},{"id":"3767997591","name":"Galina","lat":18.404649,"lon":-76.8923214,"type":"village"},{"id":"3767997593","name":"Port Maria","lat":18.3732372,"lon":-76.8938277,"type":"town"},{"id":"3767997596","name":"Annotto Bay","lat":18.2724409,"lon":-76.7641977,"type":"town"},{"id":"3767997597","name":"Windsor Castle","lat":18.2593898,"lon":-76.6968527,"type":"village"},{"id":"3767997599","name":"Buff Bay","lat":18.2328871,"lon":-76.6606215,"type":"village"},{"id":"3767997600","name":"Orange Bay","lat":18.2274862,"lon":-76.6140154,"type":"village"},{"id":"3768068693","name":"Hope Bay","lat":18.2022167,"lon":-76.5637812,"type":"village"},{"id":"3768068694","name":"Saint Margaret's Bay","lat":18.1957243,"lon":-76.5168157,"type":"village"},{"id":"3768068695","name":"Burlington","lat":18.2002395,"lon":-76.5005454,"type":"village"},{"id":"3768068696","name":"Bryan's Bay","lat":18.1938183,"lon":-76.4739164,"type":"village"},{"id":"3776971566","name":"Little London","lat":18.2454241,"lon":-78.214654,"type":"town"},{"id":"3788497249","name":"Albion","lat":17.8853166,"lon":-76.6052797,"type":"village"},{"id":"3789201278","name":"Yallahs","lat":17.8736394,"lon":-76.5620736,"type":"village"},{"id":"3789614911","name":"East Prospect","lat":17.8704261,"lon":-76.34898,"type":"village"},{"id":"3821191243","name":"Guys Hill","lat":18.2471593,"lon":-76.9967938,"type":"village"},{"id":"3889746118","name":"Kellits","lat":18.1728951,"lon":-77.2309723,"type":"village"},{"id":"3889776930","name":"Lluidas Vale","lat":18.1292392,"lon":-77.1458456,"type":"village"},{"id":"3907034117","name":"Ewarton","lat":18.1781493,"lon":-77.0843612,"type":"village"},{"id":"3915405157","name":"Beeston Spring","lat":18.1452995,"lon":-77.9639491,"type":"village"},{"id":"3951676015","name":"Anchovy","lat":18.4092671,"lon":-77.9335034,"type":"village"},{"id":"3951676016","name":"Bethel Town","lat":18.2947921,"lon":-77.9522526,"type":"town"},{"id":"3951676017","name":"Cambridge","lat":18.3143249,"lon":-77.9018444,"type":"village"},{"id":"3951676018","name":"Cascade","lat":18.3978306,"lon":-78.1029616,"type":"village"},{"id":"3951676019","name":"Petersfield","lat":18.2625672,"lon":-78.0714266,"type":"village"},{"id":"3951685711","name":"Darliston","lat":18.2354047,"lon":-77.9754979,"type":"town"},{"id":"4063540133","name":"Golden Grove (Lydford)","lat":18.3257458,"lon":-77.1465476,"type":"village"},{"id":"4063540134","name":"Claremont","lat":18.3325728,"lon":-77.1749067,"type":"village"},{"id":"4063559596","name":"Faith's Pen","lat":18.2382167,"lon":-77.0983449,"type":"village"},{"id":"4366875270","name":"Rocky Point","lat":17.7724771,"lon":-77.259905,"type":"village"},{"id":"4384743365","name":"Lime Tree Lane","lat":18.3828346,"lon":-77.4081758,"type":"village"},{"id":"4603812434","name":"Garth Tomlin","lat":18.1218721,"lon":-77.417897,"type":"village"},{"id":"4603812490","name":"Uriah Daley","lat":18.1177923,"lon":-77.4154454,"type":"village"},{"id":"4753809585","name":"Golden Spring","lat":18.0970307,"lon":-76.8061781,"type":"village"},{"id":"4753809586","name":"Temple Hall","lat":18.1166395,"lon":-76.8243137,"type":"village"},{"id":"4753813118","name":"Lawrence Tavern","lat":18.1277214,"lon":-76.8454603,"type":"village"},{"id":"4919412475","name":"Water Lane","lat":17.8294737,"lon":-77.2661644,"type":"village"},{"id":"4953799379","name":"Highgate","lat":18.2718523,"lon":-76.8896226,"type":"village"},{"id":"4957650477","name":"Islington","lat":18.3095167,"lon":-76.8496678,"type":"village"},{"id":"5001755685","name":"Watt Town","lat":18.3136391,"lon":-77.4117648,"type":"village"},{"id":"5052151583","name":"Whithorn","lat":18.2624873,"lon":-78.0328095,"type":"village"},{"id":"5124626550","name":"Sturge Town","lat":18.4186316,"lon":-77.3169116,"type":"village"},{"id":"5178929973","name":"Jeffrey Town (Victoria Town)","lat":18.2937187,"lon":-77.0042773,"type":"village"},{"id":"5200188429","name":"Richmond","lat":18.2442968,"lon":-76.8906278,"type":"village"},{"id":"5469287439","name":"Red Gal Ring","lat":18.0676957,"lon":-76.7890719,"type":"village"},{"id":"6431648555","name":"Wakefield","lat":18.2208429,"lon":-78.1102451,"type":"village"},{"id":"6434287281","name":"Haddo","lat":18.2930356,"lon":-78.0276872,"type":"village"},{"id":"6434310694","name":"Cave","lat":18.1968271,"lon":-78.0421102,"type":"village"},{"id":"6434310695","name":"Cedar Valley","lat":18.1939385,"lon":-78.0214073,"type":"village"},{"id":"6434453482","name":"Fort William","lat":18.2997547,"lon":-78.0687887,"type":"village"},{"id":"6434611747","name":"Caledonia","lat":18.2539221,"lon":-78.0168856,"type":"village"},{"id":"6434653117","name":"Strawberry","lat":18.3077843,"lon":-78.0890401,"type":"village"},{"id":"6434717105","name":"Mearnsville","lat":18.1826763,"lon":-78.0350869,"type":"village"},{"id":"6436990401","name":"Mount Stewart","lat":18.3051357,"lon":-78.0060113,"type":"village"},{"id":"6437033309","name":"Robins River","lat":18.1378979,"lon":-77.9967814,"type":"village"},{"id":"6438983466","name":"Barneyside","lat":18.2718169,"lon":-77.9681943,"type":"village"},{"id":"6439722341","name":"Friendship Cross","lat":18.27937,"lon":-78.0845822,"type":"village"},{"id":"6439722342","name":"Barham","lat":18.2892719,"lon":-78.1094731,"type":"village"},{"id":"6440741784","name":"Content","lat":18.179307,"lon":-77.9987088,"type":"village"},{"id":"6440742085","name":"Bognie","lat":18.1904581,"lon":-77.9978505,"type":"village"},{"id":"6440759874","name":"New Works","lat":18.1708484,"lon":-77.9693853,"type":"village"},{"id":"6440764332","name":"Bog","lat":18.1479016,"lon":-77.9475405,"type":"village"},{"id":"6440852223","name":"Bigwood","lat":18.2116309,"lon":-77.9891742,"type":"village"},{"id":"6445736360","name":"Kilmarnoch","lat":18.1297527,"lon":-77.9229891,"type":"village"},{"id":"6445782997","name":"Petersville","lat":18.1200256,"lon":-77.9585158,"type":"village"},{"id":"6445783000","name":"Culloden","lat":18.097415,"lon":-77.9727663,"type":"village"},{"id":"6445836552","name":"Petersville Pen","lat":18.1103416,"lon":-77.9624372,"type":"village"},{"id":"6445836553","name":"Whitewood","lat":18.1183323,"lon":-77.9444678,"type":"village"},{"id":"6450360871","name":"Cairn Curran","lat":18.2280357,"lon":-78.0122004,"type":"village"},{"id":"6450391016","name":"Success","lat":18.1655427,"lon":-77.9660098,"type":"village"},{"id":"6450391018","name":"Lenox Bigwoods","lat":18.2050523,"lon":-77.9689966,"type":"village"},{"id":"6450815925","name":"Beaufort","lat":18.2375927,"lon":-77.9561467,"type":"village"},{"id":"6452277801","name":"Clifton","lat":18.2411619,"lon":-77.9830954,"type":"village"},{"id":"6458633229","name":"Enfield","lat":18.2153161,"lon":-77.9601186,"type":"village"},{"id":"6459653953","name":"Delve Bridge","lat":18.275817,"lon":-78.2354719,"type":"village"},{"id":"6459675099","name":"Sheffield","lat":18.2758684,"lon":-78.3037097,"type":"town"},{"id":"6459894639","name":"Little Bay","lat":18.2216328,"lon":-78.2682267,"type":"village"},{"id":"6459894640","name":"Revival","lat":18.2414885,"lon":-78.2930533,"type":"village"},{"id":"6462064089","name":"Bay Road","lat":18.2341521,"lon":-78.1940536,"type":"village"},{"id":"6462498293","name":"Retirement","lat":18.2470829,"lon":-78.3043174,"type":"village"},{"id":"6462498299","name":"Brighton","lat":18.2265863,"lon":-78.2897789,"type":"village"},{"id":"6462881496","name":"Big Bridge","lat":18.2264914,"lon":-78.1578597,"type":"village"},{"id":"6462917109","name":"Mount Airy","lat":18.2526464,"lon":-78.3342972,"type":"village"},{"id":"6462917111","name":"Orange Hill","lat":18.2397233,"lon":-78.3185232,"type":"village"},{"id":"6462934231","name":"Top Hill","lat":18.2514753,"lon":-78.2708207,"type":"village"},{"id":"6462934232","name":"New Broughton","lat":18.2143268,"lon":-78.213599,"type":"village"},{"id":"6465177864","name":"Bath Pen","lat":18.2474126,"lon":-78.1210114,"type":"village"},{"id":"6465177865","name":"Three Mile River","lat":18.260638,"lon":-78.1344171,"type":"village"},{"id":"6465177866","name":"Llandilo","lat":18.2274268,"lon":-78.1480344,"type":"village"},{"id":"6465230083","name":"Banbury","lat":18.2770948,"lon":-78.1158584,"type":"village"},{"id":"6473966506","name":"Fullersfield","lat":18.2838149,"lon":-78.1980408,"type":"village"},{"id":"6473966507","name":"Paul Island","lat":18.2735626,"lon":-78.1929038,"type":"village"},{"id":"6473980966","name":"Blackness","lat":18.3119635,"lon":-78.1276369,"type":"village"},{"id":"6521797881","name":"Midgham Mountain","lat":18.3112752,"lon":-78.2268253,"type":"village"},{"id":"6521858337","name":"Bath Mountain","lat":18.3403425,"lon":-78.0969069,"type":"village"},{"id":"6525445957","name":"Locust Tree","lat":18.3015081,"lon":-78.1077704,"type":"village"},{"id":"6525445958","name":"Mount Grace","lat":18.3184653,"lon":-78.1168864,"type":"village"},{"id":"6525445959","name":"Toll Gate","lat":18.3002771,"lon":-78.1508509,"type":"village"},{"id":"6525535288","name":"Williamsfield","lat":18.32328,"lon":-78.0637681,"type":"village"},{"id":"6528641451","name":"Galloway","lat":18.3069338,"lon":-77.9533368,"type":"village"},{"id":"6528641452","name":"Old Mountain","lat":18.2995795,"lon":-77.9647523,"type":"village"},{"id":"6528641453","name":"Argyle Mountain","lat":18.3105396,"lon":-77.9656321,"type":"village"},{"id":"6528641457","name":"Amity","lat":18.2663332,"lon":-77.9056388,"type":"village"},{"id":"6528666052","name":"Orange Hill","lat":18.2612864,"lon":-77.9936464,"type":"village"},{"id":"6528666057","name":"Wampole","lat":18.2560789,"lon":-77.9807295,"type":"village"},{"id":"6528683673","name":"Chantilly","lat":18.1912251,"lon":-77.9596125,"type":"village"},{"id":"6528683674","name":"Rose Bank","lat":18.1735315,"lon":-78.0113045,"type":"village"},{"id":"6528683675","name":"Brighton","lat":18.1575064,"lon":-78.0147377,"type":"village"},{"id":"6528683676","name":"Old Mountain","lat":18.1629706,"lon":-77.9787747,"type":"village"},{"id":"6528683678","name":"Four Road","lat":18.1551616,"lon":-77.9584972,"type":"village"},{"id":"6528683681","name":"Kings","lat":18.0833557,"lon":-77.9521028,"type":"village"},{"id":"6528683682","name":"Bruces Hill","lat":18.075482,"lon":-77.9548923,"type":"village"},{"id":"6528683683","name":"Tanky Gate","lat":18.0976744,"lon":-77.9520599,"type":"village"},{"id":"6528683684","name":"Salem","lat":18.1429479,"lon":-77.9872934,"type":"village"},{"id":"6528703514","name":"Mount Airy","lat":18.1476913,"lon":-78.012509,"type":"village"},{"id":"6528703515","name":"Cave Mountain","lat":18.210216,"lon":-78.0470903,"type":"village"},{"id":"6528706085","name":"Top","lat":18.1516954,"lon":-77.9718438,"type":"village"},{"id":"6575801017","name":"Christiana","lat":18.1749007,"lon":-77.4920547,"type":"town"},{"id":"6950050184","name":"Mile Gully","lat":18.1377158,"lon":-77.5465679,"type":"village"},{"id":"6969411727","name":"Stettin","lat":18.2798322,"lon":-77.5395888,"type":"village"},{"id":"6969475392","name":"Ulster Spring","lat":18.3090626,"lon":-77.5259256,"type":"village"},{"id":"6969985935","name":"Maroon Town","lat":18.3428656,"lon":-77.7938569,"type":"village"},{"id":"6974433903","name":"West End","lat":18.2642805,"lon":-78.3624745,"type":"village"},{"id":"6980044716","name":"Lyssons","lat":17.878977,"lon":-76.3782513,"type":"village"},{"id":"6983613963","name":"Salt Marsh","lat":18.4919516,"lon":-77.6990247,"type":"village"},{"id":"6985666540","name":"Portland Cottage","lat":17.7673236,"lon":-77.2313977,"type":"village"},{"id":"6985690399","name":"Plowden Hill","lat":17.8811468,"lon":-77.5451303,"type":"village"},{"id":"6985690400","name":"Marley Hill","lat":17.8705887,"lon":-77.5156045,"type":"village"},{"id":"6985894233","name":"Longville Park","lat":17.9122251,"lon":-77.1597719,"type":"village"},{"id":"6985894294","name":"Lionel Town","lat":17.8093723,"lon":-77.2393584,"type":"village"},{"id":"6985894295","name":"Mitchell Town","lat":17.8020789,"lon":-77.2063565,"type":"village"},{"id":"6991071563","name":"Parsonage","lat":18.2579228,"lon":-76.8794918,"type":"village"},{"id":"6992840192","name":"Bath","lat":17.9474419,"lon":-76.3501579,"type":"village"},{"id":"7018397771","name":"Wakefield","lat":18.4151955,"lon":-77.7247203,"type":"village"},{"id":"7019846574","name":"Deeside","lat":18.3923411,"lon":-77.7389145,"type":"village"},{"id":"7020517910","name":"Cave Valley","lat":18.324259,"lon":-78.2711936,"type":"village"},{"id":"7020687246","name":"March Town","lat":18.3445561,"lon":-78.2745731,"type":"village"},{"id":"7021896385","name":"Carisbrook","lat":18.1434993,"lon":-77.7700791,"type":"village"},{"id":"7021896388","name":"Coaker","lat":18.151092,"lon":-77.7379543,"type":"village"},{"id":"7022384107","name":"Spaldings","lat":18.1559958,"lon":-77.4565423,"type":"town"},{"id":"7022384668","name":"Wait-a-Bit","lat":18.2488241,"lon":-77.5177181,"type":"village"},{"id":"7023594569","name":"Cave Valley","lat":18.2263452,"lon":-77.3655188,"type":"village"},{"id":"7023594703","name":"Borobridge","lat":18.1997866,"lon":-77.4235618,"type":"village"},{"id":"7024431631","name":"Hayes","lat":17.8751071,"lon":-77.2400665,"type":"town"},{"id":"7024431644","name":"Gimme-Me-Bit","lat":17.8765315,"lon":-77.3079157,"type":"village"},{"id":"7024431660","name":"Rest","lat":17.8817594,"lon":-77.3544789,"type":"village"},{"id":"7027040784","name":"Porus","lat":18.0355656,"lon":-77.4108267,"type":"village"},{"id":"7033872335","name":"Heartease","lat":17.9039354,"lon":-76.5806294,"type":"village"},{"id":"7033916822","name":"York","lat":17.9339072,"lon":-76.4531171,"type":"village"},{"id":"7040566667","name":"Juno Pen Village","lat":18.2243376,"lon":-76.736691,"type":"village"},{"id":"7040882892","name":"Trout Hall","lat":18.1437414,"lon":-77.3308969,"type":"village"},{"id":"7044483408","name":"Spicy Hill","lat":18.4584018,"lon":-77.5467396,"type":"village"},{"id":"7044483514","name":"Bounty Hall","lat":18.452957,"lon":-77.7075219,"type":"village"},{"id":"7044483520","name":"Martha Brae","lat":18.4720993,"lon":-77.6586735,"type":"village"},{"id":"7045166494","name":"Stony Hill","lat":18.0834049,"lon":-76.7961395,"type":"village"},{"id":"7045166507","name":"Mannings Hill","lat":18.0828796,"lon":-76.8129677,"type":"village"},{"id":"7045166515","name":"Rock Hall","lat":18.0793355,"lon":-76.8805969,"type":"village"},{"id":"7048063203","name":"Stony Hill","lat":18.1809403,"lon":-76.4788771,"type":"village"},{"id":"7050027753","name":"Manchioneal","lat":18.0368102,"lon":-76.2799859,"type":"village"},{"id":"7050484756","name":"Boston","lat":18.1545583,"lon":-76.3546801,"type":"village"},{"id":"7050484878","name":"Priestmans River","lat":18.1357378,"lon":-76.33775,"type":"village"},{"id":"7053192007","name":"Whitehall","lat":17.9542395,"lon":-76.4485574,"type":"village"},{"id":"7057107933","name":"Treasure Beach","lat":17.8803657,"lon":-77.7565098,"type":"village"},{"id":"7057108441","name":"Top Hill","lat":17.8913775,"lon":-77.6450479,"type":"village"},{"id":"7064204217","name":"Flagstaff","lat":18.3419565,"lon":-77.7791102,"type":"village"},{"id":"7064988736","name":"Riversdale","lat":18.1645999,"lon":-76.9653118,"type":"village"},{"id":"7077871857","name":"Kitson Town","lat":18.0179056,"lon":-77.054801,"type":"village"},{"id":"7078205856","name":"Turners Four Paths","lat":18.0606395,"lon":-77.2479737,"type":"village"},{"id":"7080206212","name":"Montpelier","lat":18.3747784,"lon":-77.9316473,"type":"village"},{"id":"7080206218","name":"Mount Carey","lat":18.3943467,"lon":-77.9364967,"type":"village"},{"id":"7087192724","name":"Hamilton Mountain","lat":18.3824757,"lon":-76.9497335,"type":"village"},{"id":"7442844460","name":"Heartease","lat":18.0493041,"lon":-77.482396,"type":"village"},{"id":"7442844461","name":"Royal Flats","lat":18.054537,"lon":-77.4730083,"type":"village"},{"id":"7464802937","name":"Amity Hall","lat":17.8053241,"lon":-77.2604288,"type":"village"},{"id":"7464802938","name":"The Alley","lat":17.8034439,"lon":-77.2712441,"type":"village"},{"id":"8685900883","name":"Point Hill","lat":18.0876218,"lon":-77.1052204,"type":"village"},{"id":"9559032114","name":"Black River","lat":18.0241677,"lon":-77.8480102,"type":"village"},{"id":"9723624489","name":"Endeavour","lat":18.3528995,"lon":-77.426859,"type":"village"},{"id":"9727877953","name":"Shawberry","lat":18.4362835,"lon":-77.3326769,"type":"village"},{"id":"9727877955","name":"Woods Town","lat":18.4417643,"lon":-77.4324551,"type":"village"},{"id":"9740069786","name":"Philadelphia","lat":18.393758,"lon":-77.3220304,"type":"village"},{"id":"9740069795","name":"Lumsden","lat":18.3710077,"lon":-77.231188,"type":"village"},{"id":"9740069796","name":"Ebenezer","lat":18.384544,"lon":-77.2477329,"type":"village"},{"id":"9740069799","name":"Higgin Town","lat":18.383648,"lon":-77.2023928,"type":"village"},{"id":"9740069801","name":"Queenhythe","lat":18.4322776,"lon":-77.4104911,"type":"village"},{"id":"9740069802","name":"Thickets","lat":18.418414,"lon":-77.4280435,"type":"village"},{"id":"9740069803","name":"Keith","lat":18.4102297,"lon":-77.4112422,"type":"village"},{"id":"9740069805","name":"Lime Tree Gardens","lat":18.3387328,"lon":-77.3972732,"type":"village"},{"id":"9740069806","name":"Gibraltar","lat":18.337139,"lon":-77.4300605,"type":"village"},{"id":"9740069810","name":"Caledonia","lat":18.3140961,"lon":-77.4317557,"type":"village"},{"id":"9740069811","name":"Retirement","lat":18.3051021,"lon":-77.3955137,"type":"village"},{"id":"9740069812","name":"Linton Park","lat":18.2859108,"lon":-77.3975307,"type":"village"},{"id":"9740069815","name":"Scarborough","lat":18.322234,"lon":-77.3874241,"type":"village"},{"id":"9740233017","name":"Alexandria","lat":18.308056,"lon":-77.3536927,"type":"village"},{"id":"9740233018","name":"Alva","lat":18.3060596,"lon":-77.3220212,"type":"village"},{"id":"9740233020","name":"Stepney","lat":18.2864201,"lon":-77.2965509,"type":"village"},{"id":"9740233027","name":"Inverness","lat":18.2774144,"lon":-77.3626191,"type":"village"},{"id":"9740233028","name":"Aboukir","lat":18.2571196,"lon":-77.3652155,"type":"village"},{"id":"9740233029","name":"Clarksonville","lat":18.2445259,"lon":-77.3643572,"type":"village"},{"id":"9740233032","name":"Murray Mountain","lat":18.2608895,"lon":-77.3080519,"type":"village"},{"id":"9740233035","name":"Alderton","lat":18.2998056,"lon":-77.2037682,"type":"village"},{"id":"11378533694","name":"Runaway Bay","lat":18.4593532,"lon":-77.3409447,"type":"town"},{"id":"11688146007","name":"Mount Zion","lat":18.5019268,"lon":-77.8187541,"type":"village"},{"id":"11986057060","name":"Spring Village","lat":17.9603622,"lon":-77.0728962,"type":"village"},{"id":"13201769406","name":"Osbourne Store","lat":17.9661743,"lon":-77.3294015,"type":"village"},{"id":"13201769407","name":"Toll Gate","lat":17.9727056,"lon":-77.3610509,"type":"village"},{"id":"13630433054","name":"Garden Hill","lat":18.0856488,"lon":-77.1278668,"type":"village"}]