[{"id":"270873161","name":"إربد","lat":32.5556091,"lon":35.8493023,"type":"city"},{"id":"270873411","name":"المفرق","lat":32.3423619,"lon":36.2075282,"type":"city"},{"id":"270886947","name":"الصفاوي","lat":32.1938273,"lon":37.1252266,"type":"town"},{"id":"271009425","name":"جرش","lat":32.281235,"lon":35.9010013,"type":"town"},{"id":"411050499","name":"وادي موسى","lat":30.3216568,"lon":35.4800889,"type":"town"},{"id":"540031772","name":"سوف","lat":32.3133303,"lon":35.8386891,"type":"town"},{"id":"540032030","name":"كفرنجة","lat":32.2971156,"lon":35.7048916,"type":"town"},{"id":"540032379","name":"عنجرة","lat":32.3065803,"lon":35.7556912,"type":"town"},{"id":"540033030","name":"عجلون","lat":32.3323294,"lon":35.7520522,"type":"town"},{"id":"798842911","name":"العقبة","lat":29.5266483,"lon":35.0075433,"type":"city"},{"id":"798848878","name":"أم السرب","lat":32.4290722,"lon":36.3118687,"type":"town"},{"id":"798849022","name":"المنشية","lat":32.370817,"lon":36.0810338,"type":"town"},{"id":"798858313","name":"بيت رأس","lat":32.5984815,"lon":35.8532938,"type":"town"},{"id":"798877241","name":"الكرك","lat":31.1847222,"lon":35.7047218,"type":"town"},{"id":"798885889","name":"الطفيلة","lat":30.833333,"lon":35.5999999,"type":"town"},{"id":"799012790","name":"النعيمة","lat":32.4202425,"lon":35.9130653,"type":"town"},{"id":"799014302","name":"صويلح","lat":32.025,"lon":35.838056,"type":"town"},{"id":"799014327","name":"عين الباشا","lat":32.06,"lon":35.830833,"type":"town"},{"id":"799097498","name":"مادبا","lat":31.7165941,"lon":35.7943856,"type":"city"},{"id":"802530969","name":"منيشير","lat":29.588574,"lon":35.565163,"type":"city"},{"id":"802584976","name":"معان","lat":30.2,"lon":35.7333329,"type":"city"},{"id":"802594289","name":"الشوبك","lat":30.520021,"lon":35.538415,"type":"town"},{"id":"802670833","name":"مدورة","lat":29.3342245,"lon":36.0232178,"type":"town"},{"id":"802701305","name":"صبحا","lat":32.3295617,"lon":36.501545,"type":"town"},{"id":"802822908","name":"الرمثا","lat":32.559167,"lon":36.006944,"type":"city"},{"id":"802833345","name":"الحصن","lat":32.487778,"lon":35.88,"type":"town"},{"id":"802856870","name":"السلط","lat":32.0390779,"lon":35.7269843,"type":"city"},{"id":"802869352","name":"سحاب","lat":31.8786659,"lon":36.0043148,"type":"city"},{"id":"802870056","name":"الرصيفة","lat":32.0174989,"lon":36.0434611,"type":"city"},{"id":"802876374","name":"الجيزة","lat":31.7,"lon":35.95,"type":"town"},{"id":"1506264134","name":"الزرقاء","lat":32.0668425,"lon":36.0885771,"type":"city"},{"id":"1643504896","name":"عمان","lat":31.9515694,"lon":35.9239625,"type":"city"},{"id":"1705984802","name":"ملكا","lat":32.6716674,"lon":35.7507793,"type":"town"},{"id":"2358802644","name":"جابر السرحان","lat":32.5110588,"lon":36.1960556,"type":"town"},{"id":"2859219638","name":"دابوق","lat":31.9880592,"lon":35.8113021,"type":"town"},{"id":"3335695796","name":"قضاء صخرة","lat":32.3722718,"lon":35.8411387,"type":"town"},{"id":"3658518328","name":"Jordan","lat":10.5959639,"lon":122.5877929,"type":"town"},{"id":"3678868875","name":"عراق الأمير","lat":31.9150722,"lon":35.7538951,"type":"town"},{"id":"3801090649","name":"الراشدية","lat":29.731215,"lon":35.282671,"type":"city"},{"id":"4011090994","name":"الزرقاء الجديدة","lat":32.0880545,"lon":36.0964475,"type":"town"},{"id":"4013661913","name":"مدينة الشرق","lat":32.0566025,"lon":36.1209984,"type":"town"},{"id":"4279164543","name":"ضاحية البستان","lat":32.1070106,"lon":36.0549147,"type":"town"},{"id":"4712484430","name":"ساكب","lat":32.2844022,"lon":35.8085641,"type":"city"},{"id":"5434897939","name":"ذيبان","lat":31.4985112,"lon":35.7800943,"type":"town"},{"id":"5434934089","name":"الربة","lat":31.2692159,"lon":35.737769,"type":"town"},{"id":"5866184111","name":"دير أبي سعيد","lat":32.5009109,"lon":35.6838815,"type":"town"},{"id":"6848887836","name":"الطره","lat":32.6394347,"lon":35.9895072,"type":"town"},{"id":"7054842268","name":"سما السرحان","lat":32.4695306,"lon":36.2427479,"type":"town"},{"id":"7057365812","name":"مغير السرحان","lat":32.4588564,"lon":36.1943785,"type":"town"},{"id":"7537653776","name":"الجبيهة","lat":32.0189025,"lon":35.8819325,"type":"town"},{"id":"7549550949","name":"ايدون","lat":32.5107028,"lon":35.8558559,"type":"town"},{"id":"7549550970","name":"الهاشمية الزرقاء","lat":32.137201,"lon":36.1199412,"type":"town"},{"id":"7549551005","name":"الضليل","lat":32.1308076,"lon":36.2715615,"type":"town"},{"id":"7549551008","name":"الصريح","lat":32.5043316,"lon":35.8959286,"type":"town"},{"id":"8370027941","name":"القويرة","lat":29.8052271,"lon":35.311861,"type":"town"},{"id":"10049987926","name":"النهضة","lat":32.3987857,"lon":36.3256525,"type":"town"},{"id":"10110212309","name":"الزعتري","lat":32.3107262,"lon":36.3012716,"type":"town"},{"id":"10110212310","name":"الحمراء","lat":32.4416783,"lon":36.1487039,"type":"town"},{"id":"10755507768","name":"اشرف ابراهيم","lat":31.956955,"lon":35.9422136,"type":"city_block"},{"id":"12334379665","name":"جديتا","lat":32.4087377,"lon":35.7069568,"type":"town"},{"id":"13076489808","name":"خربیه السوق","lat":31.8701249,"lon":35.9292433,"type":"town"}]