[{"id":"27524177","name":"Бишкек","lat":42.8761424,"lon":74.6036724,"type":"city"},{"id":"240470047","name":"Кант","lat":42.8887612,"lon":74.8500783,"type":"town"},{"id":"244526180","name":"Чалдыбар","lat":42.8216249,"lon":73.5292134,"type":"village"},{"id":"247786262","name":"Балыкчы","lat":42.4570503,"lon":76.1962475,"type":"city"},{"id":"247831442","name":"Түп","lat":42.7336454,"lon":78.3594129,"type":"village"},{"id":"254372964","name":"Нарын","lat":41.4285987,"lon":75.997631,"type":"city"},{"id":"254466792","name":"Манас","lat":40.9298182,"lon":73.00119,"type":"city"},{"id":"254467298","name":"Каракол","lat":42.4917441,"lon":78.396857,"type":"city"},{"id":"254467940","name":"Өзгөн","lat":40.7688144,"lon":73.2986632,"type":"city"},{"id":"271342588","name":"Арчагул","lat":42.5400072,"lon":71.1223316,"type":"village"},{"id":"271351004","name":"Таш-Көмүр","lat":41.3453339,"lon":72.2215389,"type":"town"},{"id":"271657919","name":"Рават","lat":39.8810336,"lon":70.1704742,"type":"village"},{"id":"271659191","name":"Баткен","lat":40.0611852,"lon":70.8200964,"type":"city"},{"id":"271667086","name":"Раззаков","lat":39.8361392,"lon":69.5312303,"type":"town"},{"id":"271667922","name":"Сүлүктү","lat":39.9407091,"lon":69.5711653,"type":"town"},{"id":"273170900","name":"Сары-Таш","lat":39.7282269,"lon":73.2488788,"type":"village"},{"id":"273177653","name":"Гүлчө","lat":40.3118163,"lon":73.4438341,"type":"town"},{"id":"273324584","name":"Куланак","lat":41.3620851,"lon":75.511063,"type":"village"},{"id":"273326113","name":"Жерге-Тал","lat":41.0984332,"lon":73.2267286,"type":"village"},{"id":"274960749","name":"Араван","lat":40.5114586,"lon":72.4998433,"type":"town"},{"id":"276265710","name":"Бостери","lat":42.6630869,"lon":77.1875364,"type":"village"},{"id":"293685105","name":"Согмент","lat":39.8884467,"lon":71.0414191,"type":"village"},{"id":"293689604","name":"Кара-Булак","lat":39.9458541,"lon":70.9307996,"type":"village"},{"id":"295938184","name":"Сузак","lat":40.896861,"lon":72.9119207,"type":"village"},{"id":"295938290","name":"Кара-Суу","lat":40.7068689,"lon":72.8799131,"type":"town"},{"id":"296090207","name":"Көк-Бел","lat":40.2603473,"lon":72.9266182,"type":"village"},{"id":"296104950","name":"Кербен","lat":41.4895819,"lon":71.7545713,"type":"town"},{"id":"296218233","name":"Майлуу-Суу","lat":41.2456995,"lon":72.4508285,"type":"town"},{"id":"296218974","name":"Кочкор-Ата","lat":41.0353883,"lon":72.4833977,"type":"town"},{"id":"296222288","name":"Масы","lat":41.0664656,"lon":72.6405274,"type":"village"},{"id":"297083207","name":"Мырза-Аке","lat":40.753218,"lon":73.4137301,"type":"village"},{"id":"297083268","name":"Кара-Дыйкан","lat":40.7893044,"lon":73.3678668,"type":"village"},{"id":"297083346","name":"Шоро-Башат","lat":40.838858,"lon":73.2678179,"type":"village"},{"id":"297087949","name":"Кёкирим","lat":41.3964913,"lon":73.8909759,"type":"village"},{"id":"297087983","name":"Казарман","lat":41.4033967,"lon":74.0201649,"type":"town"},{"id":"297093268","name":"Чаек","lat":41.9265892,"lon":74.5165241,"type":"village"},{"id":"297094055","name":"Талды-Булак","lat":42.3983709,"lon":72.9995066,"type":"village"},{"id":"297094218","name":"Көпүрө-Базар","lat":42.4791033,"lon":72.9549279,"type":"village"},{"id":"297094905","name":"Талас","lat":42.521995,"lon":72.247693,"type":"city"},{"id":"297095151","name":"Боо-Терек","lat":42.571462,"lon":71.8281359,"type":"village"},{"id":"297095241","name":"Ак-Дөбө","lat":42.5461677,"lon":71.9507088,"type":"village"},{"id":"297095382","name":"Кызыл-Адыр","lat":42.6179268,"lon":71.5880192,"type":"village"},{"id":"297253637","name":"Арстанбап","lat":41.337249,"lon":72.9287274,"type":"village"},{"id":"297272554","name":"Кызыл-Үңкүр","lat":41.3785916,"lon":73.0665082,"type":"village"},{"id":"297329345","name":"Таш-Кыя","lat":42.4630064,"lon":78.3841779,"type":"village"},{"id":"297333447","name":"Ырдык","lat":42.4591802,"lon":78.3024599,"type":"village"},{"id":"297333847","name":"Жети-Өгүз","lat":42.430726,"lon":78.2139717,"type":"village"},{"id":"297333910","name":"Жон-Булак","lat":42.4432245,"lon":78.2543894,"type":"village"},{"id":"297334113","name":"Кызыл-Суу","lat":42.339524,"lon":78.004654,"type":"village"},{"id":"297334496","name":"Жылгыз-Өрүк","lat":42.3169039,"lon":77.9706752,"type":"village"},{"id":"297335199","name":"Алкым","lat":42.4624004,"lon":78.2656918,"type":"village"},{"id":"297335306","name":"Конкино","lat":42.4754338,"lon":78.2751199,"type":"village"},{"id":"297338991","name":"Ак-Суу","lat":42.4996775,"lon":78.5223938,"type":"town"},{"id":"297343184","name":"Боз-Бешик","lat":42.4327692,"lon":77.9485586,"type":"village"},{"id":"297343901","name":"Оргочор","lat":42.3731294,"lon":78.0473711,"type":"village"},{"id":"297346248","name":"Кичи-Жаргылчак","lat":42.2017051,"lon":77.6901518,"type":"village"},{"id":"297346359","name":"Барскоон","lat":42.1579251,"lon":77.6044015,"type":"village"},{"id":"297346519","name":"Тосор","lat":42.1678824,"lon":77.4417641,"type":"village"},{"id":"297346545","name":"Бөкөнбаев","lat":42.1137908,"lon":76.9979291,"type":"village"},{"id":"297349744","name":"Тамчы","lat":42.5646968,"lon":76.6605976,"type":"village"},{"id":"297582382","name":"Михайловка","lat":42.6100871,"lon":78.3335867,"type":"village"},{"id":"297583319","name":"Арал","lat":42.7249494,"lon":78.540782,"type":"village"},{"id":"297583361","name":"Сары-Дөбө","lat":42.7322016,"lon":78.4759654,"type":"village"},{"id":"297583435","name":"Талды-Суу","lat":42.7860806,"lon":78.4990682,"type":"village"},{"id":"297583607","name":"Чоң-Таш","lat":42.7724266,"lon":78.6217094,"type":"village"},{"id":"297583620","name":"Жылуу-Булак","lat":42.7638477,"lon":78.6565527,"type":"village"},{"id":"297583738","name":"Кең-Суу","lat":42.7553335,"lon":78.7273779,"type":"village"},{"id":"297583745","name":"Токтоян","lat":42.7147847,"lon":78.6871203,"type":"village"},{"id":"297584065","name":"Сары-Тологой","lat":42.7247488,"lon":78.7835622,"type":"village"},{"id":"297584908","name":"Ново-Вознесеновка","lat":42.5863308,"lon":78.7459173,"type":"village"},{"id":"297584912","name":"Ичке-Джергез","lat":42.5433417,"lon":78.7102496,"type":"village"},{"id":"297584913","name":"Сары-Камыш","lat":42.5247499,"lon":78.6310758,"type":"village"},{"id":"297584925","name":"Кереге-Таш","lat":42.5176534,"lon":78.5871254,"type":"village"},{"id":"297585213","name":"Липенка","lat":42.5227254,"lon":78.2015366,"type":"village"},{"id":"297590074","name":"Тору-Айгыр","lat":42.496573,"lon":76.425627,"type":"village"},{"id":"297590982","name":"Боролдой","lat":42.7918754,"lon":75.8556547,"type":"village"},{"id":"297591002","name":"Кичи-Кемин","lat":42.7838129,"lon":75.9057798,"type":"village"},{"id":"297591036","name":"Кемин","lat":42.7821487,"lon":75.6894898,"type":"town"},{"id":"297591650","name":"Ивановка","lat":42.8874478,"lon":75.0850242,"type":"village"},{"id":"297592717","name":"Чолпон-Ата","lat":42.6417055,"lon":77.0665164,"type":"town"},{"id":"297595582","name":"Кайыңды","lat":42.8271235,"lon":73.6783687,"type":"town"},{"id":"297721763","name":"Отрадное","lat":42.5898022,"lon":78.6578318,"type":"village"},{"id":"297721874","name":"Ак-Булун","lat":42.6265184,"lon":78.8235496,"type":"village"},{"id":"297802478","name":"Кыргыз-Чек","lat":40.5521491,"lon":72.8772453,"type":"village"},{"id":"297803397","name":"Ноокат","lat":40.2657054,"lon":72.6177976,"type":"town"},{"id":"297803609","name":"Муркут","lat":40.3038423,"lon":72.20695,"type":"village"},{"id":"299433221","name":"Үч-Коргон","lat":40.2399219,"lon":72.0521942,"type":"village"},{"id":"299433239","name":"Кызыл-Кыя","lat":40.2600175,"lon":72.1312353,"type":"city"},{"id":"299464712","name":"Кашгар-Кыштак","lat":40.6212409,"lon":72.8292862,"type":"village"},{"id":"299469136","name":"Октябрьское","lat":41.0431987,"lon":73.1003498,"type":"village"},{"id":"299469667","name":"Кең-Сай","lat":40.7070219,"lon":72.9047204,"type":"village"},{"id":"299725898","name":"Сосновка","lat":42.6742546,"lon":73.9048755,"type":"village"},{"id":"299737990","name":"Кош-Дөбө","lat":41.0857185,"lon":74.2531552,"type":"village"},{"id":"299738707","name":"Учкун","lat":41.381333,"lon":75.3594298,"type":"village"},{"id":"299738920","name":"Ак-Кыя","lat":41.4541137,"lon":74.843126,"type":"village"},{"id":"300254780","name":"Доскулу","lat":42.0330621,"lon":74.9829255,"type":"village"},{"id":"300270565","name":"Ак-Моюн","lat":41.2169161,"lon":76.0522294,"type":"village"},{"id":"300273548","name":"Ача-Каинды","lat":41.142803,"lon":75.8108487,"type":"village"},{"id":"300279689","name":"Достук","lat":41.3765298,"lon":75.6397215,"type":"village"},{"id":"300557141","name":"Конорчок айылы","lat":41.245689,"lon":74.5995638,"type":"village"},{"id":"300558792","name":"Осовиахим","lat":41.2349251,"lon":74.5368874,"type":"village"},{"id":"300559133","name":"Баетов","lat":41.266983,"lon":74.9608587,"type":"village"},{"id":"300601151","name":"Сары-Булак","lat":40.6565685,"lon":73.5298355,"type":"village"},{"id":"300601416","name":"Первое Мая","lat":40.6282027,"lon":73.6794664,"type":"village"},{"id":"300665432","name":"Ылай-Талаа","lat":40.5909315,"lon":73.6027338,"type":"village"},{"id":"300706033","name":"Куршаб","lat":40.6909435,"lon":73.1918727,"type":"village"},{"id":"301134476","name":"Көк-Жаңгак","lat":41.0308503,"lon":73.1978498,"type":"town"},{"id":"301136480","name":"Кутурган","lat":40.9305662,"lon":73.4805401,"type":"village"},{"id":"301335747","name":"Светлая Поляна","lat":42.3505262,"lon":78.0672937,"type":"village"},{"id":"302557300","name":"Ак-Босого","lat":39.812044,"lon":73.2334213,"type":"village"},{"id":"302557835","name":"Кызыл-Алай","lat":39.860451,"lon":73.2832678,"type":"village"},{"id":"302558613","name":"Икизяк","lat":39.7233498,"lon":73.7821638,"type":"village"},{"id":"306215221","name":"Кичи-Каракол","lat":39.9022747,"lon":73.4125685,"type":"village"},{"id":"366218390","name":"Восточный","lat":39.9218717,"lon":69.6501689,"type":"town"},{"id":"366219621","name":"Андарак","lat":39.7642019,"lon":69.4690823,"type":"village"},{"id":"448922232","name":"Таш-Башат","lat":41.467161,"lon":76.397225,"type":"village"},{"id":"487089587","name":"Ак-Талаа","lat":42.1830393,"lon":75.3214305,"type":"village"},{"id":"667065861","name":"Дмитриевка","lat":42.8954264,"lon":74.8996265,"type":"village"},{"id":"667293913","name":"Киршелк","lat":42.8792181,"lon":74.7916586,"type":"village"},{"id":"702032565","name":"Маевка","lat":42.9204613,"lon":74.569485,"type":"village"},{"id":"702561872","name":"Ленин","lat":42.9687025,"lon":74.6574965,"type":"village"},{"id":"702704352","name":"Горная Маевка","lat":42.7091495,"lon":74.7459264,"type":"village"},{"id":"702704366","name":"Үч-Эмчек","lat":42.698466,"lon":74.7700051,"type":"village"},{"id":"702704478","name":"Байтик","lat":42.7381512,"lon":74.5494432,"type":"village"},{"id":"703710745","name":"Норус","lat":42.6993713,"lon":74.7945442,"type":"village"},{"id":"703710787","name":"Ичке-Суу","lat":42.6987798,"lon":74.8023242,"type":"village"},{"id":"703710806","name":"Алмалуу","lat":42.6898084,"lon":74.8394625,"type":"village"},{"id":"707987930","name":"Беш-Күңгөй","lat":42.773785,"lon":74.647659,"type":"village"},{"id":"707988129","name":"Орто-Сай","lat":42.8044971,"lon":74.592626,"type":"village"},{"id":"728569398","name":"Биринчи Май","lat":42.7966199,"lon":75.0092887,"type":"village"},{"id":"728569975","name":"Интернационал","lat":42.791325,"lon":74.9138068,"type":"village"},{"id":"776766673","name":"Кара-Жыгач","lat":42.8099736,"lon":74.7053568,"type":"village"},{"id":"776766686","name":"Сары-Жон","lat":42.8038769,"lon":74.7463476,"type":"village"},{"id":"830474940","name":"Суусамыр","lat":42.181507,"lon":73.958956,"type":"village"},{"id":"833245554","name":"Кош-Көл","lat":42.5399759,"lon":76.6130665,"type":"village"},{"id":"833245990","name":"Чок-Тал","lat":42.5895295,"lon":76.7409326,"type":"village"},{"id":"833246388","name":"Чырпыкты","lat":42.5185404,"lon":76.5825276,"type":"village"},{"id":"835619798","name":"Эчки-Башы","lat":41.5703105,"lon":75.8995878,"type":"village"},{"id":"835619848","name":"Эмгекчил","lat":41.5592085,"lon":75.9752161,"type":"village"},{"id":"835696493","name":"Кайыңды","lat":42.7436196,"lon":76.1566858,"type":"village"},{"id":"835696920","name":"Тегирменти","lat":42.766732,"lon":76.1604056,"type":"village"},{"id":"835697057","name":"Шабдан","lat":42.735348,"lon":76.0790772,"type":"village"},{"id":"835697069","name":"Тар-Суу","lat":42.7069811,"lon":76.0604287,"type":"village"},{"id":"837631361","name":"Төмөнкү Серафимовка","lat":42.7639851,"lon":74.8521398,"type":"village"},{"id":"837631409","name":"Туз","lat":42.7914603,"lon":74.8551042,"type":"village"},{"id":"842099513","name":"Жол-Булак","lat":42.740633,"lon":75.8968531,"type":"village"},{"id":"843808032","name":"Төмөнкү Норус","lat":42.9262489,"lon":74.742893,"type":"village"},{"id":"845806542","name":"Базар-Коргон","lat":41.034895,"lon":72.7429412,"type":"town"},{"id":"849461848","name":"Сары-Ой","lat":42.6123786,"lon":76.9456074,"type":"village"},{"id":"849461849","name":"Чон-Сары-Ой","lat":42.6085842,"lon":76.9146078,"type":"village"},{"id":"849461850","name":"Кара-Ой","lat":42.6362044,"lon":77.0226098,"type":"village"},{"id":"849461851","name":"Орнёк","lat":42.5989466,"lon":76.8580566,"type":"village"},{"id":"858944613","name":"Степное","lat":42.9403666,"lon":74.5084062,"type":"village"},{"id":"858944623","name":"Гавриловка","lat":42.8665606,"lon":74.3624369,"type":"village"},{"id":"858944655","name":"Шопоков","lat":42.8575182,"lon":74.3419927,"type":"town"},{"id":"858944716","name":"Романовка","lat":42.8664121,"lon":74.3297715,"type":"village"},{"id":"858944769","name":"Ак-Жол","lat":42.9402305,"lon":74.4895153,"type":"village"},{"id":"868774520","name":"Бек-Абад","lat":40.8445124,"lon":72.9698298,"type":"village"},{"id":"894437127","name":"Чолпонбай","lat":42.6240184,"lon":71.5172468,"type":"village"},{"id":"894437143","name":"Панфилов","lat":42.7892363,"lon":73.680603,"type":"village"},{"id":"894437150","name":"Новопавловка","lat":42.870556,"lon":74.486667,"type":"village"},{"id":"894437175","name":"Шамалды-Сай","lat":41.1986772,"lon":72.1802376,"type":"town"},{"id":"894437209","name":"Бирлик","lat":41.2073278,"lon":75.9481047,"type":"village"},{"id":"894437219","name":"Аманбаев","lat":42.6099202,"lon":71.2045506,"type":"village"},{"id":"895723051","name":"Кен-Суу","lat":41.744845,"lon":74.0759915,"type":"village"},{"id":"896801200","name":"Чым-коргон","lat":42.8163939,"lon":75.5132711,"type":"village"},{"id":"896806144","name":"Ак-Түз","lat":42.8798507,"lon":76.1340562,"type":"village"},{"id":"899489550","name":"Люксембург","lat":42.8888528,"lon":74.8333784,"type":"village"},{"id":"903039847","name":"Кызыл-Кия","lat":42.6556118,"lon":78.8676518,"type":"village"},{"id":"915726121","name":"Маловодное","lat":42.8458884,"lon":74.3799058,"type":"village"},{"id":"970283017","name":"Кара-Коо","lat":42.2124346,"lon":76.6280949,"type":"village"},{"id":"970283555","name":"Кажы-Сай","lat":42.1379017,"lon":77.1829195,"type":"village"},{"id":"970306709","name":"Тоң","lat":42.1557847,"lon":77.0447188,"type":"village"},{"id":"988671413","name":"Исакеев","lat":42.1811387,"lon":75.7712307,"type":"village"},{"id":"994851822","name":"Кара-Жыгач","lat":41.7883198,"lon":73.2794708,"type":"village"},{"id":"1007084204","name":"Кара-Суу","lat":42.1941977,"lon":75.8158824,"type":"village"},{"id":"1007090366","name":"Кара-Саз","lat":42.1980148,"lon":75.8916862,"type":"village"},{"id":"1027471494","name":"Куйручук","lat":41.9760097,"lon":74.8342156,"type":"village"},{"id":"1074931108","name":"Тош-Булак","lat":42.6767386,"lon":74.2394065,"type":"village"},{"id":"1317115354","name":"Григорьевка","lat":42.7168496,"lon":77.4831194,"type":"village"},{"id":"1317127258","name":"Семёновка","lat":42.7250493,"lon":77.5541853,"type":"village"},{"id":"1349850188","name":"Даркан","lat":42.3103256,"lon":77.8876606,"type":"village"},{"id":"1349850190","name":"Саруу","lat":42.3203615,"lon":77.92252,"type":"village"},{"id":"1349916382","name":"Ак-Олен","lat":42.3479284,"lon":76.1669033,"type":"village"},{"id":"1359649163","name":"Кызыл-Oй","lat":41.9504741,"lon":74.1642337,"type":"village"},{"id":"1359649195","name":"Миң-Куш","lat":41.6733436,"lon":74.4541275,"type":"village"},{"id":"1360223774","name":"Жаны-Арык","lat":40.6507359,"lon":73.111713,"type":"village"},{"id":"1360223775","name":"Кызыл-Сенгир","lat":40.6433259,"lon":73.1417541,"type":"village"},{"id":"1360223776","name":"Старая Покровка","lat":40.6854529,"lon":73.1539721,"type":"village"},{"id":"1361938437","name":"Калинин","lat":41.0894982,"lon":75.6728076,"type":"village"},{"id":"1361938439","name":"Казыбек","lat":41.0356492,"lon":75.5310557,"type":"village"},{"id":"1361938441","name":"Кызыл-Туу","lat":41.0576574,"lon":75.5535553,"type":"village"},{"id":"1361938443","name":"Терек-Суу","lat":41.1184575,"lon":75.7330786,"type":"village"},{"id":"1363448624","name":"Аң-Өстөн","lat":42.4559788,"lon":78.1420437,"type":"village"},{"id":"1363448626","name":"Желе-Төбө","lat":42.4478946,"lon":78.1931474,"type":"village"},{"id":"1363448652","name":"Ичке-Булун","lat":42.5072826,"lon":78.2430576,"type":"village"},{"id":"1363448653","name":"Комсомольское","lat":42.4758936,"lon":78.2373412,"type":"village"},{"id":"1363448654","name":"Мундуз","lat":42.446227,"lon":78.1392247,"type":"village"},{"id":"1363448656","name":"Тилекмат","lat":42.4330725,"lon":78.1509759,"type":"village"},{"id":"1369282083","name":"Алмалык","lat":40.3797129,"lon":72.7162408,"type":"village"},{"id":"1369282133","name":"Жар-Баши","lat":40.2843795,"lon":72.9884241,"type":"village"},{"id":"1369282163","name":"Караван","lat":40.2949292,"lon":72.1847466,"type":"village"},{"id":"1369282169","name":"Көк-Жар","lat":40.2996575,"lon":72.3693165,"type":"village"},{"id":"1369282176","name":"Чарайгыр","lat":40.263894,"lon":72.9868685,"type":"village"},{"id":"1369282177","name":"Жаңы-Ноокат","lat":40.2490329,"lon":72.5469439,"type":"village"},{"id":"1370644619","name":"Кайырма","lat":42.9698915,"lon":74.7002485,"type":"village"},{"id":"1370644706","name":"Молдовановка","lat":42.9883795,"lon":74.7212129,"type":"village"},{"id":"1376572637","name":"Ак-Булун","lat":42.7668279,"lon":78.2259269,"type":"village"},{"id":"1376572689","name":"Балбай","lat":42.7797819,"lon":78.2943638,"type":"village"},{"id":"1376572723","name":"Ак-Булун","lat":42.7796844,"lon":78.2118501,"type":"village"},{"id":"1376572748","name":"Бирлик","lat":42.7404716,"lon":78.4349496,"type":"village"},{"id":"1376572802","name":"Долон","lat":42.7003053,"lon":78.4821364,"type":"village"},{"id":"1376572860","name":"Кош-Дөбө","lat":42.7030575,"lon":78.5204861,"type":"village"},{"id":"1376572894","name":"Курменты","lat":42.7906171,"lon":78.2487254,"type":"village"},{"id":"1376572939","name":"Миң-Булак","lat":42.7273775,"lon":78.5142826,"type":"village"},{"id":"1376572983","name":"Тасма","lat":42.710645,"lon":78.5902461,"type":"village"},{"id":"1376573049","name":"Фрунзе","lat":42.764407,"lon":78.1868567,"type":"village"},{"id":"1376573101","name":"Чон-Тогуз-Бай","lat":42.7189536,"lon":78.6246239,"type":"village"},{"id":"1378041508","name":"Ананьево","lat":42.7398283,"lon":77.6728483,"type":"village"},{"id":"1378041509","name":"Бактуу-Долоноту","lat":42.6555047,"lon":77.1457364,"type":"village"},{"id":"1378041510","name":"Булан-Сегетту","lat":42.6741385,"lon":77.2979279,"type":"village"},{"id":"1378041511","name":"Жаркынбаев","lat":42.7371936,"lon":77.7535916,"type":"village"},{"id":"1378041512","name":"Кароол-Дөбө","lat":42.7715363,"lon":77.7316023,"type":"village"},{"id":"1378041513","name":"Кашат","lat":42.7131546,"lon":77.4515253,"type":"village"},{"id":"1378041514","name":"Кичи-Өрүктү","lat":42.7441086,"lon":77.9828268,"type":"village"},{"id":"1378041515","name":"Кожояр","lat":42.7293004,"lon":77.5339528,"type":"village"},{"id":"1378041516","name":"Корумду","lat":42.6898942,"lon":77.3437933,"type":"village"},{"id":"1378041517","name":"Кутургу","lat":42.7533385,"lon":78.1222893,"type":"village"},{"id":"1378041518","name":"Ой-Булак","lat":42.7493564,"lon":78.0890343,"type":"village"},{"id":"1378041519","name":"Ой-Тал","lat":42.7437444,"lon":78.0073337,"type":"village"},{"id":"1378041520","name":"Орто-Өрүктү","lat":42.7416127,"lon":77.9398366,"type":"village"},{"id":"1378041521","name":"Өрүктү-Хутор","lat":42.7392986,"lon":77.8204796,"type":"village"},{"id":"1378041522","name":"Темир","lat":42.7036287,"lon":77.4180536,"type":"village"},{"id":"1378041523","name":"Чоң-Өрүктү","lat":42.7384276,"lon":77.8480565,"type":"village"},{"id":"1381405010","name":"Бает","lat":42.6213988,"lon":76.9770386,"type":"village"},{"id":"1381405018","name":"Сары-Камыш","lat":42.4937,"lon":76.2856686,"type":"village"},{"id":"1381827494","name":"Кадамжай","lat":40.1302192,"lon":71.728775,"type":"town"},{"id":"1389335636","name":"Айдаркен","lat":39.9464465,"lon":71.3424441,"type":"town"},{"id":"1389335637","name":"Бужум","lat":40.0033037,"lon":70.8323956,"type":"village"},{"id":"1389335638","name":"Орозбеков","lat":40.0594812,"lon":71.6825916,"type":"village"},{"id":"1404219283","name":"Бешик-Жон","lat":41.0459527,"lon":72.7960134,"type":"village"},{"id":"1416885874","name":"Кара-Булак","lat":42.7982839,"lon":75.7489338,"type":"village"},{"id":"1416885875","name":"Кызыл-Октябрь","lat":42.7689826,"lon":75.731262,"type":"village"},{"id":"1420100014","name":"им. Чапаева","lat":40.294366,"lon":72.6633511,"type":"village"},{"id":"1420100015","name":"Кашкалдак","lat":40.2689167,"lon":72.6629473,"type":"village"},{"id":"1420100052","name":"Коммунизм","lat":40.2980947,"lon":72.6869976,"type":"village"},{"id":"1420100053","name":"Учбай","lat":40.3020965,"lon":72.7083431,"type":"village"},{"id":"1430422255","name":"Күнтуу","lat":42.8030445,"lon":74.4511953,"type":"village"},{"id":"1477802074","name":"Биринчи Май","lat":42.9318342,"lon":74.8009393,"type":"village"},{"id":"1480873626","name":"Талды-Суу","lat":39.7033057,"lon":72.9707155,"type":"village"},{"id":"1483379690","name":"Караул-Тёбе","lat":40.531706,"lon":75.9642215,"type":"village"},{"id":"1581921248","name":"Кара-Суу","lat":41.6881479,"lon":72.0540071,"type":"village"},{"id":"1581921276","name":"Кызыл-Туу","lat":41.6788735,"lon":72.0255005,"type":"village"},{"id":"1581921305","name":"Сыны","lat":41.6146516,"lon":72.0447374,"type":"village"},{"id":"1581934335","name":"Ак-Жол","lat":41.5647088,"lon":72.1906485,"type":"village"},{"id":"1581934337","name":"Жаңы-Жол","lat":41.5961874,"lon":72.1207834,"type":"village"},{"id":"1581934343","name":"Кой-Таш","lat":41.5787009,"lon":72.1171941,"type":"village"},{"id":"1582007657","name":"Мукур","lat":41.6176468,"lon":71.8907154,"type":"village"},{"id":"1582008128","name":"Авлетим","lat":41.6424902,"lon":71.9483426,"type":"village"},{"id":"1582680464","name":"Жоон-Күңгөй","lat":41.1628131,"lon":73.3299342,"type":"village"},{"id":"1582762856","name":"Абдираимов","lat":41.0647547,"lon":72.7329871,"type":"village"},{"id":"1604531815","name":"Арсы","lat":42.24935,"lon":75.791142,"type":"village"},{"id":"1604531840","name":"Кара-Күнгөй","lat":42.2037566,"lon":75.9208819,"type":"village"},{"id":"1604531842","name":"Көк-Жар","lat":42.1830387,"lon":75.651489,"type":"village"},{"id":"1622456890","name":"Кара-Алма","lat":41.2096882,"lon":73.3357236,"type":"village"},{"id":"1622456957","name":"Сай","lat":41.2223428,"lon":73.3556341,"type":"village"},{"id":"1628049720","name":"Бирдик","lat":41.4119189,"lon":73.9071306,"type":"village"},{"id":"1639394823","name":"Торкент","lat":41.8396212,"lon":73.1533565,"type":"village"},{"id":"1639511653","name":"Сары-Сөгөт","lat":41.9205245,"lon":73.2594432,"type":"village"},{"id":"1639511730","name":"Бел-Алды","lat":41.9274215,"lon":73.2894839,"type":"village"},{"id":"1639511929","name":"Толук","lat":41.8998452,"lon":73.600706,"type":"village"},{"id":"1639554765","name":"Кызыл-Коргон","lat":41.7267226,"lon":74.1899337,"type":"village"},{"id":"1639554808","name":"Сары-Булун","lat":41.7405255,"lon":74.277953,"type":"village"},{"id":"1639630981","name":"Жетиген","lat":41.6316024,"lon":73.3364527,"type":"village"},{"id":"1639630986","name":"Ак-Жар","lat":41.6143952,"lon":73.3732547,"type":"village"},{"id":"1639631045","name":"Саргата","lat":41.7351007,"lon":73.2004203,"type":"village"},{"id":"1639631048","name":"Кызыл-Өзгөрүш","lat":41.6542964,"lon":73.4151401,"type":"village"},{"id":"1639631092","name":"Жар-Таш","lat":41.7108105,"lon":73.42348,"type":"village"},{"id":"1639631131","name":"Кызыл-Ураан","lat":41.697121,"lon":73.3009852,"type":"village"},{"id":"1639631150","name":"Чеч-Дөбө","lat":41.6615818,"lon":73.4407825,"type":"village"},{"id":"1639631220","name":"Такталык","lat":41.6372998,"lon":73.2758798,"type":"village"},{"id":"1639631222","name":"Бууракан","lat":41.6994281,"lon":73.3931674,"type":"village"},{"id":"1639631231","name":"Ничке-Сай","lat":41.6956412,"lon":73.4325208,"type":"village"},{"id":"1643324491","name":"Ысык-Көл","lat":42.3680371,"lon":77.9006438,"type":"village"},{"id":"1651643899","name":"Көк-Ой","lat":41.8870251,"lon":74.4270859,"type":"village"},{"id":"1651643971","name":"Кызыл-Джылдыз","lat":41.9050497,"lon":74.47716,"type":"village"},{"id":"1651644085","name":"Беш-Терек","lat":41.9100242,"lon":74.4682846,"type":"village"},{"id":"1651644156","name":"Баш-Кууганды","lat":42.0112491,"lon":74.6590004,"type":"village"},{"id":"1651644172","name":"Эпкин","lat":41.9941523,"lon":74.700694,"type":"village"},{"id":"1651644642","name":"Байзак","lat":41.9979829,"lon":74.5855294,"type":"village"},{"id":"1651644648","name":"Түгөл-Сай","lat":41.9893073,"lon":74.759079,"type":"village"},{"id":"1651673229","name":"Кардыдж-Арык","lat":42.0510312,"lon":74.7724772,"type":"village"},{"id":"1651673230","name":"Арал","lat":42.0529432,"lon":74.7580491,"type":"village"},{"id":"1651673294","name":"Кызарт","lat":41.9775874,"lon":74.9492294,"type":"village"},{"id":"1651673311","name":"Чон-Добо","lat":42.0395582,"lon":74.8528061,"type":"village"},{"id":"1651673347","name":"Таш-Добо","lat":42.0312708,"lon":74.7783137,"type":"village"},{"id":"1651684420","name":"Карагай-Булак","lat":42.6446047,"lon":74.9523199,"type":"village"},{"id":"1651806709","name":"Сары-Булак","lat":42.0319328,"lon":74.5182306,"type":"village"},{"id":"1653044810","name":"Көк-Жар","lat":41.4582246,"lon":74.8311096,"type":"village"},{"id":"1659157159","name":"Кара-Булун","lat":41.0943214,"lon":75.5881968,"type":"village"},{"id":"1659157253","name":"Белкырчын","lat":41.1901907,"lon":74.5666252,"type":"village"},{"id":"1659162032","name":"Кара-Бүргөн айылы","lat":41.2194294,"lon":74.7039481,"type":"village"},{"id":"1659274633","name":"Ак-Тал","lat":41.4134044,"lon":75.0506017,"type":"village"},{"id":"1659274638","name":"Жылан-Арык","lat":41.4352759,"lon":75.2235742,"type":"village"},{"id":"1659274642","name":"Кара-Ой","lat":41.4561411,"lon":75.121836,"type":"village"},{"id":"1659303555","name":"Тогуз-Булак","lat":41.5674957,"lon":75.790736,"type":"village"},{"id":"1659303556","name":"Мин-Булак","lat":41.4831528,"lon":75.8531564,"type":"village"},{"id":"1659303560","name":"Эмгек-Талаа","lat":41.3920593,"lon":75.6106869,"type":"village"},{"id":"1659303561","name":"Жалгыз-Терек","lat":41.4631062,"lon":75.7802934,"type":"village"},{"id":"1659303583","name":"Ак-Талаа","lat":41.4175335,"lon":75.6629556,"type":"village"},{"id":"1659303585","name":"Жан-Булак","lat":41.436585,"lon":75.7322976,"type":"village"},{"id":"1659374209","name":"Большевик","lat":41.1661536,"lon":75.9788125,"type":"village"},{"id":"1659374213","name":"1 Мая","lat":41.1741491,"lon":76.0460823,"type":"village"},{"id":"1659439032","name":"Ак-Беит","lat":40.8635835,"lon":75.1445382,"type":"village"},{"id":"1659761592","name":"Гүмкана","lat":41.3150743,"lon":72.9675838,"type":"village"},{"id":"1659761593","name":"Чарбак","lat":41.2525097,"lon":73.006362,"type":"village"},{"id":"1691745682","name":"Гидростроитель","lat":42.8743286,"lon":75.1618028,"type":"village"},{"id":"1691745729","name":"Арал","lat":42.8565329,"lon":75.2019481,"type":"village"},{"id":"1691749511","name":"Искра","lat":42.8124088,"lon":75.4332553,"type":"village"},{"id":"1727919426","name":"Төмөнкү Ала-Арча","lat":42.9278809,"lon":74.6030331,"type":"village"},{"id":"1727919483","name":"Пригородное","lat":42.9035722,"lon":74.5376299,"type":"village"},{"id":"1727919486","name":"Бакай-Ата","lat":42.9017149,"lon":74.6478201,"type":"village"},{"id":"1728091875","name":"Ала-Тоо","lat":42.863783,"lon":74.4780684,"type":"village"},{"id":"1731509940","name":"Селекционное","lat":42.8350572,"lon":74.5224214,"type":"village"},{"id":"1747580656","name":"Орок","lat":42.8117962,"lon":74.5348884,"type":"village"},{"id":"1747580658","name":"Верхний Орок","lat":42.8055309,"lon":74.5220137,"type":"village"},{"id":"1747580721","name":"Кашка-Баш","lat":42.8128823,"lon":74.503882,"type":"village"},{"id":"1747601807","name":"Кашка-Суу","lat":42.6993181,"lon":74.531734,"type":"village"},{"id":"1747601815","name":"Заречное","lat":42.7566934,"lon":74.5733405,"type":"village"},{"id":"1747601816","name":"Бир-Булак","lat":42.7116331,"lon":74.5580626,"type":"village"},{"id":"1747601981","name":"Жал","lat":42.7930843,"lon":74.5074118,"type":"village"},{"id":"1747601993","name":"Чоң-Жар","lat":42.7804004,"lon":74.4583274,"type":"village"},{"id":"1747602020","name":"Таш-Дөбө","lat":42.7255321,"lon":74.57181,"type":"village"},{"id":"1747602024","name":"Байгелди","lat":42.7579065,"lon":74.4915439,"type":"village"},{"id":"1747602064","name":"Арчалы","lat":42.730755,"lon":74.5081521,"type":"village"},{"id":"1747617253","name":"Заводское","lat":42.8232861,"lon":74.0130378,"type":"village"},{"id":"1747617256","name":"Петровка","lat":42.8382462,"lon":74.0372879,"type":"village"},{"id":"1747617261","name":"Кош-Дөбө","lat":42.8658276,"lon":74.0901137,"type":"village"},{"id":"1747617266","name":"Киров","lat":42.7682022,"lon":74.1627341,"type":"village"},{"id":"1747617267","name":"Крупское","lat":42.8002411,"lon":74.2118216,"type":"village"},{"id":"1747617273","name":"Шалта","lat":42.8400293,"lon":74.3361045,"type":"village"},{"id":"1747619126","name":"Кызыл-Дыйкан","lat":42.6769313,"lon":73.9752368,"type":"village"},{"id":"1747619131","name":"Жарды-Суу","lat":42.6739079,"lon":74.0087462,"type":"village"},{"id":"1747619132","name":"Темен-Суу","lat":42.6990185,"lon":74.0212775,"type":"village"},{"id":"1747619135","name":"Чоң-Арык","lat":42.7149124,"lon":74.0096045,"type":"village"},{"id":"1748675249","name":"Новопокровка","lat":42.8707292,"lon":74.7340813,"type":"village"},{"id":"1750118253","name":"Озерное","lat":42.9398905,"lon":74.434209,"type":"village"},{"id":"1750118258","name":"Манас","lat":42.9988158,"lon":74.4378095,"type":"village"},{"id":"1750118260","name":"Комсомольское","lat":42.9468018,"lon":74.469657,"type":"village"},{"id":"1750118272","name":"Фрунзе атындагы","lat":42.9185232,"lon":74.4325782,"type":"village"},{"id":"1750118286","name":"Студенческое","lat":42.9497546,"lon":74.3943835,"type":"village"},{"id":"1750118293","name":"Биринчи Май","lat":42.895388,"lon":74.3431426,"type":"village"},{"id":"1751891213","name":"Ден-Арык","lat":42.7501348,"lon":75.2164207,"type":"village"},{"id":"1751891236","name":"Мээнеткеч","lat":42.7790315,"lon":75.2988434,"type":"village"},{"id":"1752347910","name":"Кара-Дёбё","lat":42.784882,"lon":75.4453077,"type":"village"},{"id":"1752347911","name":"Кош-Коргон","lat":42.7552255,"lon":75.429057,"type":"village"},{"id":"1754551271","name":"Маданият","lat":42.7074146,"lon":75.448518,"type":"village"},{"id":"1754551287","name":"Прогресс","lat":42.7220515,"lon":75.3922418,"type":"village"},{"id":"1754553452","name":"Кошой","lat":42.6877283,"lon":75.3521442,"type":"village"},{"id":"1754553453","name":"Шамшы","lat":42.6989028,"lon":75.3623466,"type":"village"},{"id":"1754553699","name":"Онбир-Джылга","lat":42.6949558,"lon":75.4214079,"type":"village"},{"id":"1755594235","name":"Кызыл-Суу","lat":42.707626,"lon":75.4774641,"type":"village"},{"id":"1756924912","name":"Ак-Бекет","lat":42.8051047,"lon":75.6378405,"type":"village"},{"id":"1756924914","name":"Восточное","lat":42.8066952,"lon":75.4257666,"type":"village"},{"id":"1756924915","name":"Жаңы-Алыш","lat":42.8099196,"lon":75.60694,"type":"village"},{"id":"1756924916","name":"Жаңы-Турмуш","lat":42.7969195,"lon":75.3759759,"type":"village"},{"id":"1756924917","name":"Жаңы-Чек","lat":42.8129123,"lon":75.3536215,"type":"village"},{"id":"1756924918","name":"Кара-Ой","lat":42.6932647,"lon":75.266591,"type":"village"},{"id":"1756924919","name":"Кашкелең","lat":42.7957137,"lon":75.6718108,"type":"village"},{"id":"1756924920","name":"Султан","lat":42.6857365,"lon":75.3163846,"type":"village"},{"id":"1756924922","name":"Акматбек","lat":42.7191034,"lon":75.1931041,"type":"village"},{"id":"1756924923","name":"Подгорное","lat":42.7532384,"lon":75.5440106,"type":"village"},{"id":"1756924924","name":"Сайлык","lat":42.8098971,"lon":75.3816828,"type":"village"},{"id":"1756924926","name":"Сасык-Булак","lat":42.764477,"lon":75.7647831,"type":"village"},{"id":"1756924927","name":"Советское","lat":42.7096709,"lon":75.2319006,"type":"village"},{"id":"1756924928","name":"Талды-Булак","lat":42.7119251,"lon":75.2820718,"type":"village"},{"id":"1756924929","name":"Чапаев","lat":42.7277385,"lon":75.1796201,"type":"village"},{"id":"1756932586","name":"Рот-Фронт","lat":42.7224436,"lon":75.1056686,"type":"village"},{"id":"1756932587","name":"Ак-Сай","lat":42.7500942,"lon":75.0591608,"type":"village"},{"id":"1756932588","name":"Алмалуу","lat":42.7239972,"lon":75.511742,"type":"village"},{"id":"1756932589","name":"Арпа-Тектир","lat":42.6291919,"lon":75.1609999,"type":"village"},{"id":"1756932590","name":"Өтөгөн","lat":42.702607,"lon":75.1464307,"type":"village"},{"id":"1756932591","name":"Борду","lat":42.7305153,"lon":75.5522377,"type":"village"},{"id":"1756932592","name":"Бордунский","lat":42.6552761,"lon":75.5999294,"type":"village"},{"id":"1756932594","name":"Кашка","lat":42.6957232,"lon":75.5712445,"type":"village"},{"id":"1756932595","name":"Советское","lat":42.7145871,"lon":75.1201644,"type":"village"},{"id":"1756932596","name":"Чон-Джар","lat":42.6625034,"lon":75.3874684,"type":"village"},{"id":"1756932597","name":"Юрьевка","lat":42.7187781,"lon":75.0345169,"type":"village"},{"id":"1758400524","name":"Кызыласкер","lat":42.7421559,"lon":75.3336144,"type":"village"},{"id":"1758532554","name":"Кең-Булуң","lat":42.8723009,"lon":75.1335833,"type":"village"},{"id":"1758532596","name":"Чолпон","lat":42.8609974,"lon":75.1402391,"type":"village"},{"id":"1798057093","name":"Октябрь","lat":43.1202719,"lon":74.4949168,"type":"village"},{"id":"1798057095","name":"Жаңы-Жер","lat":43.1074587,"lon":74.3849247,"type":"village"},{"id":"1798245072","name":"Васильевка","lat":43.1006281,"lon":74.5847815,"type":"village"},{"id":"1798245073","name":"Виноградное","lat":43.0980586,"lon":74.5391196,"type":"village"},{"id":"1806847410","name":"Жаңы-Жол","lat":42.7894717,"lon":75.2615895,"type":"village"},{"id":"1806847990","name":"Темир-Канат","lat":42.055307,"lon":76.923122,"type":"village"},{"id":"1806848313","name":"Көл-Төр","lat":42.0917177,"lon":76.6651579,"type":"village"},{"id":"1806848564","name":"Тогуз-Булак","lat":42.0915744,"lon":76.7422983,"type":"village"},{"id":"1806848628","name":"Коңур өлөн","lat":42.1031814,"lon":76.6220709,"type":"village"},{"id":"1806849602","name":"Полтавка","lat":42.8416905,"lon":73.9508684,"type":"village"},{"id":"1806849693","name":"Орто-Суу","lat":42.8788734,"lon":73.9413412,"type":"village"},{"id":"1806849713","name":"Ынтымак","lat":42.4746928,"lon":72.1019627,"type":"village"},{"id":"1806849781","name":"Бакай-Ата","lat":42.4904179,"lon":71.9242329,"type":"village"},{"id":"1815557011","name":"Дачное","lat":42.9426764,"lon":74.7030269,"type":"village"},{"id":"1815557012","name":"Мыкан","lat":42.9389693,"lon":74.6552909,"type":"village"},{"id":"1815905992","name":"Малиновка","lat":42.6994152,"lon":74.5374957,"type":"village"},{"id":"1824122874","name":"Керме-Тоо","lat":40.5120573,"lon":72.7148244,"type":"village"},{"id":"1824122875","name":"Гулбаар-Толойкон","lat":40.5036608,"lon":72.7071251,"type":"village"},{"id":"1857377578","name":"Токмок","lat":42.837655,"lon":75.2951521,"type":"city"},{"id":"1857381743","name":"Орловка","lat":42.7426931,"lon":75.5888436,"type":"town"},{"id":"1857420282","name":"Садовое","lat":42.7650674,"lon":75.3790531,"type":"village"},{"id":"1860233879","name":"Кызыл-Арык","lat":42.7014523,"lon":75.0687313,"type":"village"},{"id":"1860307076","name":"Алга","lat":42.7671389,"lon":75.3149504,"type":"village"},{"id":"1860307077","name":"Виноградное","lat":42.8404852,"lon":75.3399671,"type":"village"},{"id":"1862931579","name":"Гайрат","lat":40.6140596,"lon":72.8663796,"type":"village"},{"id":"1863865682","name":"Баш-Кара-Суу","lat":42.76544,"lon":74.5337732,"type":"village"},{"id":"1863867039","name":"Кызыл-Капчыгай","lat":41.6077959,"lon":71.7959917,"type":"village"},{"id":"1863867040","name":"Жерге-Тал","lat":41.5734393,"lon":71.8111118,"type":"village"},{"id":"1863869638","name":"Токтогул","lat":41.8719363,"lon":72.9378096,"type":"town"},{"id":"1863871363","name":"Кой-Таш","lat":42.7173093,"lon":74.663555,"type":"village"},{"id":"1863871628","name":"Арашан","lat":42.7230093,"lon":74.6294031,"type":"village"},{"id":"1863873240","name":"Кегети","lat":42.6935298,"lon":75.1786031,"type":"village"},{"id":"1863876044","name":"Калыгул","lat":42.767144,"lon":75.2725701,"type":"village"},{"id":"1863895913","name":"Эшперово","lat":42.1232441,"lon":76.8967395,"type":"village"},{"id":"1865210255","name":"Бурана","lat":42.7512375,"lon":75.2688202,"type":"village"},{"id":"1867438936","name":"Ак-Дөбө","lat":42.4581505,"lon":78.1069727,"type":"village"},{"id":"1867449044","name":"Ысык-Көл","lat":42.6012952,"lon":78.1481889,"type":"village"},{"id":"1867456011","name":"Курбу","lat":42.6232609,"lon":78.3917535,"type":"village"},{"id":"1867459814","name":"Тепке","lat":42.6012729,"lon":78.414147,"type":"village"},{"id":"1867462897","name":"Маман","lat":42.5068196,"lon":78.4465592,"type":"village"},{"id":"1867466466","name":"Боз-Учук","lat":42.5659021,"lon":78.7571214,"type":"village"},{"id":"1867476828","name":"Ак-Булак","lat":42.6139212,"lon":78.822283,"type":"village"},{"id":"1867476831","name":"Зындан","lat":42.6410766,"lon":78.8688798,"type":"village"},{"id":"1867476834","name":"Качыбек (Раздольное)","lat":42.6136047,"lon":78.7356728,"type":"village"},{"id":"1867476837","name":"Ак-Чий","lat":42.6509574,"lon":78.8041393,"type":"village"},{"id":"1867479252","name":"Шапак","lat":42.5999673,"lon":78.6807968,"type":"village"},{"id":"1867481119","name":"Орлиное","lat":42.602633,"lon":78.5522167,"type":"village"},{"id":"1867482483","name":"Чолпон","lat":42.6355812,"lon":78.4759457,"type":"village"},{"id":"1867486741","name":"Тогуз-Булак","lat":42.6852533,"lon":78.3047126,"type":"village"},{"id":"1867489657","name":"Боз-Булун","lat":42.5801964,"lon":78.3724695,"type":"village"},{"id":"1867491034","name":"Кара-Жал","lat":42.576284,"lon":78.4386869,"type":"village"},{"id":"1867492385","name":"Тегизчил","lat":42.5646361,"lon":78.4212199,"type":"village"},{"id":"1867493919","name":"Бөрү-Баш","lat":42.5255236,"lon":78.3602927,"type":"village"},{"id":"1867501766","name":"Отуз-Уул","lat":42.5442322,"lon":78.4755259,"type":"village"},{"id":"1867505443","name":"Үч-Кайнар","lat":42.5371519,"lon":78.4627657,"type":"village"},{"id":"1867508176","name":"Жергез","lat":42.5504307,"lon":78.6737114,"type":"village"},{"id":"1867510175","name":"Кайырма-Арык","lat":42.5248156,"lon":78.6563031,"type":"village"},{"id":"1868900001","name":"Аламүдүн","lat":42.9101461,"lon":74.6366453,"type":"village"},{"id":"1872829310","name":"Кара-Талаа","lat":42.3164415,"lon":76.4039785,"type":"village"},{"id":"1879029900","name":"Боз-Адыр","lat":39.9977342,"lon":71.0728239,"type":"village"},{"id":"1879043130","name":"Кызыл-Бел","lat":40.0999091,"lon":70.7412532,"type":"village"},{"id":"1879066976","name":"Самаркандек","lat":39.9983203,"lon":70.5457918,"type":"village"},{"id":"1880258822","name":"Көк-Жар","lat":42.7965678,"lon":74.6522757,"type":"village"},{"id":"1882635276","name":"Ай-Көл","lat":39.7985351,"lon":69.6533032,"type":"village"},{"id":"1882635288","name":"Ак-Булак","lat":39.7995171,"lon":69.5284022,"type":"village"},{"id":"1882635297","name":"Ак-Суу","lat":39.8962996,"lon":69.3712977,"type":"village"},{"id":"1882635306","name":"Алтын-Бешик","lat":39.8116894,"lon":69.614208,"type":"village"},{"id":"1882635313","name":"Кара-Булак","lat":39.8460293,"lon":69.6480371,"type":"village"},{"id":"1882635320","name":"Самат","lat":39.9097201,"lon":69.5067947,"type":"village"},{"id":"1882635344","name":"Чымкен","lat":39.8773207,"lon":69.5027028,"type":"village"},{"id":"1882641980","name":"Көк-Таш","lat":39.7280519,"lon":69.393322,"type":"village"},{"id":"1882641984","name":"Сары-Дөбө","lat":39.7971888,"lon":69.4413277,"type":"village"},{"id":"1882651000","name":"Айбийке","lat":39.8508395,"lon":69.7733175,"type":"village"},{"id":"1882651007","name":"Тогуз-Булак","lat":39.8639131,"lon":69.7474209,"type":"village"},{"id":"1882653144","name":"Катраң","lat":39.8396419,"lon":70.0164675,"type":"village"},{"id":"1882671824","name":"Кара-Суу","lat":39.8708484,"lon":70.0390949,"type":"village"},{"id":"1882675709","name":"Жаңы-Турмуш","lat":39.7968816,"lon":69.9218542,"type":"village"},{"id":"1882688065","name":"Коргон","lat":39.8867816,"lon":69.9449182,"type":"village"},{"id":"1882696051","name":"Үч-Булак","lat":39.9782998,"lon":69.9059525,"type":"village"},{"id":"1882699798","name":"Жар-Кыштак","lat":39.9678159,"lon":69.3715431,"type":"village"},{"id":"1882712024","name":"Ак-Татыр","lat":39.9588604,"lon":70.4829931,"type":"village"},{"id":"1882809624","name":"Мурас","lat":40.0255934,"lon":69.9456387,"type":"village"},{"id":"1882809626","name":"Кулунду","lat":40.1067055,"lon":69.6424625,"type":"village"},{"id":"1882818412","name":"Кызыл-Жол","lat":40.0431868,"lon":70.8083791,"type":"village"},{"id":"1882833159","name":"Кара-Бак","lat":40.1588304,"lon":70.8149365,"type":"village"},{"id":"1882853620","name":"Газ","lat":39.8679228,"lon":71.0209593,"type":"village"},{"id":"1882853622","name":"Таян","lat":39.9024902,"lon":71.1056426,"type":"village"},{"id":"1882869384","name":"Жаңы-Коргон","lat":39.9232642,"lon":71.308221,"type":"village"},{"id":"1882869391","name":"Кыштут","lat":39.8475543,"lon":71.1203341,"type":"village"},{"id":"1882869396","name":"Ормош","lat":39.9402392,"lon":71.2580739,"type":"village"},{"id":"1882869400","name":"Сай","lat":39.9053639,"lon":71.2136936,"type":"village"},{"id":"1882869405","name":"Сур","lat":39.9513947,"lon":71.261056,"type":"village"},{"id":"1882869410","name":"Сырт","lat":39.9142018,"lon":71.2343437,"type":"village"},{"id":"1891952120","name":"Ала-Бука","lat":41.4060618,"lon":71.4863421,"type":"village"},{"id":"1903376903","name":"Кызыл-Ата","lat":41.4317264,"lon":71.537359,"type":"village"},{"id":"1903376904","name":"Кызыл-Токой","lat":41.3851594,"lon":71.3270175,"type":"village"},{"id":"1903377414","name":"Жапа-Салды","lat":41.4538578,"lon":71.5755439,"type":"village"},{"id":"1903380170","name":"Ак-Коргон","lat":41.386157,"lon":71.5855936,"type":"village"},{"id":"1903380196","name":"Кашкалак","lat":41.3703034,"lon":71.5645995,"type":"village"},{"id":"1903381056","name":"Ак-Там","lat":41.4696539,"lon":71.6045993,"type":"village"},{"id":"1903389177","name":"Ызар","lat":41.3538574,"lon":71.5118794,"type":"village"},{"id":"1903394421","name":"Баястан","lat":41.3300235,"lon":71.5845847,"type":"village"},{"id":"1904321470","name":"Шекафтар","lat":41.2307298,"lon":71.3197923,"type":"village"},{"id":"1904385291","name":"Теңги","lat":41.2080544,"lon":71.2332708,"type":"village"},{"id":"1904421118","name":"Бирлешкен","lat":41.2568604,"lon":71.1803107,"type":"village"},{"id":"1904435815","name":"Айры-Там","lat":41.1301801,"lon":71.4079242,"type":"village"},{"id":"1904436869","name":"Баймак","lat":41.3246655,"lon":71.505742,"type":"village"},{"id":"1906421880","name":"Лебединовка","lat":42.8855957,"lon":74.6755337,"type":"village"},{"id":"1913652386","name":"Кеңеш","lat":42.9000142,"lon":74.9446324,"type":"village"},{"id":"1916888601","name":"Таш-Мойнок","lat":42.7394221,"lon":74.6555343,"type":"village"},{"id":"1931825852","name":"Шалта","lat":42.8001503,"lon":74.4830164,"type":"village"},{"id":"1933162191","name":"Бель","lat":40.2697147,"lon":72.4692833,"type":"village"},{"id":"1933162200","name":"Кайрагач","lat":40.2642711,"lon":72.5086146,"type":"village"},{"id":"1933164230","name":"Темир-Корук","lat":40.2314795,"lon":72.5861653,"type":"village"},{"id":"1933177217","name":"Борко","lat":40.2456173,"lon":72.6663885,"type":"village"},{"id":"1933179199","name":"Шанкол","lat":40.2263454,"lon":72.7437429,"type":"village"},{"id":"1933182795","name":"Джаны-Базар","lat":40.247894,"lon":72.7612978,"type":"village"},{"id":"1933183797","name":"Тескей-Кожоке","lat":40.2341992,"lon":72.7868527,"type":"village"},{"id":"1933191214","name":"Кунгей-Кожоке","lat":40.2511735,"lon":72.7795598,"type":"village"},{"id":"1933192756","name":"Алтын","lat":42.9569614,"lon":73.7912314,"type":"village"},{"id":"1933192760","name":"Джон-Арык","lat":42.9298969,"lon":73.8769393,"type":"village"},{"id":"1933192762","name":"Эриктуу","lat":42.9092749,"lon":73.8467434,"type":"village"},{"id":"1933197668","name":"Джар-Коргон","lat":40.2381554,"lon":72.81034,"type":"village"},{"id":"1933201024","name":"Чёч-Дёбё","lat":40.2530726,"lon":72.8115701,"type":"village"},{"id":"1933202378","name":"Ай-Тамга","lat":40.2481095,"lon":72.7269477,"type":"village"},{"id":"1933306317","name":"Александровка","lat":42.8576934,"lon":74.2213178,"type":"village"},{"id":"1933319233","name":"Ак-Булак","lat":40.2102481,"lon":72.7006752,"type":"village"},{"id":"1933319234","name":"Кара-Таш","lat":40.2151847,"lon":72.6414779,"type":"village"},{"id":"1933328855","name":"Кётёрмё","lat":40.2269187,"lon":72.6758765,"type":"village"},{"id":"1933340980","name":"Беш-Тал","lat":40.2467564,"lon":72.6282133,"type":"village"},{"id":"1933340981","name":"Нойгут","lat":40.2452111,"lon":72.6093112,"type":"village"},{"id":"1933347598","name":"Гюльстан","lat":40.2648017,"lon":72.5708868,"type":"village"},{"id":"1933347599","name":"Кызыл-Тейит","lat":40.2790465,"lon":72.5627018,"type":"village"},{"id":"1933353152","name":"Ак-Терек","lat":40.2437985,"lon":72.741997,"type":"village"},{"id":"1933363299","name":"Арбын","lat":40.2224943,"lon":72.7330524,"type":"village"},{"id":"1933415543","name":"Жайылма","lat":42.8384129,"lon":73.6548691,"type":"village"},{"id":"1933415554","name":"Жайылма","lat":42.8117171,"lon":74.8334323,"type":"village"},{"id":"1933415614","name":"Кум-Арык","lat":42.7261915,"lon":73.7116703,"type":"village"},{"id":"1933415626","name":"Чон-Далы","lat":42.7980723,"lon":74.8195764,"type":"village"},{"id":"1933415630","name":"Эфиронос","lat":42.8005312,"lon":73.744718,"type":"village"},{"id":"1933808557","name":"Аң-Арык","lat":42.9194904,"lon":74.0688978,"type":"village"},{"id":"1933808574","name":"Предтеченка","lat":42.955274,"lon":74.0567618,"type":"village"},{"id":"1933808601","name":"Сретенка","lat":42.926886,"lon":74.130769,"type":"village"},{"id":"1933833817","name":"Малтабар","lat":42.8917566,"lon":73.9878585,"type":"village"},{"id":"1934838534","name":"Джаны-Дыйкан","lat":40.9597412,"lon":72.9323099,"type":"village"},{"id":"1934853857","name":"Ак-Баш","lat":41.013522,"lon":72.9861921,"type":"village"},{"id":"1934853862","name":"Благовещенка","lat":40.9757907,"lon":72.9685504,"type":"village"},{"id":"1934853864","name":"Бостон","lat":41.0227846,"lon":72.9689812,"type":"village"},{"id":"1934853887","name":"Кызыл-Сенир","lat":41.0390372,"lon":72.9968963,"type":"village"},{"id":"1934853893","name":"Кыр-Джол","lat":40.9759099,"lon":72.9385594,"type":"village"},{"id":"1934886510","name":"Ак-Тоок","lat":41.1816452,"lon":73.0958236,"type":"village"},{"id":"1936236822","name":"Алиаскар Токтоналиев","lat":42.7478689,"lon":75.0169093,"type":"village"},{"id":"1936275372","name":"Будённовка","lat":42.898419,"lon":74.930109,"type":"village"},{"id":"1936275373","name":"Красная Речка","lat":42.9015342,"lon":74.9764982,"type":"village"},{"id":"1936276697","name":"Социал","lat":42.8675601,"lon":74.9057904,"type":"village"},{"id":"1936276698","name":"Социалчы","lat":42.8724083,"lon":74.8911732,"type":"village"},{"id":"1936302714","name":"Котовский","lat":42.9124346,"lon":74.8612724,"type":"village"},{"id":"1936311470","name":"Киров","lat":42.9377754,"lon":74.8515839,"type":"village"},{"id":"1936367979","name":"Бирдик","lat":42.9575566,"lon":74.9033518,"type":"village"},{"id":"1936430374","name":"Жар-Башы","lat":42.759562,"lon":74.9596859,"type":"village"},{"id":"1936450825","name":"Дружба","lat":42.9344983,"lon":74.711087,"type":"village"},{"id":"1936512760","name":"Нурманбет","lat":42.8021306,"lon":74.9783861,"type":"village"},{"id":"1936743618","name":"Сары-Талаа","lat":39.9988755,"lon":71.4393483,"type":"village"},{"id":"1941104449","name":"Кум-Арык","lat":42.5075108,"lon":72.2284672,"type":"village"},{"id":"1941106964","name":"Жон-Арык","lat":42.5086823,"lon":72.33433,"type":"village"},{"id":"1941107603","name":"Көк-Ой","lat":42.5475624,"lon":72.206627,"type":"village"},{"id":"1941108333","name":"Көк-Токой","lat":42.519421,"lon":72.3009248,"type":"village"},{"id":"1941128506","name":"Ак-Жар","lat":42.5137611,"lon":72.3871088,"type":"village"},{"id":"1941128513","name":"Кырк-Казык","lat":42.5061913,"lon":72.3684505,"type":"village"},{"id":"1941128518","name":"Орто-Арык","lat":42.5195464,"lon":72.3446483,"type":"village"},{"id":"1941128521","name":"Таш-Арык","lat":42.5297478,"lon":72.3723249,"type":"village"},{"id":"1941132815","name":"Көк-Кашат","lat":42.4979813,"lon":72.4261702,"type":"village"},{"id":"1941149440","name":"Кёк-Таш","lat":42.4440152,"lon":72.0376173,"type":"village"},{"id":"1941149441","name":"Кызыл-Октябрь","lat":42.4673879,"lon":72.0283687,"type":"village"},{"id":"1941149442","name":"Маданият","lat":42.4612025,"lon":71.9859121,"type":"village"},{"id":"1941149443","name":"Таш-Кудук","lat":42.4797126,"lon":72.0360808,"type":"village"},{"id":"1941149444","name":"Түйтө","lat":42.4927571,"lon":72.1169943,"type":"village"},{"id":"1942352118","name":"Сокулук","lat":42.8565268,"lon":74.2983001,"type":"village"},{"id":"1952660518","name":"Каранай","lat":40.3032683,"lon":72.384705,"type":"village"},{"id":"1952697773","name":"Сарыканды","lat":40.3088313,"lon":72.3689029,"type":"village"},{"id":"1952741577","name":"Джийде","lat":40.2961352,"lon":72.425675,"type":"village"},{"id":"1952764924","name":"Нарай","lat":40.2851114,"lon":72.3499551,"type":"village"},{"id":"1954038802","name":"Жаңы-Бак","lat":39.9888001,"lon":70.5071391,"type":"village"},{"id":"1954038806","name":"Паскы-Арык","lat":40.0016825,"lon":70.5714936,"type":"village"},{"id":"1954390907","name":"Бирлешкен","lat":40.5052136,"lon":72.7312793,"type":"village"},{"id":"1954431555","name":"Кенеш","lat":40.4927444,"lon":72.7092659,"type":"village"},{"id":"1954446873","name":"Нурдар","lat":40.5863373,"lon":72.7793794,"type":"village"},{"id":"1954458283","name":"Алим-Төбө","lat":40.6152243,"lon":72.7672312,"type":"village"},{"id":"1954458285","name":"Андижан-Махалла","lat":40.6412197,"lon":72.7974249,"type":"village"},{"id":"1954462928","name":"Нариман","lat":40.5897664,"lon":72.8176004,"type":"village"},{"id":"1958446297","name":"Кичи Шалта","lat":42.7909741,"lon":74.4313269,"type":"village"},{"id":"1958484591","name":"Новониколаевка","lat":42.8324797,"lon":73.8921142,"type":"village"},{"id":"1958484609","name":"Петропавловка","lat":42.8345722,"lon":73.9169176,"type":"village"},{"id":"1958663199","name":"Садовое","lat":42.9270692,"lon":74.6681071,"type":"village"},{"id":"1958672929","name":"Восток","lat":42.9054503,"lon":74.6745308,"type":"village"},{"id":"1958695588","name":"Кожомкул","lat":42.8752266,"lon":74.4492067,"type":"village"},{"id":"1960479961","name":"Алексеевка","lat":42.8174181,"lon":73.8160619,"type":"village"},{"id":"1960479968","name":"Вознесеновка","lat":42.8171668,"lon":73.7920922,"type":"village"},{"id":"1960479978","name":"Калинин","lat":42.8296112,"lon":73.8583642,"type":"village"},{"id":"1962393115","name":"Меркит","lat":40.3020099,"lon":72.223142,"type":"village"},{"id":"1962413864","name":"Герей-Шорон","lat":40.2924674,"lon":72.2319774,"type":"village"},{"id":"1962422993","name":"Кенеш","lat":40.2999798,"lon":72.2453746,"type":"village"},{"id":"1962435088","name":"Калтак","lat":40.2530664,"lon":72.1034782,"type":"village"},{"id":"1962435108","name":"Сухана","lat":40.2631697,"lon":72.1021829,"type":"village"},{"id":"1962439843","name":"Ак-Булак","lat":40.2730998,"lon":72.1227263,"type":"village"},{"id":"1962460910","name":"Ай-Тамга","lat":40.3160596,"lon":72.2507722,"type":"village"},{"id":"1962460911","name":"Акчал","lat":40.2321398,"lon":72.2977447,"type":"village"},{"id":"1962460912","name":"Арашан","lat":40.3093685,"lon":72.3543108,"type":"village"},{"id":"1962460913","name":"Арык-Бою","lat":40.2018431,"lon":72.2128869,"type":"village"},{"id":"1962460914","name":"Баглан","lat":40.2253453,"lon":72.2286053,"type":"village"},{"id":"1962460915","name":"Джайылма","lat":40.3144571,"lon":72.2919117,"type":"village"},{"id":"1962460916","name":"Додон","lat":40.3160149,"lon":72.2751041,"type":"village"},{"id":"1962460918","name":"Кожо-Арык","lat":40.2491133,"lon":72.3326868,"type":"village"},{"id":"1962460921","name":"Кош-Дебе","lat":40.2420034,"lon":72.2931155,"type":"village"},{"id":"1962460922","name":"Кызыл-Булак","lat":40.2219436,"lon":72.2720956,"type":"village"},{"id":"1962460923","name":"Найман","lat":40.320626,"lon":72.3450636,"type":"village"},{"id":"1962460924","name":"Ничке-Суу","lat":40.2064895,"lon":72.1971595,"type":"village"},{"id":"1962460928","name":"Он Эки-Бель","lat":40.3005966,"lon":72.2950913,"type":"village"},{"id":"1962460930","name":"Таш-Булак","lat":40.2400029,"lon":72.238882,"type":"village"},{"id":"1962460931","name":"Челекчи","lat":40.2167316,"lon":72.1770818,"type":"village"},{"id":"1962460932","name":"Ынтымак","lat":40.2127837,"lon":72.1915363,"type":"village"},{"id":"1962461784","name":"Толман","lat":40.3201753,"lon":72.2274459,"type":"village"},{"id":"1962464462","name":"Джин-Джиген","lat":40.2651188,"lon":72.1938799,"type":"village"},{"id":"1962464466","name":"Сары-Таш","lat":40.3786562,"lon":72.2217433,"type":"village"},{"id":"1962464469","name":"Хауз","lat":40.3764904,"lon":72.2031357,"type":"village"},{"id":"1964092789","name":"Джылдыз","lat":42.6520344,"lon":78.4424871,"type":"village"},{"id":"1964092804","name":"Каракол","lat":42.6032434,"lon":78.5274657,"type":"village"},{"id":"1964158408","name":"Кара-Кыз","lat":42.5350119,"lon":78.6861314,"type":"village"},{"id":"1964559310","name":"Бурма-Суу","lat":42.4630444,"lon":78.3435893,"type":"village"},{"id":"1964559312","name":"Челпек","lat":42.4591366,"lon":78.3552909,"type":"village"},{"id":"1964649064","name":"Калкагар","lat":42.0795443,"lon":76.5672615,"type":"village"},{"id":"1964653887","name":"Ала-Баш","lat":42.1102742,"lon":76.4808514,"type":"village"},{"id":"1964665734","name":"Бар-Булак","lat":42.2487437,"lon":76.5818114,"type":"village"},{"id":"1964710834","name":"Сары-Булуң","lat":42.6702331,"lon":78.1826874,"type":"village"},{"id":"1964719993","name":"Кайнар","lat":42.7806901,"lon":78.5825733,"type":"village"},{"id":"1964727489","name":"Кара-Чункур","lat":42.7527391,"lon":78.6948038,"type":"village"},{"id":"1979386438","name":"Ак-Суу","lat":42.8219634,"lon":74.0979506,"type":"village"},{"id":"1979386439","name":"Садовое","lat":42.8542675,"lon":74.1763655,"type":"village"},{"id":"1979387477","name":"Беловодское","lat":42.831905,"lon":74.0969214,"type":"village"},{"id":"1988432271","name":"Чет-Кызыл","lat":40.1411883,"lon":70.8568721,"type":"village"},{"id":"1988436931","name":"Чоң-Талаа","lat":40.1649586,"lon":70.8641681,"type":"village"},{"id":"1995142159","name":"Ак-Босого","lat":39.9251789,"lon":69.4989044,"type":"village"},{"id":"2000883012","name":"Мраморное","lat":43.0490656,"lon":74.494285,"type":"village"},{"id":"2000918913","name":"Чат-Көл","lat":42.9381204,"lon":74.3485586,"type":"village"},{"id":"2000926863","name":"Жакынкы Арал","lat":42.8902653,"lon":74.2718363,"type":"village"},{"id":"2000952721","name":"Джаны-Пахта","lat":43.138653,"lon":74.2658999,"type":"village"},{"id":"2000952726","name":"Садовое","lat":43.1507103,"lon":74.3277975,"type":"village"},{"id":"2000971506","name":"Төмөнкү Чүй","lat":43.1891776,"lon":74.3512299,"type":"village"},{"id":"2000988623","name":"Камышановка","lat":43.2181077,"lon":74.2414217,"type":"village"},{"id":"2003929969","name":"Төлөк","lat":43.1085373,"lon":74.083071,"type":"village"},{"id":"2003931624","name":"Спартак","lat":43.034835,"lon":74.1314923,"type":"village"},{"id":"2003941625","name":"Кыз-Моло","lat":43.0354466,"lon":74.0738602,"type":"village"},{"id":"2003995934","name":"Беш-Терек","lat":43.0596835,"lon":73.9957136,"type":"village"},{"id":"2004003974","name":"Ставрополовка","lat":43.0161705,"lon":73.85586,"type":"village"},{"id":"2004038955","name":"Нижневосточное","lat":43.1184935,"lon":74.4258391,"type":"village"},{"id":"2013410378","name":"Төрт-Күл","lat":42.1140494,"lon":76.9490738,"type":"village"},{"id":"2013414475","name":"Кара-Суу","lat":42.1014246,"lon":76.9514597,"type":"village"},{"id":"2040579496","name":"Кара-Кулжа","lat":40.6334207,"lon":73.5909741,"type":"village"},{"id":"2052231610","name":"Мамажан","lat":40.6111674,"lon":72.9190295,"type":"village"},{"id":"2083171791","name":"Ат-Башы","lat":43.0285469,"lon":74.6413286,"type":"village"},{"id":"2083171792","name":"Бирдик","lat":43.0524798,"lon":74.6222027,"type":"village"},{"id":"2083171794","name":"Гроздь","lat":43.0440221,"lon":74.6426616,"type":"village"},{"id":"2083171795","name":"Константиновка","lat":43.0284402,"lon":74.673634,"type":"village"},{"id":"2083171796","name":"Луговое","lat":43.0118542,"lon":74.6893555,"type":"village"},{"id":"2083171797","name":"Лесное","lat":43.0639407,"lon":74.6058025,"type":"village"},{"id":"2083171798","name":"Привольное","lat":43.0797371,"lon":74.5467634,"type":"village"},{"id":"2083171799","name":"Рассвет","lat":43.0110981,"lon":74.5689881,"type":"village"},{"id":"2133322750","name":"Ийри-Суу","lat":42.8743743,"lon":73.8361698,"type":"village"},{"id":"2133324959","name":"Кара-Дөбө","lat":42.9033717,"lon":73.7216722,"type":"village"},{"id":"2145083002","name":"Арал","lat":42.9003383,"lon":73.8953523,"type":"village"},{"id":"2153100203","name":"Терек","lat":40.3637504,"lon":74.2192942,"type":"village"},{"id":"2165603144","name":"Кызыл-Булак","lat":40.0430141,"lon":71.7480597,"type":"village"},{"id":"2179624461","name":"Айдарбек","lat":42.9089028,"lon":73.9139969,"type":"village"},{"id":"2179624483","name":"Ак-Башат","lat":42.8842451,"lon":73.9133644,"type":"village"},{"id":"2179624489","name":"Жайыл","lat":42.8825357,"lon":73.8051581,"type":"village"},{"id":"2179624490","name":"Джекен","lat":42.8821845,"lon":73.875082,"type":"village"},{"id":"2179624492","name":"Калдык","lat":42.8702796,"lon":73.7550606,"type":"village"},{"id":"2179624502","name":"Озёрное","lat":42.9698191,"lon":73.6310517,"type":"village"},{"id":"2179624509","name":"Ойронду","lat":43.0047239,"lon":73.6318811,"type":"village"},{"id":"2179624516","name":"Биринчи Май","lat":42.9474771,"lon":73.6409389,"type":"village"},{"id":"2179624524","name":"Фёдоровка","lat":42.846754,"lon":73.8792586,"type":"village"},{"id":"2207863894","name":"Беш-Өрүк","lat":42.9086822,"lon":74.2194188,"type":"village"},{"id":"2270199294","name":"Кепер-Арык","lat":42.6797439,"lon":73.9926092,"type":"village"},{"id":"2272233462","name":"Каарман","lat":40.5777331,"lon":72.9007927,"type":"village"},{"id":"2272233463","name":"Маданият","lat":40.599008,"lon":72.8966406,"type":"village"},{"id":"2272233464","name":"Учкун","lat":40.583898,"lon":72.9178365,"type":"village"},{"id":"2272242630","name":"Агарту","lat":40.6225687,"lon":72.8839203,"type":"village"},{"id":"2272245762","name":"Большевик","lat":40.6457816,"lon":72.8960409,"type":"village"},{"id":"2272253895","name":"Коммунизм","lat":40.6613224,"lon":72.8901348,"type":"village"},{"id":"2272253896","name":"Тарыкчи","lat":40.6568642,"lon":72.8641376,"type":"village"},{"id":"2272253897","name":"Калинин","lat":40.6398328,"lon":72.8695467,"type":"village"},{"id":"2272387043","name":"Отуз-Адыр","lat":40.6028421,"lon":72.9665419,"type":"village"},{"id":"2273451917","name":"Кызыл-Жылдыз","lat":42.750603,"lon":71.5451602,"type":"village"},{"id":"2273473883","name":"Талас","lat":42.7615638,"lon":71.4149616,"type":"village"},{"id":"2273495590","name":"Чоң-Капка","lat":42.7053395,"lon":71.5776005,"type":"village"},{"id":"2274065915","name":"Кызыл-Жар","lat":41.2738747,"lon":72.0044247,"type":"village"},{"id":"2280557185","name":"Кудук-Сай","lat":41.2293223,"lon":72.2088103,"type":"village"},{"id":"2280673510","name":"Кум","lat":41.1792897,"lon":72.1610813,"type":"village"},{"id":"2291431292","name":"Жийде","lat":42.6723092,"lon":71.4099276,"type":"village"},{"id":"2291431293","name":"Жийде","lat":42.7223299,"lon":71.5836714,"type":"village"},{"id":"2291431294","name":"Семетей","lat":42.7368436,"lon":71.6108569,"type":"village"},{"id":"2298658367","name":"Кызыл-Туу","lat":42.1843055,"lon":76.6733156,"type":"village"},{"id":"2300470884","name":"Кызыл-Туу","lat":41.1101753,"lon":72.1922704,"type":"village"},{"id":"2300505533","name":"Ноошкен","lat":41.0089686,"lon":72.1989404,"type":"village"},{"id":"2300551767","name":"Курама","lat":41.002928,"lon":72.2332052,"type":"village"},{"id":"2300671871","name":"Жаңы-Арык","lat":41.0513194,"lon":72.2917528,"type":"village"},{"id":"2300671875","name":"Жеңиш","lat":41.0217553,"lon":72.258809,"type":"village"},{"id":"2300671882","name":"Ууру-Жар","lat":41.0496762,"lon":72.281521,"type":"village"},{"id":"2301151594","name":"Бүргөндү","lat":41.0475413,"lon":72.3265273,"type":"village"},{"id":"2302206210","name":"Жазгак","lat":41.0422075,"lon":72.3916906,"type":"village"},{"id":"2302206211","name":"Чек","lat":41.0434289,"lon":72.3727288,"type":"village"},{"id":"2302532986","name":"Көк-Таш","lat":41.1875988,"lon":72.3981564,"type":"village"},{"id":"2302532989","name":"Кызыл-Кыя","lat":41.1263736,"lon":72.3736218,"type":"village"},{"id":"2302532992","name":"Кылчак-Талаа","lat":41.0907929,"lon":72.3537433,"type":"village"},{"id":"2302561161","name":"Сары-Бээ","lat":41.3083702,"lon":72.4962264,"type":"village"},{"id":"2305275192","name":"Гава","lat":41.2406149,"lon":72.8453011,"type":"village"},{"id":"2310860128","name":"Бостон","lat":41.0365606,"lon":72.4466329,"type":"village"},{"id":"2310860130","name":"Момбеков","lat":41.0441753,"lon":72.4146436,"type":"village"},{"id":"2311169031","name":"Курулуш","lat":41.0478001,"lon":72.5601852,"type":"village"},{"id":"2311169034","name":"Кызыл-Жылдыз","lat":41.0293264,"lon":72.5217743,"type":"village"},{"id":"2311169038","name":"Рахманжан","lat":41.0451307,"lon":72.539641,"type":"village"},{"id":"2311661121","name":"Киров","lat":41.0193423,"lon":72.5940396,"type":"village"},{"id":"2311661123","name":"Ноокен","lat":41.0390866,"lon":72.5878325,"type":"village"},{"id":"2311738632","name":"Аримжан","lat":41.0162292,"lon":72.5515568,"type":"village"},{"id":"2311738638","name":"Чоң-Багыш","lat":40.9808008,"lon":72.5130445,"type":"village"},{"id":"2312763072","name":"Кызыл-Кыргызстан","lat":40.9684465,"lon":72.5444851,"type":"village"},{"id":"2312763073","name":"Сакалды","lat":40.9933766,"lon":72.5458645,"type":"village"},{"id":"2312763074","name":"Хаджир-Абад","lat":40.9460897,"lon":72.6201561,"type":"village"},{"id":"2312991379","name":"Арал","lat":40.9907167,"lon":72.6396777,"type":"village"},{"id":"2312991382","name":"Жаш-Ленин","lat":40.9887105,"lon":72.7012636,"type":"village"},{"id":"2312991384","name":"Баймундуз","lat":41.0018541,"lon":72.661972,"type":"village"},{"id":"2312991386","name":"Кызыл-Ай","lat":40.9949845,"lon":72.6892873,"type":"village"},{"id":"2320437426","name":"Чоң-Курулуш","lat":40.9800522,"lon":72.6653702,"type":"village"},{"id":"2320600162","name":"Бирдик","lat":41.042661,"lon":72.6700522,"type":"village"},{"id":"2320600164","name":"Көк-Айдар","lat":41.0607344,"lon":72.6908898,"type":"village"},{"id":"2321553689","name":"Апыртан","lat":41.0835436,"lon":72.6525045,"type":"village"},{"id":"2321553691","name":"Бөгөт","lat":41.0668946,"lon":72.5972964,"type":"village"},{"id":"2321553692","name":"Жон-Арык","lat":41.0871203,"lon":72.6646151,"type":"village"},{"id":"2321553694","name":"Кызыл-Туу","lat":41.0756881,"lon":72.6305256,"type":"village"},{"id":"2321553695","name":"Эски-Масы","lat":41.1028614,"lon":72.6679379,"type":"village"},{"id":"2323288184","name":"Тоскоол","lat":41.1966554,"lon":72.69219,"type":"village"},{"id":"2329215327","name":"Алма","lat":41.0889694,"lon":72.682754,"type":"village"},{"id":"2329215328","name":"Жаңы-Арык","lat":41.1122488,"lon":72.6976035,"type":"village"},{"id":"2329284936","name":"Аук","lat":41.0844607,"lon":72.7344991,"type":"village"},{"id":"2329284941","name":"Кызыл-Октябрь","lat":41.1006472,"lon":72.7903432,"type":"village"},{"id":"2329284942","name":"Биринчи Май","lat":41.0917562,"lon":72.7645019,"type":"village"},{"id":"2329284944","name":"Шыдыр","lat":41.1059704,"lon":72.7229331,"type":"village"},{"id":"2329436900","name":"Жай-Терек","lat":41.2863955,"lon":72.8866895,"type":"village"},{"id":"2329436902","name":"Кыргыз-Каба","lat":41.1571768,"lon":72.8850389,"type":"village"},{"id":"2329436904","name":"Чкалов","lat":41.2137654,"lon":72.9493109,"type":"village"},{"id":"2330164638","name":"Күмүш-Азиз","lat":40.8842624,"lon":72.9516782,"type":"village"},{"id":"2330419079","name":"Баймундуз","lat":41.0464211,"lon":72.8204182,"type":"village"},{"id":"2330803727","name":"Колот","lat":40.9831896,"lon":72.7769773,"type":"village"},{"id":"2333220261","name":"Тамаша","lat":40.0516351,"lon":71.8789928,"type":"village"},{"id":"2337922784","name":"Достук","lat":40.8693397,"lon":72.8464106,"type":"village"},{"id":"2338025170","name":"Арал","lat":40.8584156,"lon":72.6838169,"type":"village"},{"id":"2338025171","name":"Төш","lat":40.8753902,"lon":72.627861,"type":"village"},{"id":"2338025172","name":"Чаңгыр-Таш","lat":40.8652152,"lon":72.7581687,"type":"village"},{"id":"2346938806","name":"Арал","lat":40.8689084,"lon":72.9176401,"type":"village"},{"id":"2346938807","name":"Балта-Казы","lat":40.8339443,"lon":72.9553369,"type":"village"},{"id":"2346938809","name":"Жийде","lat":40.8409743,"lon":72.9208702,"type":"village"},{"id":"2346938812","name":"Мундуз","lat":40.853474,"lon":72.8938907,"type":"village"},{"id":"2347061351","name":"Комсомол","lat":40.8890544,"lon":73.0027432,"type":"village"},{"id":"2347061352","name":"Масадан","lat":40.899352,"lon":72.9699262,"type":"village"},{"id":"2347061354","name":"Таштак","lat":40.8732109,"lon":73.0445891,"type":"village"},{"id":"2347061355","name":"Үлгү","lat":40.8870598,"lon":72.9892699,"type":"village"},{"id":"2347061359","name":"Чөкө-Дөбө","lat":40.8999017,"lon":73.0047011,"type":"village"},{"id":"2347219765","name":"Дөбөй","lat":40.8645942,"lon":73.0395272,"type":"village"},{"id":"2347219775","name":"Төөлөс","lat":40.880961,"lon":73.05795,"type":"village"},{"id":"2347219776","name":"Кыдырша","lat":40.7315818,"lon":72.9569908,"type":"village"},{"id":"2347457522","name":"Багыш","lat":41.0159231,"lon":73.0893461,"type":"village"},{"id":"2347457525","name":"Орто-Сай","lat":41.0418245,"lon":73.0452962,"type":"village"},{"id":"2347457528","name":"Тайгараев","lat":41.0100998,"lon":73.0357908,"type":"village"},{"id":"2347457530","name":"Кедей-Арык","lat":41.003109,"lon":73.0636193,"type":"village"},{"id":"2347457547","name":"Кызыл-Кыргызстан","lat":40.9970172,"lon":73.0132857,"type":"village"},{"id":"2347457553","name":"Орто-Азия","lat":40.9909984,"lon":72.9585925,"type":"village"},{"id":"2347457559","name":"Сафаровка","lat":41.0353938,"lon":73.121748,"type":"village"},{"id":"2347457562","name":"Таш-Кутчу","lat":40.9776376,"lon":73.0444021,"type":"village"},{"id":"2347457565","name":"Жыгач-Коргон","lat":41.0591266,"lon":73.0797192,"type":"village"},{"id":"2347554636","name":"Таш-Булак","lat":40.9493689,"lon":73.0291718,"type":"village"},{"id":"2348977722","name":"Кеңеш","lat":40.8028781,"lon":73.2383724,"type":"village"},{"id":"2348977725","name":"Кызыл-Кырман","lat":40.8041124,"lon":73.2267567,"type":"village"},{"id":"2348977731","name":"Өзгөрүш","lat":40.796935,"lon":73.2738708,"type":"village"},{"id":"2374518939","name":"Степное","lat":43.1663825,"lon":73.9579626,"type":"village"},{"id":"2384050781","name":"Джар-Ооз","lat":40.6471664,"lon":73.042899,"type":"village"},{"id":"2384050782","name":"Садырбай","lat":40.617771,"lon":73.0354444,"type":"village"},{"id":"2384050783","name":"Сары-Колот","lat":40.6777743,"lon":73.0116668,"type":"village"},{"id":"2384050784","name":"Таш-Арык","lat":40.6535853,"lon":73.0695593,"type":"village"},{"id":"2422558557","name":"Букара","lat":42.7025878,"lon":73.7831913,"type":"village"},{"id":"2422558558","name":"Кара-Булак","lat":42.685987,"lon":73.7992863,"type":"village"},{"id":"2422558559","name":"Орто-Кайырма","lat":42.6871515,"lon":73.8124972,"type":"village"},{"id":"2422558560","name":"Тельман","lat":42.708863,"lon":73.7565633,"type":"village"},{"id":"2422558562","name":"Эркин-Сай","lat":42.6961274,"lon":73.8047719,"type":"village"},{"id":"2426329951","name":"Жолборсту","lat":41.6068761,"lon":72.1997969,"type":"village"},{"id":"2426329952","name":"Кечүү","lat":41.5758322,"lon":72.2671221,"type":"village"},{"id":"2426329953","name":"Коргон-Дөбө","lat":41.5802854,"lon":72.2201632,"type":"village"},{"id":"2426329955","name":"Райкомол","lat":41.5886145,"lon":72.2243537,"type":"village"},{"id":"2426336473","name":"Ак-Колот","lat":41.7770824,"lon":73.922173,"type":"village"},{"id":"2426336474","name":"Итсай","lat":41.646606,"lon":72.51668,"type":"village"},{"id":"2426336475","name":"Кетерме","lat":41.8039474,"lon":73.8986251,"type":"village"},{"id":"2426390503","name":"Жазы-Кечүү","lat":41.6535854,"lon":72.7471196,"type":"village"},{"id":"2429776223","name":"Кара-Суу","lat":42.4837931,"lon":72.4731454,"type":"village"},{"id":"2434735024","name":"Кең-Арал","lat":42.5254532,"lon":72.1172949,"type":"village"},{"id":"2434735027","name":"Өзгөрүш","lat":42.5201329,"lon":72.0528072,"type":"village"},{"id":"2434790703","name":"Кыргызстан","lat":42.5525471,"lon":71.7958103,"type":"village"},{"id":"2434790704","name":"Миң-Булак","lat":42.5652389,"lon":71.8910731,"type":"village"},{"id":"2434790705","name":"Биринчи Май","lat":42.5474324,"lon":71.7527268,"type":"village"},{"id":"2441324196","name":"Атай","lat":41.3430916,"lon":73.8549995,"type":"village"},{"id":"2445279942","name":"Карамык","lat":39.4886544,"lon":71.7951348,"type":"village"},{"id":"2494918109","name":"Жыланды","lat":40.8265682,"lon":73.3155285,"type":"village"},{"id":"2501102341","name":"Кароол","lat":40.7358457,"lon":73.2446143,"type":"village"},{"id":"2501102343","name":"Кызыл-Октябрь","lat":40.7108364,"lon":73.1626001,"type":"village"},{"id":"2501102346","name":"Мырза-Арык","lat":40.7255097,"lon":73.2241891,"type":"village"},{"id":"2501102351","name":"Правда","lat":40.6921695,"lon":73.1202208,"type":"village"},{"id":"2501102354","name":"Шералы","lat":40.752835,"lon":73.2791357,"type":"village"},{"id":"2504295490","name":"Кёк-Мойнок-Первое","lat":42.456561,"lon":76.0482074,"type":"village"},{"id":"2511482003","name":"Шамшы","lat":42.3095762,"lon":75.4464248,"type":"village"},{"id":"2518465207","name":"Кум-Дөбө","lat":42.2185913,"lon":75.546442,"type":"village"},{"id":"2568346227","name":"Өзгөрүш","lat":39.7562816,"lon":70.0540017,"type":"village"},{"id":"2570329198","name":"Достук","lat":41.1352781,"lon":72.1538782,"type":"village"},{"id":"2573469947","name":"Көк-Дөбө","lat":42.766854,"lon":71.4472357,"type":"village"},{"id":"2573469950","name":"Кеңеш","lat":42.7746161,"lon":71.5248575,"type":"village"},{"id":"2573469952","name":"Май","lat":42.7737922,"lon":71.477422,"type":"village"},{"id":"2573469954","name":"Манас","lat":42.7393533,"lon":71.4496577,"type":"village"},{"id":"2573469957","name":"Новодонецкий","lat":42.7854121,"lon":71.4968569,"type":"village"},{"id":"2573469959","name":"Үч-Коргон","lat":42.7790822,"lon":71.5534488,"type":"village"},{"id":"2575314258","name":"Жоон-Дөбө","lat":42.6825225,"lon":71.3086789,"type":"village"},{"id":"2575314259","name":"Жоон-Дөбө станциясы","lat":42.7159265,"lon":71.2617157,"type":"village"},{"id":"2575314260","name":"Куру-Маймак","lat":42.6913395,"lon":71.2494361,"type":"village"},{"id":"2575314261","name":"Маймак","lat":42.6808972,"lon":71.2131063,"type":"village"},{"id":"2575314262","name":"Суулу-Маймак","lat":42.6699268,"lon":71.2913518,"type":"village"},{"id":"2584573330","name":"Бала-Саруу","lat":42.6934003,"lon":71.6123382,"type":"village"},{"id":"2584573331","name":"Жайылган","lat":42.753332,"lon":71.62489,"type":"village"},{"id":"2584573332","name":"Таш-Башат","lat":42.7064954,"lon":71.5320186,"type":"village"},{"id":"2600328930","name":"Ак-Сай","lat":39.8819071,"lon":70.5167276,"type":"village"},{"id":"2604503475","name":"Эшме","lat":39.9533074,"lon":71.3031535,"type":"village"},{"id":"2604504992","name":"Бел","lat":39.9519167,"lon":71.2280274,"type":"village"},{"id":"2604505569","name":"Чечме","lat":39.9441673,"lon":71.2116136,"type":"village"},{"id":"2609106237","name":"Эпкин","lat":42.1777069,"lon":75.4169726,"type":"village"},{"id":"2610844699","name":"Чолпон","lat":42.1982792,"lon":75.4735375,"type":"village"},{"id":"2610845488","name":"Осовиахим","lat":42.2140258,"lon":75.461145,"type":"village"},{"id":"2610846101","name":"Ара-Көл","lat":42.1716657,"lon":75.4656705,"type":"village"},{"id":"2610846214","name":"Орток","lat":42.1998788,"lon":75.3640506,"type":"village"},{"id":"2610846584","name":"Кара-Булун","lat":42.2412394,"lon":75.3156154,"type":"village"},{"id":"2610847807","name":"Чекилдек","lat":42.2011932,"lon":75.5894767,"type":"village"},{"id":"2612031957","name":"Монок","lat":40.6268892,"lon":72.7861421,"type":"village"},{"id":"2612031958","name":"Ак-Таш","lat":40.6690264,"lon":72.816097,"type":"village"},{"id":"2612484253","name":"Чарбак","lat":39.8980852,"lon":71.0757088,"type":"village"},{"id":"2613498202","name":"Чоң-Гара","lat":40.2588367,"lon":71.0095565,"type":"village"},{"id":"2613593373","name":"Совет","lat":40.1670375,"lon":71.3111947,"type":"village"},{"id":"2613671248","name":"Табылгы","lat":39.7595361,"lon":70.9697432,"type":"village"},{"id":"2613671251","name":"Кан","lat":39.7598066,"lon":71.020555,"type":"village"},{"id":"2613671260","name":"Раут","lat":39.7500407,"lon":70.9161849,"type":"village"},{"id":"2613671263","name":"Зардалы","lat":39.6447721,"lon":70.955152,"type":"village"},{"id":"2613680727","name":"Үч-Дөбө","lat":39.9499879,"lon":70.4864507,"type":"village"},{"id":"2613698023","name":"Раззаков","lat":40.1013503,"lon":69.5999569,"type":"village"},{"id":"2613701255","name":"Жети-Таш","lat":40.0315832,"lon":70.0824554,"type":"village"},{"id":"2614514404","name":"Жал","lat":39.9281803,"lon":71.3256815,"type":"village"},{"id":"2614514405","name":"Тескей","lat":39.9026344,"lon":71.2834163,"type":"village"},{"id":"2614522666","name":"Тунук суу","lat":39.7787108,"lon":71.0426858,"type":"village"},{"id":"2614531664","name":"Бөжөй","lat":40.0114671,"lon":71.2138502,"type":"village"},{"id":"2614559208","name":"Алга","lat":40.2357687,"lon":71.5002055,"type":"village"},{"id":"2614559209","name":"Чуңкур-Кыштак","lat":40.2583047,"lon":71.498918,"type":"village"},{"id":"2622463854","name":"Капчыгай","lat":39.8842474,"lon":70.5267912,"type":"village"},{"id":"2623745689","name":"Семиз-Бель","lat":42.2439544,"lon":75.8304297,"type":"village"},{"id":"2623762506","name":"Туз","lat":42.1548724,"lon":75.4998077,"type":"village"},{"id":"2629467405","name":"Сарбан","lat":42.7846281,"lon":74.5183749,"type":"village"},{"id":"2637861108","name":"Айгыр-Жал","lat":41.7332991,"lon":71.0067585,"type":"village"},{"id":"2637861113","name":"Жаңы-Базар","lat":41.6734351,"lon":70.8542104,"type":"village"},{"id":"2637861116","name":"Каныш-Кыя","lat":41.7651528,"lon":71.0638527,"type":"village"},{"id":"2637861121","name":"Курулуш","lat":41.661246,"lon":70.783575,"type":"village"},{"id":"2637861125","name":"Чоң-Кара-Буура","lat":42.5278456,"lon":71.5561687,"type":"village"},{"id":"2645099189","name":"Ак-Таш","lat":41.7020036,"lon":70.6451962,"type":"village"},{"id":"2649631086","name":"Сумсар","lat":41.3082286,"lon":71.2508083,"type":"village"},{"id":"2668382229","name":"Ак-Жар","lat":42.2158281,"lon":75.6114801,"type":"village"},{"id":"2682292690","name":"Терек-Сай","lat":41.5073969,"lon":71.1470249,"type":"village"},{"id":"2684621716","name":"Сафедбулан","lat":41.428819,"lon":71.6539987,"type":"village"},{"id":"2685451902","name":"Ажек","lat":41.1772914,"lon":71.3864217,"type":"village"},{"id":"2705528479","name":"Кашка-Суу","lat":41.5796788,"lon":71.676799,"type":"village"},{"id":"2705528481","name":"Кашка-Суу","lat":41.5656338,"lon":71.6823723,"type":"village"},{"id":"2717593533","name":"Дөбөлүү","lat":41.4491278,"lon":76.2394486,"type":"village"},{"id":"2736387418","name":"Жатан","lat":40.3094066,"lon":72.6840386,"type":"village"},{"id":"2789823242","name":"Жаңы-Арык","lat":42.5313131,"lon":78.3872016,"type":"village"},{"id":"2854616332","name":"Ак-Тектир","lat":41.9617234,"lon":72.5161832,"type":"village"},{"id":"2854616333","name":"Кара-Күңгөй","lat":41.9946459,"lon":72.4807523,"type":"village"},{"id":"2921607661","name":"Булак-Башы","lat":39.9999005,"lon":69.5767134,"type":"village"},{"id":"2959667819","name":"Терек-Суу","lat":41.8868775,"lon":72.6993326,"type":"village"},{"id":"2959685004","name":"Чоң-Арык","lat":41.8909801,"lon":72.6435686,"type":"village"},{"id":"3008092576","name":"Лейлек","lat":39.8782725,"lon":70.0914285,"type":"village"},{"id":"3047182313","name":"Эски-Оочу","lat":40.0806548,"lon":69.6989306,"type":"village"},{"id":"3047185254","name":"Лайлы","lat":40.0434562,"lon":69.7913797,"type":"village"},{"id":"3072444318","name":"Дароот-Коргон","lat":39.5510148,"lon":72.2156061,"type":"village"},{"id":"3072948847","name":"Булак-Башы","lat":40.0888622,"lon":70.814204,"type":"village"},{"id":"3072949726","name":"Базар-Башы","lat":40.0763765,"lon":70.8084411,"type":"village"},{"id":"3078403621","name":"Жер-Казар","lat":42.9426715,"lon":74.7274899,"type":"village"},{"id":"3080149259","name":"Жаңы-Жер","lat":40.1273937,"lon":70.8961249,"type":"village"},{"id":"3081586018","name":"Озгур","lat":40.4493872,"lon":72.8559312,"type":"village"},{"id":"3081985079","name":"Пржевальск пристаны","lat":42.5737508,"lon":78.3108752,"type":"village"},{"id":"3196562683","name":"Согонду","lat":40.1855406,"lon":73.4866029,"type":"village"},{"id":"3196562684","name":"Мурдаш","lat":40.1551229,"lon":73.4631427,"type":"village"},{"id":"3247329891","name":"Сопу-Коргон","lat":40.0141808,"lon":73.4960843,"type":"village"},{"id":"3247359852","name":"Жаны-Кыштак","lat":40.5508048,"lon":72.7275479,"type":"village"},{"id":"3247359853","name":"Коммунист","lat":40.5535882,"lon":72.7195472,"type":"village"},{"id":"3455454859","name":"Шор-Булак","lat":42.2617967,"lon":76.5550255,"type":"village"},{"id":"3474210247","name":"Сын-Таш","lat":42.7024474,"lon":75.0601036,"type":"village"},{"id":"3509680776","name":"Кара-Жыгач","lat":41.6404916,"lon":72.0566145,"type":"village"},{"id":"3529554079","name":"Майдан","lat":40.060288,"lon":72.0853985,"type":"village"},{"id":"3529555699","name":"Кара-Жыгач","lat":40.1247448,"lon":72.091639,"type":"village"},{"id":"3546167156","name":"Шекер","lat":42.5504055,"lon":71.1572944,"type":"village"},{"id":"3546170193","name":"Кайнар","lat":42.5397312,"lon":71.0832941,"type":"village"},{"id":"3546170428","name":"Көк-Сай","lat":42.5101968,"lon":71.122232,"type":"village"},{"id":"3546171985","name":"Ак-Жар","lat":42.5878428,"lon":71.2790085,"type":"village"},{"id":"3546173098","name":"Ак-Башат","lat":42.5400947,"lon":71.3535434,"type":"village"},{"id":"3546173099","name":"Кара-Сай","lat":42.5048656,"lon":71.3330305,"type":"village"},{"id":"3546649781","name":"Козучак","lat":42.4362859,"lon":72.2792337,"type":"village"},{"id":"3546649782","name":"Арашан","lat":42.4627884,"lon":72.242381,"type":"village"},{"id":"3546651410","name":"Жаныбек Баатыр","lat":42.4373352,"lon":72.2906969,"type":"village"},{"id":"3546652783","name":"Атай Огонбаев айылы","lat":42.4587886,"lon":72.3472319,"type":"village"},{"id":"3546652784","name":"Калба","lat":42.4518105,"lon":72.3973094,"type":"village"},{"id":"3546677099","name":"Манас","lat":42.4859388,"lon":72.5270638,"type":"village"},{"id":"3546677101","name":"Чат-Базар","lat":42.486238,"lon":72.5674276,"type":"village"},{"id":"3546693396","name":"Арал","lat":42.5364685,"lon":72.6550819,"type":"village"},{"id":"3546723073","name":"Кара-Ой","lat":42.4594412,"lon":72.7159246,"type":"village"},{"id":"3546727631","name":"Сасык-Булак","lat":42.4672465,"lon":72.6549934,"type":"village"},{"id":"3546776186","name":"Кара-Арча","lat":42.7532731,"lon":71.763822,"type":"village"},{"id":"3546776187","name":"Сөгөт","lat":42.7300804,"lon":71.7834652,"type":"village"},{"id":"3546779596","name":"Арал","lat":42.7017581,"lon":71.7954873,"type":"village"},{"id":"3546779597","name":"Чеч-Дөбө","lat":42.6974153,"lon":71.7936679,"type":"village"},{"id":"3547062871","name":"Кош-Терек","lat":41.3818473,"lon":71.5203857,"type":"village"},{"id":"3547206966","name":"Торук","lat":41.396591,"lon":71.8195664,"type":"village"},{"id":"3547219943","name":"Ак-Дөбө","lat":41.5204629,"lon":71.7500651,"type":"village"},{"id":"3547226289","name":"Улук","lat":41.4189448,"lon":71.8269956,"type":"village"},{"id":"3547240635","name":"Атана","lat":41.3677959,"lon":71.8521864,"type":"village"},{"id":"3547244872","name":"Мундуз","lat":41.4419262,"lon":71.9283213,"type":"village"},{"id":"3547244873","name":"Сары-Кашка","lat":41.4065648,"lon":71.8849051,"type":"village"},{"id":"3547252784","name":"Ак-Сай","lat":41.4641164,"lon":72.0757213,"type":"village"},{"id":"3547252901","name":"Ак-Суу","lat":41.4620385,"lon":72.0918229,"type":"village"},{"id":"3666136853","name":"Жаңы-Абад","lat":40.234036,"lon":71.8850904,"type":"village"},{"id":"3673133840","name":"Ак-Терек","lat":40.8657975,"lon":73.6811541,"type":"village"},{"id":"3719456455","name":"Ак Жар","lat":41.1740226,"lon":75.7880036,"type":"village"},{"id":"3730923901","name":"Верхневосточное","lat":43.1032741,"lon":74.4269044,"type":"village"},{"id":"3750815437","name":"Баш-Булак","lat":40.5099049,"lon":72.9761309,"type":"village"},{"id":"3750815440","name":"Бекжар","lat":40.3599656,"lon":73.1418499,"type":"village"},{"id":"3750815444","name":"Гагарин","lat":40.0288187,"lon":73.5071919,"type":"village"},{"id":"3750815452","name":"Кунэлек","lat":40.1420785,"lon":73.5091522,"type":"village"},{"id":"3750815458","name":"Лангар","lat":40.3965036,"lon":73.1020702,"type":"village"},{"id":"3750815466","name":"Ташкоро","lat":40.2465229,"lon":73.3715386,"type":"village"},{"id":"3750815469","name":"Чий-талаа","lat":39.9680921,"lon":73.4867047,"type":"village"},{"id":"3750815471","name":"Уч-Төбө","lat":39.8971114,"lon":73.4165475,"type":"village"},{"id":"3818340965","name":"Кочкор","lat":42.2131802,"lon":75.7540941,"type":"village"},{"id":"4037640215","name":"Жар-Башы","lat":39.5141541,"lon":72.1181484,"type":"village"},{"id":"4037647581","name":"Кулчу","lat":39.5088689,"lon":72.0468097,"type":"village"},{"id":"4037649391","name":"Жекенди","lat":39.498667,"lon":71.9015031,"type":"village"},{"id":"4037649507","name":"Кызыл-Эшме","lat":39.5645461,"lon":72.2727654,"type":"village"},{"id":"4053068238","name":"Достук","lat":42.9171794,"lon":74.5167831,"type":"village"},{"id":"4062348466","name":"Кызыл-Суу","lat":40.4356342,"lon":73.260218,"type":"village"},{"id":"4062359462","name":"Тогуз-Булак","lat":40.3825173,"lon":73.4178889,"type":"village"},{"id":"4062571382","name":"Ачык-Суу","lat":39.4713448,"lon":72.4975828,"type":"village"},{"id":"4080839893","name":"Бак Кайың","lat":42.6006849,"lon":71.7083512,"type":"village"},{"id":"4080839895","name":"Кызыл-Сай","lat":42.5526662,"lon":71.9330774,"type":"village"},{"id":"4132174115","name":"Ат-Башы","lat":41.1693406,"lon":75.8087828,"type":"village"},{"id":"4264585380","name":"Кетмен-Төбө","lat":41.7315135,"lon":73.1291297,"type":"town"},{"id":"4273819572","name":"Разан-Сай","lat":41.4794517,"lon":72.2971532,"type":"village"},{"id":"4301553203","name":"Кызыл-Алма","lat":41.2894102,"lon":72.2120434,"type":"village"},{"id":"4301553206","name":"Чүйүт-Сай","lat":41.2661002,"lon":72.2245764,"type":"village"},{"id":"4311953610","name":"Дөң - Алыш","lat":42.2607647,"lon":75.2330199,"type":"village"},{"id":"4311953612","name":"Кызыл - Дөбө","lat":42.2032178,"lon":75.2658283,"type":"village"},{"id":"4311953613","name":"Мантыш","lat":42.1961122,"lon":75.2570951,"type":"village"},{"id":"4312019610","name":"Ак-Муз","lat":41.2492068,"lon":76.1363473,"type":"village"},{"id":"4312019611","name":"Талды-Суу","lat":41.1908786,"lon":76.1386871,"type":"village"},{"id":"4364189566","name":"Көк-Талаа","lat":40.223555,"lon":71.8669597,"type":"village"},{"id":"4365807395","name":"Ак-Шор","lat":40.4462633,"lon":72.2094172,"type":"village"},{"id":"4365807396","name":"Найман","lat":40.4587706,"lon":72.1837968,"type":"village"},{"id":"4401325950","name":"Адыр","lat":40.7154308,"lon":73.4212963,"type":"village"},{"id":"4401325951","name":"Ак-Кыя","lat":40.6591417,"lon":73.6016122,"type":"village"},{"id":"4401325954","name":"Ден-Булак 2","lat":40.7687768,"lon":73.3463115,"type":"village"},{"id":"4401325955","name":"Жаны-Талап","lat":40.686619,"lon":73.4103636,"type":"village"},{"id":"4401325956","name":"Жийде","lat":40.6728177,"lon":73.3905823,"type":"village"},{"id":"4401325957","name":"Жээренчи","lat":40.771644,"lon":73.4257085,"type":"village"},{"id":"4401325958","name":"Кандуга","lat":40.7056676,"lon":73.5336835,"type":"village"},{"id":"4401325960","name":"Тоготой","lat":40.6651926,"lon":73.4328459,"type":"village"},{"id":"4401325961","name":"Красный Маяк","lat":40.8129719,"lon":73.3348997,"type":"village"},{"id":"4401325962","name":"Кызыл-дыйкан","lat":40.7736265,"lon":73.3927925,"type":"village"},{"id":"4401325963","name":"Октябрь","lat":40.682667,"lon":73.4413807,"type":"village"},{"id":"4401325964","name":"Прогресс","lat":40.798882,"lon":73.3145578,"type":"village"},{"id":"4409501676","name":"Ак-Телек","lat":40.3909893,"lon":73.5017163,"type":"village"},{"id":"4409501678","name":"Боз-Караган","lat":40.335531,"lon":73.3889348,"type":"village"},{"id":"4409501679","name":"Жаны-Талаа","lat":40.6276601,"lon":73.4638596,"type":"village"},{"id":"4409501681","name":"Тегерек-Саз","lat":40.4257583,"lon":73.6175877,"type":"village"},{"id":"4409501682","name":"Арпатектир","lat":40.358328,"lon":73.3897072,"type":"village"},{"id":"4409501683","name":"Кенеш","lat":40.6349881,"lon":73.4264642,"type":"village"},{"id":"4409501684","name":"Кен-Жылга","lat":40.3826212,"lon":73.4718043,"type":"village"},{"id":"4409501686","name":"Сай","lat":40.5828458,"lon":73.658655,"type":"village"},{"id":"4409501687","name":"1-мая","lat":40.3734346,"lon":73.4061438,"type":"village"},{"id":"4410518307","name":"Карасу","lat":40.5583845,"lon":73.7363076,"type":"village"},{"id":"4411098855","name":"Ак-Жар","lat":40.7959165,"lon":73.4845099,"type":"village"},{"id":"4411098856","name":"Кызыл-Чарба","lat":40.8101775,"lon":73.5723522,"type":"village"},{"id":"4411098857","name":"Шамал-Терек","lat":40.7951408,"lon":73.5697344,"type":"village"},{"id":"4411204055","name":"Ара-Кол","lat":40.886052,"lon":73.7692037,"type":"village"},{"id":"4411204056","name":"Саламалик","lat":40.8400073,"lon":73.6297288,"type":"village"},{"id":"4411204057","name":"Сары-Булак","lat":40.882262,"lon":73.8120278,"type":"village"},{"id":"4413832338","name":"Аюу","lat":40.910537,"lon":73.4626023,"type":"village"},{"id":"4413832339","name":"Жаңы-Айыл","lat":40.847527,"lon":73.4262738,"type":"village"},{"id":"4413832340","name":"Зергер","lat":40.9133585,"lon":73.500754,"type":"village"},{"id":"4413832341","name":"Кайрат","lat":40.8686371,"lon":73.4473237,"type":"village"},{"id":"4413832342","name":"Ничке-Сай","lat":40.9062233,"lon":73.4217898,"type":"village"},{"id":"4413832343","name":"Токтогул","lat":40.8250748,"lon":73.4006587,"type":"village"},{"id":"4414510833","name":"Калмак-Кырчын","lat":41.1236491,"lon":73.4542045,"type":"village"},{"id":"4414665001","name":"Кальта","lat":40.8657751,"lon":73.3398932,"type":"village"},{"id":"4414665003","name":"Корсеты","lat":40.9176029,"lon":73.3824183,"type":"village"},{"id":"4414665004","name":"Кыргызстан","lat":40.9098154,"lon":73.3543356,"type":"village"},{"id":"4414665005","name":"Макаренко","lat":40.8224991,"lon":73.3083022,"type":"village"},{"id":"4414835642","name":"Жийде","lat":40.9638974,"lon":73.356759,"type":"village"},{"id":"4414842754","name":"Жангакты","lat":40.9413387,"lon":73.407163,"type":"village"},{"id":"4416534954","name":"Алтын-Булак","lat":40.7247768,"lon":73.5818754,"type":"village"},{"id":"4416534955","name":"Большевик","lat":40.7811792,"lon":73.4674296,"type":"village"},{"id":"4416534956","name":"Донуз-Тоо","lat":40.8627531,"lon":73.5588999,"type":"village"},{"id":"4416534957","name":"Какыр","lat":40.8097694,"lon":73.5096797,"type":"village"},{"id":"4416534958","name":"Кандава","lat":40.7040562,"lon":73.5590444,"type":"village"},{"id":"4416534961","name":"Кош-Эгер","lat":40.8730977,"lon":73.6922379,"type":"village"},{"id":"4416534962","name":"Кызыл-Байрак","lat":40.8820332,"lon":73.7555997,"type":"village"},{"id":"4416534963","name":"Кызыл-Тоо","lat":40.8281704,"lon":73.5223575,"type":"village"},{"id":"4416534965","name":"Семиз-Кол","lat":40.7662091,"lon":73.5390151,"type":"village"},{"id":"4416534966","name":"Чалкойдо","lat":40.740809,"lon":73.6591016,"type":"village"},{"id":"4416534968","name":"Эркин-Тоо","lat":40.8178351,"lon":73.5871114,"type":"village"},{"id":"4417264293","name":"Бакмал","lat":40.7619063,"lon":73.3479358,"type":"village"},{"id":"4417264294","name":"Боксо-Жол","lat":40.7430667,"lon":73.3691789,"type":"village"},{"id":"4417264295","name":"Кара-Дарья","lat":40.7476999,"lon":73.3249761,"type":"village"},{"id":"4417264296","name":"Мичурина","lat":40.7549497,"lon":73.3787169,"type":"village"},{"id":"4417264297","name":"Чымбай","lat":40.7151187,"lon":73.3791407,"type":"village"},{"id":"4417264298","name":"Ынтымак","lat":40.7102352,"lon":73.4149589,"type":"village"},{"id":"4417361100","name":"Кара-Кочкор","lat":40.6648579,"lon":73.5002437,"type":"village"},{"id":"4428543738","name":"Жетим-Дебе","lat":40.5804319,"lon":73.4954506,"type":"village"},{"id":"4428543739","name":"Кара-Жыгач","lat":40.5023116,"lon":73.5247189,"type":"village"},{"id":"4428543741","name":"Сары-Камыш","lat":40.6130138,"lon":73.5419708,"type":"village"},{"id":"4428607744","name":"Ничке-Суу","lat":40.53485,"lon":73.7954932,"type":"village"},{"id":"4428607745","name":"Терек-Суу","lat":40.5315007,"lon":73.8258773,"type":"village"},{"id":"4428668940","name":"Кайың-Талаа","lat":40.3087324,"lon":74.2586723,"type":"village"},{"id":"4428668942","name":"Көк-Арт","lat":40.2666249,"lon":74.3858461,"type":"village"},{"id":"4428668943","name":"Коо-Чаты","lat":40.3615062,"lon":74.2934494,"type":"village"},{"id":"4428668945","name":"Ой-Тал","lat":40.4271365,"lon":74.100852,"type":"village"},{"id":"4436157588","name":"Калыс-Ордо жаңы курулушу","lat":42.9627039,"lon":74.5714724,"type":"village"},{"id":"4436157892","name":"Октябрьское","lat":42.9398052,"lon":73.5641742,"type":"village"},{"id":"4436157898","name":"Чүй","lat":43.1227527,"lon":74.5302844,"type":"village"},{"id":"4436630233","name":"Кайнар","lat":40.6124801,"lon":73.2190523,"type":"village"},{"id":"4436630235","name":"Касык-Алма","lat":40.6385376,"lon":73.2642851,"type":"village"},{"id":"4436630236","name":"Киров","lat":40.6524091,"lon":73.294755,"type":"village"},{"id":"4436630237","name":"Курбу-Таш","lat":40.6159007,"lon":73.2935748,"type":"village"},{"id":"4436630238","name":"Курбу-Таш","lat":40.627725,"lon":73.30263,"type":"village"},{"id":"4436630239","name":"Шагым","lat":40.6574759,"lon":73.2124648,"type":"village"},{"id":"4437344233","name":"Туз-Бел (Түз-Бел)","lat":40.5644701,"lon":73.339908,"type":"village"},{"id":"4437385325","name":"Ак-Терек","lat":40.5785403,"lon":73.3719604,"type":"village"},{"id":"4437385326","name":"Уч-Капчак","lat":40.5541509,"lon":73.3660649,"type":"village"},{"id":"4437682851","name":"Коргон","lat":40.4892943,"lon":73.2770383,"type":"village"},{"id":"4437871840","name":"Алп-Ордо","lat":40.4451569,"lon":73.2445836,"type":"village"},{"id":"4437871841","name":"Талаа","lat":40.4366404,"lon":73.2723927,"type":"village"},{"id":"4438736726","name":"Кара-Булак","lat":40.4240595,"lon":73.5828263,"type":"village"},{"id":"4438736728","name":"Сары-Булак","lat":40.4855551,"lon":73.6295021,"type":"village"},{"id":"4438736729","name":"Сары-Күңгөй","lat":40.5063436,"lon":73.618387,"type":"village"},{"id":"4438736730","name":"Тогуз-Булак","lat":40.4720734,"lon":73.6265838,"type":"village"},{"id":"4438861862","name":"Ак-Терек","lat":40.5938979,"lon":73.126435,"type":"village"},{"id":"4438861865","name":"Достук","lat":40.7104365,"lon":73.1003746,"type":"village"},{"id":"4439090392","name":"Ак-Колот","lat":40.6225753,"lon":73.0215465,"type":"village"},{"id":"4439090393","name":"Шералы","lat":40.6262336,"lon":72.9994719,"type":"village"},{"id":"4439274202","name":"Октябрь","lat":40.6934799,"lon":72.9206425,"type":"village"},{"id":"4440774137","name":"Жаны-Кызы","lat":40.6578821,"lon":72.984475,"type":"village"},{"id":"4440774138","name":"Кара-Добо","lat":40.6005943,"lon":72.9827732,"type":"village"},{"id":"4440774139","name":"Курбан-Кар","lat":40.7082885,"lon":72.9728664,"type":"village"},{"id":"4440774140","name":"Кызыл-Шарк","lat":40.7231049,"lon":72.9324616,"type":"village"},{"id":"4440774141","name":"Кыш-Абад","lat":40.6552196,"lon":72.9468705,"type":"village"},{"id":"4440774142","name":"Кызыл-Сарай","lat":40.6285517,"lon":72.9374962,"type":"village"},{"id":"4440774143","name":"Кызыл-Кошчу","lat":40.6456958,"lon":72.9280306,"type":"village"},{"id":"4440774144","name":"Осмон","lat":40.5904599,"lon":72.9779237,"type":"village"},{"id":"4440774146","name":"Савай","lat":40.7452605,"lon":72.9770239,"type":"village"},{"id":"4440774147","name":"Тынчтык","lat":40.7040104,"lon":72.9568161,"type":"village"},{"id":"4440774149","name":"Ынтымак","lat":40.757072,"lon":73.0064182,"type":"village"},{"id":"4440901895","name":"Жаны-Чек","lat":40.6650981,"lon":72.9315331,"type":"village"},{"id":"4440901896","name":"Конурат","lat":40.66309,"lon":72.9051724,"type":"village"},{"id":"4440901897","name":"Савай-Арык","lat":40.6750748,"lon":72.9452285,"type":"village"},{"id":"4440901898","name":"Эркин","lat":40.6808711,"lon":72.8994325,"type":"village"},{"id":"4441263956","name":"Джегенды","lat":40.6583979,"lon":72.8483757,"type":"village"},{"id":"4442662272","name":"Киров","lat":40.6988194,"lon":72.8817705,"type":"village"},{"id":"4442662273","name":"Маданият","lat":40.5840368,"lon":72.8589985,"type":"village"},{"id":"4442662274","name":"Падаван","lat":40.5653344,"lon":72.8226278,"type":"village"},{"id":"4442662275","name":"Тельмана","lat":40.6889907,"lon":72.8635744,"type":"village"},{"id":"4447827895","name":"ВЛКСМ","lat":40.5881939,"lon":72.761338,"type":"village"},{"id":"4448822142","name":"Жаңы-Махалла","lat":40.5713798,"lon":72.7744203,"type":"village"},{"id":"4448822143","name":"Кызыл-Кыштак","lat":40.5625853,"lon":72.760841,"type":"village"},{"id":"4448822144","name":"Зарбдар","lat":40.5964432,"lon":72.7976295,"type":"village"},{"id":"4453198525","name":"Ишкаван","lat":40.5270712,"lon":72.7441498,"type":"village"},{"id":"4453198526","name":"Тээке","lat":40.4729461,"lon":72.713983,"type":"village"},{"id":"4453198527","name":"Орке","lat":40.4814255,"lon":72.7256211,"type":"village"},{"id":"4453198529","name":"Джапалак","lat":40.4914459,"lon":72.7680142,"type":"village"},{"id":"4459296088","name":"Ташлак","lat":40.5422096,"lon":72.8449562,"type":"village"},{"id":"4478228449","name":"Ленинское","lat":41.0206117,"lon":73.0554314,"type":"village"},{"id":"4491834960","name":"Кара-Көл","lat":41.6315664,"lon":72.6717465,"type":"town"},{"id":"4524540533","name":"Милянфан","lat":42.9670612,"lon":74.7883934,"type":"village"},{"id":"4529807539","name":"Подснежник","lat":42.7653356,"lon":74.9794545,"type":"village"},{"id":"4529819761","name":"Дачи Кегети","lat":42.6035626,"lon":75.1378423,"type":"village"},{"id":"4531853661","name":"Кайырма","lat":42.7479182,"lon":74.5053694,"type":"village"},{"id":"4532024712","name":"Алмалуу","lat":42.803631,"lon":74.3483944,"type":"village"},{"id":"4533874047","name":"Берюлю","lat":42.6604544,"lon":74.2485358,"type":"village"},{"id":"4533874049","name":"Ден-Алыш","lat":42.7951674,"lon":74.2595221,"type":"village"},{"id":"4533874050","name":"Кара-Дөбө","lat":42.8011986,"lon":74.1792181,"type":"village"},{"id":"4533874051","name":"Биринчи Май","lat":42.8021009,"lon":74.2451616,"type":"village"},{"id":"4533874052","name":"Саз","lat":42.7628712,"lon":74.2301292,"type":"village"},{"id":"4533874060","name":"Четинди","lat":42.6413266,"lon":74.2367287,"type":"village"},{"id":"4537512814","name":"Гидропартия","lat":42.8437906,"lon":73.8363111,"type":"village"},{"id":"4537512815","name":"Күрпүлдөк","lat":42.8997039,"lon":73.5931957,"type":"village"},{"id":"4537512816","name":"Маловодное","lat":43.0014616,"lon":74.202658,"type":"village"},{"id":"4550853049","name":"Сары-Булак","lat":42.6387891,"lon":72.0316619,"type":"village"},{"id":"4550853313","name":"Нылды","lat":42.6226705,"lon":72.08242,"type":"village"},{"id":"4551775275","name":"Кайыңды","lat":42.6536549,"lon":71.8868534,"type":"village"},{"id":"4575796901","name":"Апкан","lat":40.0858432,"lon":71.0978615,"type":"village"},{"id":"4676516591","name":"Жыргалаң","lat":42.608402,"lon":79.0096664,"type":"village"},{"id":"4706138241","name":"Арап","lat":40.6087468,"lon":72.3909154,"type":"village"},{"id":"4706143171","name":"Мангыт","lat":40.455987,"lon":72.5683616,"type":"village"},{"id":"4706151649","name":"Көчүбаев","lat":40.5079548,"lon":72.4451903,"type":"village"},{"id":"4706154296","name":"Пахтачи","lat":40.5018895,"lon":72.4710736,"type":"village"},{"id":"4717465734","name":"Өрүктү","lat":41.3937173,"lon":71.4281934,"type":"village"},{"id":"4784708844","name":"Кара-Буура","lat":42.5241026,"lon":71.5833944,"type":"village"},{"id":"4790123359","name":"Көтөрмө","lat":41.858133,"lon":73.0843015,"type":"village"},{"id":"4791369250","name":"Ош","lat":40.5172678,"lon":72.8049894,"type":"city"},{"id":"4794497847","name":"Нур","lat":42.781118,"lon":75.75353,"type":"village"},{"id":"4933685499","name":"Катыранкы","lat":41.1811341,"lon":73.3133635,"type":"village"},{"id":"4951992101","name":"Чоң-Арык","lat":42.8020131,"lon":74.5718042,"type":"village"},{"id":"5075290912","name":"Жезкен","lat":39.8559083,"lon":69.3332003,"type":"village"},{"id":"5219772067","name":"Жаңы-Талап","lat":41.4576677,"lon":75.0193798,"type":"village"},{"id":"5220915334","name":"Каратай","lat":40.5114011,"lon":73.0108988,"type":"village"},{"id":"5223298842","name":"Мады","lat":40.5393081,"lon":72.9331898,"type":"village"},{"id":"5223302738","name":"Социализм","lat":40.5403192,"lon":72.9438543,"type":"village"},{"id":"5223302778","name":"Октябрь","lat":40.5535182,"lon":72.9367304,"type":"village"},{"id":"5223302797","name":"Чагыр","lat":40.5484476,"lon":72.9233515,"type":"village"},{"id":"5224645669","name":"Кара-Балта","lat":42.801143,"lon":73.8523018,"type":"town"},{"id":"5225873773","name":"Арек","lat":40.4839475,"lon":72.7523446,"type":"village"},{"id":"5230826164","name":"Конуш","lat":42.7216373,"lon":74.2374086,"type":"village"},{"id":"5334597885","name":"Туура Суу","lat":42.1393696,"lon":76.333135,"type":"village"},