[{"id":"339324562","name":"Moroni موروني","lat":-11.7040306,"lon":43.251909,"type":"city"},{"id":"1229049286","name":"Ouani أواني","lat":-12.1339888,"lon":44.4272275,"type":"town"},{"id":"1229049495","name":"Jimilimé جيميليم","lat":-12.0973976,"lon":44.4630155,"type":"town"},{"id":"1229049545","name":"Hajoho هاجهو","lat":-12.1243932,"lon":44.4887603,"type":"town"},{"id":"1229049872","name":"Bazimini بازيميني","lat":-12.1804726,"lon":44.4493718,"type":"town"},{"id":"1229050356","name":"Bambao بامبو","lat":-12.2022861,"lon":44.5166595,"type":"town"},{"id":"1229050437","name":"Harembo هارمبو","lat":-12.1509075,"lon":44.4977311,"type":"town"},{"id":"1229050458","name":"Domoni دوموني","lat":-12.2586544,"lon":44.528851,"type":"town"},{"id":"1295700465","name":"Mutsamudu موتسامودو","lat":-12.168846,"lon":44.3942831,"type":"city"},{"id":"1771379463","name":"Mvouni مفوني","lat":-11.7199316,"lon":43.274666,"type":"village"},{"id":"1772240217","name":"Ntsudjini نتسودجيني","lat":-11.6633441,"lon":43.2717536,"type":"village"},{"id":"2053408343","name":"Dibouani ديبواني","lat":-11.5600257,"lon":43.3220221,"type":"village"},{"id":"2317281173","name":"Akibani أكيباني","lat":-12.1961321,"lon":44.3474195,"type":"town"},{"id":"2317281174","name":"سيما Sima","lat":-12.1981154,"lon":44.2732653,"type":"town"},{"id":"2317482076","name":"جويزي Djoiezi","lat":-12.3025278,"lon":43.7719476,"type":"town"},{"id":"2317482080","name":"دوموني Domoni","lat":-12.2580229,"lon":43.6431446,"type":"town"},{"id":"2317482083","name":"فومبوني Fomboni","lat":-12.284054,"lon":43.742727,"type":"city"},{"id":"2317482086","name":"Hoani هواني","lat":-12.2583648,"lon":43.675036,"type":"town"},{"id":"2317482090","name":"Miringoni ميرينكوني","lat":-12.3022872,"lon":43.6366052,"type":"town"},{"id":"2317482092","name":"نيومشوا Nioumachoua","lat":-12.364451,"lon":43.7178957,"type":"town"},{"id":"2317482095","name":"والله Ouallah","lat":-12.327085,"lon":43.6625136,"type":"town"},{"id":"2317482098","name":"ندروندروني Ndrondroni","lat":-12.3476463,"lon":43.678156,"type":"town"},{"id":"2317587042","name":"Hahaya هاهايا","lat":-11.5644457,"lon":43.2713158,"type":"town"},{"id":"2318289090","name":"Chandra شاندرا","lat":-12.1998655,"lon":44.4641536,"type":"town"},{"id":"2318289091","name":"Moya مويا","lat":-12.3098998,"lon":44.4371606,"type":"village"},{"id":"2318289092","name":"Chiroroni شيررني","lat":-12.3764349,"lon":44.5063393,"type":"village"},{"id":"2716274536","name":"Mitsamiouli ميتساميولي","lat":-11.3888547,"lon":43.2930126,"type":"village"},{"id":"2854406799","name":"مبتسي Mbatsé","lat":-12.268939,"lon":43.7064096,"type":"village"},{"id":"2995353608","name":"Imere إيمير","lat":-12.2427614,"lon":44.3665058,"type":"village"},{"id":"2995360445","name":"Vouani فواني","lat":-12.2481055,"lon":44.3738095,"type":"village"},{"id":"2995360462","name":"Dar Salama دار سلامة","lat":-12.2542262,"lon":44.3868488,"type":"village"},{"id":"2995360506","name":"Pomoni بوموني","lat":-12.2836247,"lon":44.4101223,"type":"town"},{"id":"2995360513","name":"Koué كوي","lat":-12.2865703,"lon":44.4195781,"type":"village"},{"id":"3293318914","name":"Patsy باتسي","lat":-12.1599178,"lon":44.4357152,"type":"village"},{"id":"3317523586","name":"Malé مالي","lat":-11.8865711,"lon":43.5062231,"type":"village"},{"id":"3317523597","name":"Dzahadjou دزاهاجو","lat":-11.911239,"lon":43.4540567,"type":"village"},{"id":"3317523640","name":"Chindini تشينديني","lat":-11.9247875,"lon":43.490771,"type":"village"},{"id":"4052711226","name":"Tsinimoipanga تسينيمويبانغا","lat":-11.7959112,"lon":43.4349054,"type":"village"},{"id":"4052711277","name":"Bandamadji-Ladomba","lat":-11.7877563,"lon":43.4542626,"type":"village"},{"id":"4052722395","name":"Foumbouni فومبوني","lat":-11.865448,"lon":43.4951635,"type":"town"},{"id":"4052761095","name":"Domoni Adjou دوموني أدجو","lat":-11.4870208,"lon":43.2872361,"type":"village"},{"id":"4052761122","name":"Domoni دوموني","lat":-11.4910236,"lon":43.2787077,"type":"village"},{"id":"4052761160","name":"Ntsaouéni نتساووني","lat":-11.4690325,"lon":43.2724769,"type":"village"},{"id":"4052810840","name":"Chamlé شاملي","lat":-11.44765,"lon":43.276791,"type":"village"},{"id":"4052810841","name":"Djomani جوماني","lat":-11.4351724,"lon":43.2690474,"type":"village"},{"id":"4052810842","name":"Bangoua Kouni بانجوا كوني","lat":-11.3715503,"lon":43.3618274,"type":"village"},{"id":"4052810858","name":"Ivoini إيفويني","lat":-11.3902679,"lon":43.3934696,"type":"village"},{"id":"4052810859","name":"Chézani شيزاني","lat":-11.4314198,"lon":43.3960288,"type":"village"},{"id":"4052810877","name":"Nioumamilani نيوماميلاني","lat":-11.4424736,"lon":43.4056931,"type":"village"},{"id":"4052810878","name":"Mouadja معاجة","lat":-11.4667285,"lon":43.3878065,"type":"village"},{"id":"4052810879","name":"Gnadomboeni غنادومبويني","lat":-11.470978,"lon":43.387745,"type":"village"},{"id":"4052810880","name":"Bambadjani بامبادجاني","lat":-11.4811466,"lon":43.3878083,"type":"village"},{"id":"4052811353","name":"Hadjambou هادجامبو","lat":-11.4596896,"lon":43.4013507,"type":"village"},{"id":"4052811354","name":"Mbéni مبيني","lat":-11.5059996,"lon":43.3868104,"type":"village"},{"id":"4052811355","name":"Heroumbili هيرومبيلي","lat":-11.5455356,"lon":43.3877436,"type":"village"},{"id":"4052811372","name":"Hasendje هاسيندجي","lat":-11.6213561,"lon":43.3918662,"type":"village"},{"id":"4052811388","name":"Chomoni شمني","lat":-11.6464791,"lon":43.3956701,"type":"village"},{"id":"4052811389","name":"Pidjani بيدجاني","lat":-11.7632851,"lon":43.4515954,"type":"town"},{"id":"4052835215","name":"Mohoro موهورو","lat":-11.8278645,"lon":43.4548201,"type":"town"},{"id":"4066839315","name":"Itsandzéni إتساندزيني","lat":-11.4754035,"lon":43.393797,"type":"village"},{"id":"4067964486","name":"Bandamadji باندامادجي","lat":-11.6712913,"lon":43.2674221,"type":"village"},{"id":"4082428697","name":"Samba Mbodoni سامبا مبودوني","lat":-11.6759846,"lon":43.2777104,"type":"village"},{"id":"4082691903","name":"Itsinkoudi Oichili","lat":-11.5864172,"lon":43.3858439,"type":"village"},{"id":"4138257501","name":"Nioumamilima نيوماميليما","lat":-11.8549783,"lon":43.4464571,"type":"village"},{"id":"4197761553","name":"Mdé ya Bambao مديا بامباو","lat":-11.7386809,"lon":43.2510342,"type":"village"},{"id":"4197785621","name":"Salimani Itsandra سليماني إتسندرا","lat":-11.6827978,"lon":43.2748217,"type":"city"},{"id":"4198438443","name":"Dzahani 2 / دزاهاني 2","lat":-11.6614195,"lon":43.285342,"type":"village"},{"id":"4198438444","name":"Samba-Nkouni","lat":-11.6513186,"lon":43.2845126,"type":"village"},{"id":"4198440770","name":"Bahani بهاني","lat":-11.6428324,"lon":43.2945036,"type":"village"},{"id":"4198466134","name":"Zivandani زيفانداني","lat":-11.648627,"lon":43.2755297,"type":"village"},{"id":"4198478362","name":"Mavingouni مافينقوني","lat":-11.7184486,"lon":43.2621745,"type":"village"},{"id":"4198486392","name":"Tsidjé تسيدجي","lat":-11.6993776,"lon":43.2697992,"type":"village"},{"id":"4198486478","name":"Iconi أيقونات","lat":-11.7451859,"lon":43.2377559,"type":"town"},{"id":"4198496483","name":"Ndroini ندرويني","lat":-11.7671406,"lon":43.2523717,"type":"village"},{"id":"4198498926","name":"Serehini سيريهيني","lat":-11.7589678,"lon":43.2436335,"type":"village"},{"id":"4198506188","name":"Mouandzaza Ambouani موونزازا أمبواني","lat":-11.7747038,"lon":43.2462882,"type":"village"},{"id":"4198508189","name":"Mouandzaza Djoumbe مويندزازا دجومبي","lat":-11.7777033,"lon":43.2649358,"type":"village"},{"id":"4198508190","name":"Dzahani دزاهاني","lat":-11.7741939,"lon":43.2772945,"type":"village"},{"id":"4198511649","name":"Daoueni دويني","lat":-11.769172,"lon":43.2719588,"type":"village"},{"id":"4198511650","name":"Séléa سيليا","lat":-11.7855211,"lon":43.2708659,"type":"village"},{"id":"4198511651","name":"Nioumadzaha نيومادزها","lat":-11.793823,"lon":43.2743263,"type":"village"},{"id":"4198520619","name":"Mitsoudjé ميتسودجي","lat":-11.8129215,"lon":43.2810122,"type":"city"},{"id":"4198569606","name":"Koimbani كيمبني","lat":-11.6222256,"lon":43.3655926,"type":"village"},{"id":"4198667189","name":"Bangoi Mafsankoa بانغوي مافسانكووي","lat":-11.4001499,"lon":43.3022349,"type":"village"},{"id":"4198667190","name":"Ouhozi أوهوزي","lat":-11.4020466,"lon":43.2941378,"type":"village"},{"id":"4198727100","name":"Mandza ماندزا","lat":-11.4212636,"lon":43.3050624,"type":"village"},{"id":"4198727101","name":"Douniani دونياني","lat":-11.4242569,"lon":43.2983679,"type":"village"},{"id":"4198727102","name":"Maouéni ماوني","lat":-11.4669826,"lon":43.3249831,"type":"village"},{"id":"4198727103","name":"Ivémbéni-Bandasamlini إيفيمبيني-بانداسامليني","lat":-11.4796887,"lon":43.3259914,"type":"village"},{"id":"4198835037","name":"Vanadjou فانادجو","lat":-11.6117233,"lon":43.2857562,"type":"village"},{"id":"4198847128","name":"Vanambouani فانامبواني","lat":-11.6164244,"lon":43.2627073,"type":"village"},{"id":"4198847129","name":"Oussivo أوسيفو","lat":-11.588576,"lon":43.2766194,"type":"village"},{"id":"4198847134","name":"Bangahani بانغهاني","lat":-11.5831413,"lon":43.2881193,"type":"village"},{"id":"4198862101","name":"Bouenindi بونيندي","lat":-11.5664502,"lon":43.2867013,"type":"village"},{"id":"4198862102","name":"Bibavou بيبافو","lat":-11.5772493,"lon":43.2872999,"type":"village"},{"id":"4251193730","name":"Ifoundihé إيفونديهي","lat":-11.5400807,"lon":43.3871962,"type":"village"},{"id":"4251193749","name":"Mnoungou امنونغو","lat":-11.5234957,"lon":43.3851737,"type":"village"},{"id":"4251193750","name":"Salimani Ya Mahamé سليمان يا محمد","lat":-11.512427,"lon":43.3874836,"type":"village"},{"id":"4251197534","name":"Mwemboiboini مويمبويبويني","lat":-11.3840893,"lon":43.3141286,"type":"village"},{"id":"4269799425","name":"Ouziouani أوزيواني","lat":-11.8923212,"lon":43.4242587,"type":"village"},{"id":"4269799457","name":"Sima Ambouani سيما أمبواني","lat":-11.9190778,"lon":43.4701705,"type":"village"},{"id":"4269799556","name":"Dzahadjou دزاهاجو","lat":-11.8528894,"lon":43.3495099,"type":"village"},{"id":"4269799557","name":"M'djoiezi Hambou مدجويزي هامبو","lat":-11.8362673,"lon":43.3131564,"type":"city"},{"id":"4269799559","name":"واناني Wanani","lat":-12.345524,"lon":43.8004382,"type":"village"},{"id":"4269799560","name":"زيروداني Ziroudani","lat":-12.3392087,"lon":43.7808704,"type":"village"},{"id":"4269799596","name":"Dar-Salama دار السلام","lat":-11.8734286,"lon":43.4748452,"type":"village"},{"id":"4269799600","name":"Panda باندا","lat":-11.8746048,"lon":43.3932323,"type":"village"},{"id":"4269799606","name":"Dembeni دمبيني","lat":-11.8762117,"lon":43.4027092,"type":"village"},{"id":"4269799615","name":"Dzouadjou دزوادجو","lat":-11.8808683,"lon":43.4321459,"type":"village"},{"id":"4294637745","name":"Zilimadjou زيليمادجو","lat":-11.7145432,"lon":43.2514089,"type":"village"},{"id":"4337126136","name":"Bangoi Hambou بانغوي هامبو","lat":-11.8438376,"lon":43.288311,"type":"village"},{"id":"4415169326","name":"Singani سينغاني","lat":-11.8473767,"lon":43.3173902,"type":"village"},{"id":"4921355765","name":"Itsamia إيتساميا","lat":-12.3699484,"lon":43.8678999,"type":"village"},{"id":"4921355770","name":"Hamavouna همفونا","lat":-12.3782942,"lon":43.8390083,"type":"village"},{"id":"4921355771","name":"كانكني Kangani","lat":-12.3491749,"lon":43.8222246,"type":"village"},{"id":"4921355772","name":"Bimbini بمبيني","lat":-12.1916668,"lon":44.2346362,"type":"village"},{"id":"4921355773","name":"Mirongani ميرنكني","lat":-12.1938521,"lon":44.2513425,"type":"village"},{"id":"4921355774","name":"Milémbéni ميلمبني","lat":-12.2021585,"lon":44.2631736,"type":"village"},{"id":"4921355775","name":"Kavani كفني","lat":-12.1979978,"lon":44.2708162,"type":"village"},{"id":"4961324252","name":"Seleani سيلياني","lat":-11.5035445,"lon":43.3984576,"type":"village"},{"id":"4962318410","name":"Magnassini-Nindri مكنسيني نيندري","lat":-12.2820255,"lon":44.4135321,"type":"village"},{"id":"4962318415","name":"Lingoni لينكني","lat":-12.2659801,"lon":44.4106854,"type":"village"},{"id":"4962370714","name":"Mrémani مريماني","lat":-12.3121605,"lon":44.4994958,"type":"village"},{"id":"5213765132","name":"Itsandra Mdjini إتساندرا مدجيني","lat":-11.6757211,"lon":43.2641798,"type":"village"},{"id":"5907756715","name":"Buuni بوني","lat":-11.4895819,"lon":43.3976859,"type":"village"},{"id":"5933184578","name":"Dzahani Ya Oichili","lat":-11.5860109,"lon":43.3722602,"type":"village"},{"id":"5933184579","name":"Hambou Ya Oichili هامبو يا أويتشيلي","lat":-11.604797,"lon":43.3700067,"type":"village"},{"id":"6528709830","name":"Chirowe تشيروي","lat":-12.2696363,"lon":44.396975,"type":"village"},{"id":"7228442367","name":"Tsembéhou تسيمبيهو","lat":-12.2080089,"lon":44.467106,"type":"town"},{"id":"7737363622","name":"Kuhani كوهاني","lat":-11.5718163,"lon":43.3965099,"type":"village"},{"id":"7737394227","name":"Samba-Madi سامبا مادي","lat":-11.6756643,"lon":43.4163905,"type":"village"},{"id":"7737394228","name":"Chamro شامرو","lat":-11.6610384,"lon":43.4033657,"type":"village"},{"id":"8518493559","name":"Adda-Douéni أدا-دويني","lat":-12.2974902,"lon":44.4935533,"type":"town"},{"id":"8518557018","name":"Antsahé أنتساهي","lat":-12.3609786,"lon":44.5219767,"type":"village"},{"id":"8518570262","name":"Assimpao أسيمباو","lat":-12.2368286,"lon":44.3192292,"type":"village"},{"id":"8518618030","name":"Bandracouni باندراكوني","lat":-12.3177236,"lon":44.4970965,"type":"village"},{"id":"8518632265","name":"Ongojou أونجوجو","lat":-12.3128993,"lon":44.5095313,"type":"village"},{"id":"9129680949","name":"Vounimbadani فونيمباداني","lat":-11.6154299,"lon":43.2713177,"type":"village"},{"id":"9129682379","name":"Mhandani مهنداني","lat":-11.6146544,"lon":43.2772769,"type":"village"},{"id":"9129683966","name":"Batsa Iasandra باتسا إياساندرا","lat":-11.6307287,"lon":43.2667926,"type":"village"},{"id":"9129688049","name":"Dzahadjou Itsandra دزاهاجو إتساندرا","lat":-11.6310274,"lon":43.2840254,"type":"village"},{"id":"10270810864","name":"Mirondroni ميروندروني","lat":-12.3257002,"lon":44.5215984,"type":"village"},{"id":"11836020355","name":"Mbachile مباشيلي","lat":-11.7586124,"lon":43.2377793,"type":"village"},{"id":"11919738662","name":"Mjimandra","lat":-12.1935984,"lon":44.3604462,"type":"village"},{"id":"11919738663","name":"Moimoi ميمي","lat":-12.1920162,"lon":44.3676368,"type":"village"},{"id":"11919738664","name":"Mouamoua مواموا","lat":-12.1832043,"lon":44.3780486,"type":"village"},{"id":"11919738665","name":"Pagé صفحة","lat":-12.1780683,"lon":44.3871332,"type":"village"},{"id":"11919738666","name":"Mirontsy ميرونتسي","lat":-12.1588511,"lon":44.4151585,"type":"village"},{"id":"11919738667","name":"Gnantrangua غنانترانجوا","lat":-12.1394955,"lon":44.4372539,"type":"village"},{"id":"11919738668","name":"Barakani باراكاني","lat":-12.1385931,"lon":44.4303638,"type":"village"},{"id":"11919760069","name":"Ongoni أونغوني","lat":-12.1738084,"lon":44.5064275,"type":"village"},{"id":"11919760070","name":"Dziani دزياني","lat":-12.188178,"lon":44.4922143,"type":"village"},{"id":"11919760071","name":"Gege جيجي","lat":-12.2282809,"lon":44.5217524,"type":"village"},{"id":"11919760072","name":"Hachipenda هاشيبيندا","lat":-12.2247856,"lon":44.5102613,"type":"village"},{"id":"11919760073","name":"Koni Nguani كوني نجواني","lat":-12.2202647,"lon":44.4797034,"type":"village"},{"id":"11919760074","name":"Koni Djodjo كوني دجودجو","lat":-12.2335694,"lon":44.4792624,"type":"village"},{"id":"11919760075","name":"Koki كوكي","lat":-12.1735498,"lon":44.4440888,"type":"village"},{"id":"11919760124","name":"Limbi ليمبي","lat":-12.2444788,"lon":44.5058899,"type":"village"},{"id":"11919760125","name":"Nguazalé نغوازاليه","lat":-12.2687911,"lon":44.505953,"type":"village"},{"id":"11919760126","name":"Ouzini أوزيني","lat":-12.2708986,"lon":44.477856,"type":"village"},{"id":"11919760140","name":"Outsa أوتسا","lat":-12.2819899,"lon":44.4967368,"type":"village"},{"id":"11919803180","name":"Magnassini ماغناسيني","lat":-12.2982131,"lon":44.5068711,"type":"village"},{"id":"11919803181","name":"Comoni كوموني","lat":-12.3260971,"lon":44.5198406,"type":"village"},{"id":"11919803182","name":"Kiyo كيو","lat":-12.3358573,"lon":44.5194369,"type":"village"},{"id":"11919803183","name":"Dziani دزياني","lat":-12.3465837,"lon":44.5182489,"type":"village"},{"id":"11919803184","name":"Nyamboiro نيامبويرو","lat":-12.353152,"lon":44.512076,"type":"village"},{"id":"11919803185","name":"Mramani مرماني","lat":-12.351824,"lon":44.5264894,"type":"village"},{"id":"11919803186","name":"Hamouchako هاموشاكو","lat":-12.3743914,"lon":44.5119509,"type":"village"},{"id":"11919803187","name":"Salapouani سالابواني","lat":-12.3728211,"lon":44.507547,"type":"village"},{"id":"11919803188","name":"Nounga نونجا","lat":-12.3479406,"lon":44.4995483,"type":"village"},{"id":"11919803189","name":"Mnadzichoumoi منادزيتشوموي","lat":-12.345461,"lon":44.5006686,"type":"village"},{"id":"11919803190","name":"Mjirou مجيرو","lat":-12.3324581,"lon":44.4960235,"type":"village"},{"id":"11919803191","name":"Daji داجي","lat":-12.3299367,"lon":44.4898163,"type":"village"},{"id":"11919803192","name":"Kangani كانجاني","lat":-12.3201731,"lon":44.4731801,"type":"village"},{"id":"11919803193","name":"Maweni ماويني","lat":-12.3191669,"lon":44.4563395,"type":"village"},{"id":"11919803194","name":"Saloi سالوي","lat":-12.3019109,"lon":44.4320437,"type":"village"},{"id":"11919803195","name":"Bandrani ya Vouani","lat":-12.2488631,"lon":44.3847403,"type":"village"},{"id":"11919803196","name":"Marontroni مارونتروني","lat":-12.2450264,"lon":44.3637304,"type":"village"},{"id":"11919803212","name":"Salamani سلاماني","lat":-12.2381159,"lon":44.3607878,"type":"village"},{"id":"11919803220","name":"Dzindri Mtsangani دزيندري متسانغاني","lat":-12.2404434,"lon":44.3553094,"type":"village"},{"id":"11919803221","name":"Dzindri دزيندري","lat":-12.2348644,"lon":44.3522265,"type":"village"},{"id":"11919803222","name":"Vassy فاسي","lat":-12.2355264,"lon":44.3421978,"type":"village"},{"id":"11919803223","name":"Shitsagatcheli شيتساغاتشيلي","lat":-12.2391403,"lon":44.3222911,"type":"village"},{"id":"11919803224","name":"Marahare ماراهاري","lat":-12.234,"lon":44.3136011,"type":"village"},{"id":"11919803236","name":"Mitreni ميتريني","lat":-12.2325849,"lon":44.3091411,"type":"village"},{"id":"11919803237","name":"Mromouhouli مروموهولي","lat":-12.228541,"lon":44.3022618,"type":"village"},{"id":"11919803238","name":"Boungueni بونغويني","lat":-12.2088129,"lon":44.2989744,"type":"village"},{"id":"11919803239","name":"Kavani كافاني","lat":-12.1955689,"lon":44.2671724,"type":"village"},{"id":"11919803240","name":"Souni","lat":-12.1942314,"lon":44.2485277,"type":"village"},{"id":"11919803241","name":"Mkijirou Sombe مكيجيرو سومبي","lat":-12.1971363,"lon":44.3176584,"type":"village"},{"id":"11919803260","name":"Bandrani Saadani بندراني سعداني","lat":-12.1914952,"lon":44.333831,"type":"village"},{"id":"11919803261","name":"Maweni","lat":-12.1958752,"lon":44.3408788,"type":"village"},{"id":"12000846520","name":"Ouzio أوزيو","lat":-11.4044228,"lon":43.3758577,"type":"village"},{"id":"12001116653","name":"Mzaki مزاكي","lat":-11.7348485,"lon":43.2659827,"type":"city"},{"id":"13200010073","name":"Chaouéni شاويني","lat":-12.3536354,"lon":44.4999929,"type":"village"},{"id":"13200010074","name":"Dindri ديندري","lat":-12.2145867,"lon":44.4527539,"type":"village"},{"id":"13200931251","name":"Vouvouni فوفوني","lat":-11.7509541,"lon":43.2518864,"type":"village"},{"id":"13200931252","name":"Mboudajou مبوداجو","lat":-11.7757808,"lon":43.2747549,"type":"village"},{"id":"13200931253","name":"Salimani السليماني","lat":-11.8108519,"lon":43.2689868,"type":"village"},{"id":"13200931254","name":"Chouani شواني","lat":-11.8235444,"lon":43.2938928,"type":"village"},{"id":"13200931255","name":"Ifoundihé Chambouani إيفونديه شامبواني","lat":-11.902989,"lon":43.4207031,"type":"village"},{"id":"13200931256","name":"دوموني Domoni","lat":-11.8789062,"lon":43.4194717,"type":"village"},{"id":"13200931257","name":"Oungoni أونغوني","lat":-11.7580867,"lon":43.447056,"type":"village"},{"id":"13200931258","name":"Oichili أويتشيلي","lat":-11.7172231,"lon":43.4343527,"type":"village"},{"id":"13438812869","name":"Mboude Ambouani","lat":-11.8668334,"lon":43.3958017,"type":"village"},{"id":"13885546301","name":"Boeni Oichili","lat":-11.6344299,"lon":43.3622458,"type":"village"}]