[{"id":"544060405","name":"مدينة الكويت","lat":29.3796532,"lon":47.9734174,"type":"city"},{"id":"1278188834","name":"الجهراء","lat":29.3474636,"lon":47.6722054,"type":"city"},{"id":"1760623214","name":"الأحمدي","lat":29.0890687,"lon":48.0610236,"type":"city"},{"id":"4588169807","name":"صباح الأحمد","lat":28.7823563,"lon":48.0636544,"type":"town"},{"id":"4600587315","name":"علي صباح السالم","lat":28.9555874,"lon":48.1507963,"type":"town"},{"id":"10707750005","name":"الصبية","lat":29.4488272,"lon":47.7436464,"type":"town"},{"id":"12135776171","name":"أبو الحصاني","lat":29.1939127,"lon":48.1125675,"type":"town"}]