[{"id":"26544289","name":"Алматы","lat":43.2363924,"lon":76.9457275,"type":"city"},{"id":"27522202","name":"Талғар","lat":43.302721,"lon":77.2394726,"type":"city"},{"id":"27524816","name":"Семей","lat":50.404377,"lon":80.2496637,"type":"city"},{"id":"27548009","name":"Астана","lat":51.1282205,"lon":71.4306682,"type":"city"},{"id":"98022062","name":"Атырау","lat":47.1067183,"lon":51.9138976,"type":"city"},{"id":"98054566","name":"Форт-Шевченко","lat":44.508556,"lon":50.261929,"type":"city"},{"id":"214887132","name":"Түркістан","lat":43.3019457,"lon":68.2703698,"type":"city"},{"id":"240470924","name":"Тараз","lat":42.9015945,"lon":71.3769302,"type":"city"},{"id":"240505390","name":"Шу","lat":43.608765,"lon":73.76075,"type":"city"},{"id":"240614298","name":"Бауыржан Момышұлы ауылы","lat":42.618401,"lon":70.769516,"type":"town"},{"id":"240707056","name":"Қаратау","lat":43.176197,"lon":70.46489,"type":"city"},{"id":"240711925","name":"Жаңатас","lat":43.5567547,"lon":69.7265539,"type":"city"},{"id":"240865457","name":"Қарағанды","lat":49.8161282,"lon":73.1026622,"type":"city"},{"id":"240872918","name":"Павлодар","lat":52.2857573,"lon":76.9455035,"type":"city"},{"id":"240993564","name":"Өскемен","lat":49.9484438,"lon":82.6274791,"type":"city"},{"id":"241035125","name":"Ақтөбе","lat":50.2836938,"lon":57.2298129,"type":"city"},{"id":"241455373","name":"Теміртау","lat":50.0587825,"lon":72.9535681,"type":"city"},{"id":"241492821","name":"Қызылорда","lat":44.8426778,"lon":65.5036151,"type":"city"},{"id":"241542056","name":"Көкшетау","lat":53.2852054,"lon":69.3814676,"type":"city"},{"id":"241549456","name":"Рудный","lat":52.964458,"lon":63.133488,"type":"city"},{"id":"241679356","name":"Талдықорған","lat":45.0177188,"lon":78.3820494,"type":"city"},{"id":"241772277","name":"Кентау","lat":43.5165919,"lon":68.4996044,"type":"city"},{"id":"241781833","name":"Арыс","lat":42.4324695,"lon":68.8134889,"type":"city"},{"id":"241860451","name":"Шоқпар","lat":43.825256,"lon":74.378639,"type":"village"},{"id":"242121562","name":"Отар","lat":43.5361304,"lon":75.2160251,"type":"town"},{"id":"242415806","name":"Сарыөзек","lat":44.362385,"lon":77.974594,"type":"town"},{"id":"242465214","name":"Қонаев","lat":43.855174,"lon":77.0614587,"type":"city"},{"id":"242767649","name":"Көксу","lat":45.001022,"lon":77.92244,"type":"village"},{"id":"242792776","name":"Қарабұлақ","lat":44.908175,"lon":78.4911895,"type":"town"},{"id":"242793665","name":"Текелі","lat":44.8615202,"lon":78.7629423,"type":"city"},{"id":"242863116","name":"Жарма","lat":48.78231,"lon":80.878319,"type":"town"},{"id":"243060934","name":"Жаңғызтөбе","lat":49.211071,"lon":81.217087,"type":"town"},{"id":"243119367","name":"Ақтоғай","lat":46.952198,"lon":79.67543,"type":"village"},{"id":"243178767","name":"Лепсі","lat":46.236942,"lon":78.935387,"type":"town"},{"id":"243182293","name":"Матай","lat":45.8991847,"lon":78.7190589,"type":"village"},{"id":"243235602","name":"Үшарал","lat":46.176125,"lon":80.952568,"type":"city"},{"id":"243324293","name":"Сарқан","lat":45.4109229,"lon":79.9155159,"type":"city"},{"id":"243325633","name":"Жансүгіров","lat":45.398308,"lon":79.508598,"type":"town"},{"id":"243326807","name":"Алажиде","lat":45.441494,"lon":78.414841,"type":"village"},{"id":"243423067","name":"Таскескен","lat":47.224537,"lon":80.785606,"type":"village"},{"id":"243464146","name":"Мақаншы","lat":46.7903859,"lon":82.020632,"type":"town"},{"id":"243465319","name":"Үржар","lat":47.0960085,"lon":81.6214218,"type":"town"},{"id":"243472864","name":"Шыңқожа","lat":47.7429336,"lon":80.6455381,"type":"village"},{"id":"243487112","name":"Балпық би","lat":44.901318,"lon":78.23307,"type":"town"},{"id":"243508453","name":"Достық","lat":45.256062,"lon":82.492783,"type":"village"},{"id":"243657575","name":"Жаркент","lat":44.165665,"lon":80.002739,"type":"city"},{"id":"243659737","name":"Көктал","lat":44.137226,"lon":79.812553,"type":"village"},{"id":"243692801","name":"Шарын","lat":43.772888,"lon":79.390045,"type":"village"},{"id":"243693248","name":"Шонжы","lat":43.537277,"lon":79.465935,"type":"town"},{"id":"243697387","name":"Қырғызсай","lat":43.33268,"lon":79.48069,"type":"village"},{"id":"243700481","name":"Қалжат","lat":43.509441,"lon":80.674171,"type":"village"},{"id":"243708956","name":"Ақтам","lat":43.438694,"lon":79.820198,"type":"village"},{"id":"243723775","name":"Кеген","lat":43.021698,"lon":79.22316,"type":"town"},{"id":"243725702","name":"Шелек","lat":43.5994233,"lon":78.2491677,"type":"town"},{"id":"243735997","name":"Сарыжаз","lat":42.9105,"lon":79.60717,"type":"village"},{"id":"243737203","name":"Текес","lat":42.830818,"lon":80.050743,"type":"village"},{"id":"243741613","name":"Нарынқол","lat":42.729275,"lon":80.177589,"type":"town"},{"id":"243743625","name":"Есік","lat":43.353255,"lon":77.4640871,"type":"city"},{"id":"243748132","name":"Сүмбе","lat":42.930916,"lon":80.485435,"type":"village"},{"id":"243748155","name":"Сарыбастау","lat":42.97979,"lon":80.275154,"type":"village"},{"id":"243798668","name":"Саты","lat":43.070591,"lon":78.408775,"type":"village"},{"id":"243850399","name":"Қарашоқы","lat":44.101494,"lon":77.933182,"type":"village"},{"id":"243991314","name":"Ақши","lat":43.9933443,"lon":76.3339,"type":"village"},{"id":"243995789","name":"Қопа","lat":43.526936,"lon":75.804581,"type":"village"},{"id":"243997970","name":"Жібек жолы","lat":43.3704541,"lon":76.6244345,"type":"town"},{"id":"243998210","name":"Қазыбек бек ауылы","lat":43.60223,"lon":76.318153,"type":"village"},{"id":"243998902","name":"Ұзынағаш","lat":43.2118387,"lon":76.3159728,"type":"town"},{"id":"244010886","name":"Ақсүйек","lat":44.621609,"lon":74.504158,"type":"village"},{"id":"244017974","name":"Балқаш","lat":46.8433208,"lon":74.9773285,"type":"town"},{"id":"244109105","name":"Қабанбай","lat":45.834267,"lon":80.630844,"type":"town"},{"id":"244114769","name":"Бақты","lat":46.659008,"lon":82.734589,"type":"village"},{"id":"244118007","name":"Қалбатау","lat":49.3300079,"lon":81.5734789,"type":"town"},{"id":"244118661","name":"Ақжал","lat":47.747051,"lon":74.026794,"type":"village"},{"id":"244128763","name":"Көкпекті","lat":48.7558184,"lon":82.3826094,"type":"village"},{"id":"244147213","name":"Риддер","lat":50.338932,"lon":83.506157,"type":"city"},{"id":"244198209","name":"Алтай","lat":49.724243,"lon":84.275146,"type":"city"},{"id":"244458811","name":"Қордай","lat":43.042965,"lon":74.714485,"type":"town"},{"id":"244526819","name":"Меркі","lat":42.8651436,"lon":73.1861106,"type":"town"},{"id":"244529371","name":"Леңгір","lat":42.182169,"lon":69.8873166,"type":"town"},{"id":"244532522","name":"Сарыағаш","lat":41.4673309,"lon":69.1705119,"type":"city"},{"id":"247318618","name":"Жетісай","lat":40.777134,"lon":68.324677,"type":"city"},{"id":"247318653","name":"Атакент","lat":40.844435,"lon":68.5090214,"type":"town"},{"id":"247318736","name":"Мырзакент","lat":40.6654951,"lon":68.5499938,"type":"town"},{"id":"247318846","name":"Өркенді","lat":40.8880014,"lon":68.3545185,"type":"village"},{"id":"247319161","name":"Шардара","lat":41.255856,"lon":67.975266,"type":"city"},{"id":"247324996","name":"Әлімтау","lat":41.701691,"lon":68.413399,"type":"village"},{"id":"248057498","name":"Лисаковск","lat":52.545864,"lon":62.489201,"type":"city"},{"id":"253063867","name":"Жаңаөзен","lat":43.3381034,"lon":52.8556219,"type":"city"},{"id":"253075983","name":"Құрық","lat":43.176664,"lon":51.6796799,"type":"town"},{"id":"253716507","name":"Құлсары","lat":46.9621483,"lon":54.0129176,"type":"city"},{"id":"253722149","name":"Қосшағыл","lat":46.848301,"lon":53.7976101,"type":"village"},{"id":"253722523","name":"Теңіз","lat":46.3907488,"lon":53.4782972,"type":"village"},{"id":"253725107","name":"Мақат","lat":47.6471515,"lon":53.350528,"type":"town"},{"id":"253725345","name":"Индербор","lat":48.5610249,"lon":51.7478775,"type":"town"},{"id":"253729284","name":"Махамбет","lat":47.675577,"lon":51.5865434,"type":"town"},{"id":"253730815","name":"Доссор","lat":47.522774,"lon":52.979435,"type":"town"},{"id":"253733645","name":"Ақкөл","lat":46.659927,"lon":49.0501562,"type":"village"},{"id":"253944927","name":"Түрген","lat":43.396721,"lon":77.593498,"type":"village"},{"id":"253983700","name":"Бейнеу","lat":45.321377,"lon":55.186226,"type":"town"},{"id":"254129240","name":"Мұқыр","lat":48.0462032,"lon":54.4958009,"type":"village"},{"id":"254135336","name":"Сағыз","lat":48.234829,"lon":54.878654,"type":"village"},{"id":"254136309","name":"Миялы","lat":48.8832654,"lon":53.7996188,"type":"village"},{"id":"254139962","name":"Қарауылкелді","lat":48.6930842,"lon":55.8786481,"type":"town"},{"id":"254143253","name":"Шұбарқұдық","lat":49.1431517,"lon":56.4820258,"type":"town"},{"id":"254144883","name":"Қандыағаш","lat":49.4718361,"lon":57.4224647,"type":"town"},{"id":"254313000","name":"Ақадыр","lat":48.259068,"lon":72.854958,"type":"town"},{"id":"254313822","name":"Ақшатау","lat":47.985634,"lon":74.043442,"type":"village"},{"id":"254314127","name":"Төменгі Қайрақты","lat":48.45422,"lon":73.213799,"type":"village"},{"id":"254316151","name":"Мойынты","lat":47.2227211,"lon":73.3554614,"type":"town"},{"id":"256823486","name":"Топар","lat":45.036915,"lon":75.020836,"type":"village"},{"id":"271077515","name":"Әйтеке би кенті","lat":45.844875,"lon":62.153023,"type":"town"},{"id":"271080647","name":"Арал","lat":46.797985,"lon":61.661221,"type":"city"},{"id":"271085442","name":"Қазалы","lat":45.76255,"lon":62.101181,"type":"city"},{"id":"271092323","name":"Байқоңыр","lat":45.6321977,"lon":63.3209201,"type":"city"},{"id":"271100134","name":"Жосалы","lat":45.484024,"lon":64.0849,"type":"town"},{"id":"271109700","name":"Жақсықылыш","lat":46.828312,"lon":61.859272,"type":"village"},{"id":"271120352","name":"Қорғалжын","lat":50.5837125,"lon":70.0179587,"type":"village"},{"id":"271125900","name":"Ембі","lat":48.8337558,"lon":58.1453735,"type":"town"},{"id":"271147978","name":"Шалқар","lat":47.8273018,"lon":59.6159216,"type":"city"},{"id":"271172811","name":"Ырғыз","lat":48.617874,"lon":61.263981,"type":"town"},{"id":"271181898","name":"Қарабұтақ","lat":49.956577,"lon":60.117455,"type":"village"},{"id":"271183132","name":"Тасөткел","lat":50.305492,"lon":59.633911,"type":"village"},{"id":"271183751","name":"Хромтау","lat":50.2578229,"lon":58.4326684,"type":"town"},{"id":"271203690","name":"Жезқазған","lat":47.80434,"lon":67.7145674,"type":"city"},{"id":"271292059","name":"Қаражал","lat":48.0045008,"lon":70.7936243,"type":"city"},{"id":"271293913","name":"Жаңаарқа","lat":48.6861721,"lon":71.6355854,"type":"town"},{"id":"271296615","name":"Сәкен Сейфуллин","lat":48.855301,"lon":72.835365,"type":"town"},{"id":"271301949","name":"Қарабас","lat":49.573978,"lon":72.903198,"type":"town"},{"id":"271309842","name":"Қарқаралы","lat":49.4124087,"lon":75.4704514,"type":"town"},{"id":"271311323","name":"Приозёрск","lat":46.0308244,"lon":73.6925172,"type":"city"},{"id":"271311686","name":"Саран","lat":49.8017081,"lon":72.8285112,"type":"city"},{"id":"271312178","name":"Сәтбаев","lat":47.904949,"lon":67.530579,"type":"city"},{"id":"271395447","name":"Осакаровка","lat":50.5606688,"lon":72.5813736,"type":"village"},{"id":"271402224","name":"Ақтоғай","lat":48.3196789,"lon":74.9799914,"type":"village"},{"id":"271402834","name":"Жарлы","lat":49.1805169,"lon":75.214441,"type":"village"},{"id":"271406147","name":"Қарағайлы","lat":49.358673,"lon":75.736122,"type":"village"},{"id":"271413561","name":"Татан","lat":48.705051,"lon":76.696098,"type":"village"},{"id":"271416049","name":"Нұра","lat":50.2606707,"lon":71.5527472,"type":"village"},{"id":"286643628","name":"Ебейті","lat":48.089699,"lon":55.230473,"type":"village"},{"id":"293607451","name":"Ақсу","lat":52.0354244,"lon":76.9341133,"type":"city"},{"id":"297356704","name":"Қарасаз","lat":43.045956,"lon":79.87899,"type":"village"},{"id":"297359900","name":"Жамбыл","lat":42.722965,"lon":80.065079,"type":"village"},{"id":"297596160","name":"Құлан","lat":42.9107803,"lon":72.7082491,"type":"village"},{"id":"297596195","name":"Когершин","lat":42.8754489,"lon":72.5192587,"type":"village"},{"id":"297596392","name":"Ақыртөбе","lat":42.990593,"lon":72.10434,"type":"village"},{"id":"298076339","name":"Қалқаман","lat":51.953449,"lon":76.015717,"type":"village"},{"id":"298109357","name":"Ерейментау","lat":51.619881,"lon":73.103348,"type":"city"},{"id":"299923721","name":"Абай","lat":49.6299017,"lon":72.8722067,"type":"city"},{"id":"299924758","name":"Шешенқара","lat":49.964592,"lon":74.032227,"type":"village"},{"id":"299978968","name":"Ақтау","lat":50.2191313,"lon":73.0612975,"type":"town"},{"id":"299982128","name":"Арқалық","lat":50.253281,"lon":66.914993,"type":"city"},{"id":"300300775","name":"Қарамұрт","lat":42.3090766,"lon":69.9700572,"type":"village"},{"id":"301060581","name":"Южный","lat":49.358036,"lon":72.905922,"type":"village"},{"id":"301373626","name":"Қоңырат","lat":46.964844,"lon":74.987457,"type":"village"},{"id":"301374302","name":"Қушоқы","lat":50.23151,"lon":73.40078,"type":"village"},{"id":"301374694","name":"Қызылжар","lat":48.296661,"lon":69.650841,"type":"town"},{"id":"301471723","name":"Қарқара","lat":42.892696,"lon":79.238518,"type":"village"},{"id":"301715316","name":"Шахан","lat":49.8186889,"lon":72.6548148,"type":"town"},{"id":"301716913","name":"Шахтинск","lat":49.7056642,"lon":72.5948421,"type":"city"},{"id":"301717251","name":"Жәйрем","lat":48.335682,"lon":70.161003,"type":"town"},{"id":"301733193","name":"Жамбыл","lat":47.205521,"lon":71.394493,"type":"village"},{"id":"301760956","name":"Ғабиден Мұстафин кенті","lat":50.1196785,"lon":73.1632863,"type":"village"},{"id":"301761659","name":"Топар","lat":49.5172874,"lon":72.830423,"type":"town"},{"id":"303821397","name":"Қарабалық","lat":53.748184,"lon":62.062511,"type":"town"},{"id":"303893241","name":"Әулиекөл","lat":52.361904,"lon":64.133171,"type":"village"},{"id":"303894543","name":"Аманқарағай","lat":52.402306,"lon":64.081749,"type":"village"},{"id":"303894619","name":"Октябрьское","lat":52.10815,"lon":65.673683,"type":"village"},{"id":"303908697","name":"Есіл","lat":51.9607263,"lon":66.404878,"type":"town"},{"id":"303910698","name":"Сұрған","lat":52.0025235,"lon":66.2494551,"type":"village"},{"id":"303911228","name":"Жақсы","lat":51.908749,"lon":67.31617,"type":"village"},{"id":"303913171","name":"Атбасар","lat":51.8097369,"lon":68.3573356,"type":"city"},{"id":"311797652","name":"Шемонаиха","lat":50.6287241,"lon":81.9155467,"type":"city"},{"id":"334357338","name":"Жайсан","lat":50.848034,"lon":56.202484,"type":"village"},{"id":"335384896","name":"Байкент","lat":43.4699979,"lon":76.8081867,"type":"village"},{"id":"339945971","name":"Степногорск","lat":52.346371,"lon":71.880493,"type":"city"},{"id":"344967994","name":"Қайыңды","lat":50.087032,"lon":48.858009,"type":"village"},{"id":"344967998","name":"Талов","lat":50.402683,"lon":47.594311,"type":"village"},{"id":"344968003","name":"Болашақ","lat":50.367916,"lon":48.77055,"type":"village"},{"id":"344968007","name":"Қараоба","lat":49.973267,"lon":47.95248,"type":"village"},{"id":"377600470","name":"Курчатов","lat":50.7565343,"lon":78.5486736,"type":"city"},{"id":"410076644","name":"Амангелді","lat":50.1806755,"lon":65.1942135,"type":"village"},{"id":"410079696","name":"Державинск","lat":51.0990849,"lon":66.3138516,"type":"city"},{"id":"411845123","name":"Новоишимское","lat":53.2025913,"lon":66.7929531,"type":"village"},{"id":"411850771","name":"Сергеевка","lat":53.880951,"lon":67.415863,"type":"village"},{"id":"411933850","name":"Атамекен","lat":44.212772,"lon":80.206566,"type":"village"},{"id":"411935261","name":"Қорғас","lat":44.22364,"lon":80.384232,"type":"village"},{"id":"412236278","name":"Зеренді","lat":52.907032,"lon":69.150291,"type":"village"},{"id":"412258736","name":"Имантау","lat":52.9782974,"lon":68.3600604,"type":"village"},{"id":"430704251","name":"Бөрлі","lat":51.427292,"lon":52.715065,"type":"village"},{"id":"432195516","name":"Космос","lat":43.501011,"lon":77.263962,"type":"village"},{"id":"432758393","name":"Жаңаталап","lat":43.4739,"lon":76.964546,"type":"village"},{"id":"435393175","name":"Ақсай","lat":51.173893,"lon":53.011478,"type":"city"},{"id":"447880383","name":"Трамбовка","lat":52.85553,"lon":70.502464,"type":"village"},{"id":"447881130","name":"Уюмшил","lat":52.804974,"lon":70.462814,"type":"village"},{"id":"448814768","name":"Қостанай","lat":53.2146604,"lon":63.632607,"type":"city"},{"id":"448861123","name":"Қарамеңді батыр ауылы","lat":51.3225665,"lon":70.765837,"type":"village"},{"id":"450653926","name":"Көкентау","lat":50.0802945,"lon":79.580019,"type":"village"},{"id":"450653932","name":"Мәдениет","lat":47.87677,"lon":78.621796,"type":"village"},{"id":"451501752","name":"Үлкен Нарын","lat":49.213886,"lon":84.508766,"type":"village"},{"id":"451514296","name":"Өрел","lat":49.239742,"lon":86.339424,"type":"village"},{"id":"451519656","name":"Железинка","lat":53.5379935,"lon":75.3129714,"type":"village"},{"id":"451529108","name":"Кішішыған","lat":44.168655,"lon":80.059517,"type":"village"},{"id":"451700141","name":"Нұра","lat":43.554615,"lon":78.469749,"type":"village"},{"id":"451700142","name":"Ащысай","lat":43.555252,"lon":77.974007,"type":"village"},{"id":"451700146","name":"Қазақстан","lat":43.52002,"lon":77.77607,"type":"village"},{"id":"451700148","name":"Қайыпов","lat":43.5306078,"lon":77.7567173,"type":"village"},{"id":"451700150","name":"Бәйдібек би","lat":43.512241,"lon":77.692787,"type":"village"},{"id":"451700151","name":"Ақши","lat":43.5148743,"lon":77.6358004,"type":"village"},{"id":"451700153","name":"Еңбек","lat":43.483536,"lon":77.464844,"type":"village"},{"id":"451700154","name":"Жаңашар","lat":43.438431,"lon":77.259712,"type":"village"},{"id":"451700155","name":"Ақбастау","lat":43.521763,"lon":77.482529,"type":"village"},{"id":"451700156","name":"Қырбалтабай","lat":43.5856441,"lon":77.4920174,"type":"village"},{"id":"451701088","name":"Төңкеріс","lat":43.47699,"lon":77.136513,"type":"village"},{"id":"451702142","name":"Қарғалы","lat":43.164577,"lon":76.414658,"type":"village"},{"id":"451702143","name":"Бекболат Әшекеев ауылы","lat":43.1683418,"lon":76.4784487,"type":"village"},{"id":"451702144","name":"Шамалған","lat":43.1897022,"lon":76.5344882,"type":"village"},{"id":"451702145","name":"Жандосов","lat":43.167881,"lon":76.562103,"type":"village"},{"id":"451702312","name":"Қатаркөл","lat":52.9485118,"lon":70.423345,"type":"village"},{"id":"452644497","name":"Қызылұйым","lat":52.863701,"lon":70.601868,"type":"village"},{"id":"453920694","name":"Макинск","lat":52.63287,"lon":70.418213,"type":"city"},{"id":"453920696","name":"Шиели","lat":52.6731761,"lon":70.439953,"type":"village"},{"id":"453920742","name":"Степняк","lat":52.8312787,"lon":70.7869386,"type":"city"},{"id":"453920819","name":"Үлгі","lat":52.8910681,"lon":70.7118731,"type":"village"},{"id":"454087942","name":"Карловка","lat":52.874599,"lon":70.55101,"type":"village"},{"id":"454129273","name":"Жүкей","lat":52.922016,"lon":70.604584,"type":"village"},{"id":"454165207","name":"Макинка","lat":52.5708593,"lon":70.5991006,"type":"village"},{"id":"456762444","name":"Көктал","lat":43.4363447,"lon":77.070037,"type":"village"},{"id":"457302773","name":"Әли","lat":43.564079,"lon":77.032692,"type":"village"},{"id":"457427340","name":"Шүлбі","lat":50.390991,"lon":81.067596,"type":"town"},{"id":"457430731","name":"Новобаженово","lat":50.3832122,"lon":81.0282617,"type":"village"},{"id":"457864354","name":"Алатау","lat":43.6739054,"lon":77.1079737,"type":"town"},{"id":"462125034","name":"Дмитриевка","lat":50.759914,"lon":80.828133,"type":"village"},{"id":"462125091","name":"Бородулиха","lat":50.7207116,"lon":80.9340577,"type":"village"},{"id":"462144600","name":"Жерновка","lat":50.5144974,"lon":81.1131078,"type":"village"},{"id":"462194001","name":"Таврическое","lat":50.1712,"lon":82.056839,"type":"village"},{"id":"463154909","name":"Райымбек","lat":43.19762,"lon":76.750183,"type":"village"},{"id":"469256649","name":"Ақши","lat":50.4100975,"lon":81.267846,"type":"village"},{"id":"469259531","name":"Озёрки","lat":50.377579,"lon":80.488586,"type":"village"},{"id":"469687233","name":"Жаңақорған","lat":43.909836,"lon":67.249458,"type":"town"},{"id":"471558381","name":"Терісаққан","lat":51.2667848,"lon":67.2140228,"type":"village"},{"id":"471753777","name":"Астраханка","lat":51.5291831,"lon":69.7916595,"type":"village"},{"id":"471941831","name":"Әбжан","lat":52.9436465,"lon":76.1386014,"type":"village"},{"id":"471942685","name":"Алға","lat":49.896259,"lon":57.330296,"type":"town"},{"id":"471953135","name":"Шыңғырлау","lat":51.100506,"lon":54.085167,"type":"village"},{"id":"472267642","name":"Аққала","lat":48.6191293,"lon":51.7564553,"type":"village"},{"id":"472268252","name":"Тайпақ","lat":49.037285,"lon":51.830154,"type":"village"},{"id":"472268433","name":"Аққыстау","lat":47.224312,"lon":51.009457,"type":"village"},{"id":"473080162","name":"Жаңақала","lat":49.2131283,"lon":50.3002269,"type":"village"},{"id":"473098790","name":"Тасқала","lat":51.106861,"lon":50.291088,"type":"village"},{"id":"473112751","name":"Перемётное","lat":51.1984812,"lon":50.8548498,"type":"village"},{"id":"473115328","name":"Теректі","lat":51.222443,"lon":51.962719,"type":"village"},{"id":"473372461","name":"Жәнібек","lat":49.4230074,"lon":46.8517166,"type":"village"},{"id":"473374582","name":"Казталовка","lat":49.769405,"lon":48.689529,"type":"village"},{"id":"473381338","name":"Чапаев","lat":50.1878581,"lon":51.1716191,"type":"village"},{"id":"473398051","name":"Жымпиты","lat":50.260317,"lon":52.6010876,"type":"village"},{"id":"473398647","name":"Қаратөбе","lat":49.690926,"lon":53.506786,"type":"village"},{"id":"473399115","name":"Сайқын","lat":48.813747,"lon":46.768414,"type":"village"},{"id":"473504514","name":"Қарағанды","lat":50.705437,"lon":52.1511,"type":"village"},{"id":"473505835","name":"Шаған","lat":50.6093589,"lon":79.2310067,"type":"town"},{"id":"474351119","name":"Сарыжал","lat":49.6000366,"lon":78.7388449,"type":"village"},{"id":"474352176","name":"Қарауыл","lat":48.949196,"lon":79.254616,"type":"village"},{"id":"474358325","name":"Канонерка","lat":50.7248392,"lon":79.6896385,"type":"village"},{"id":"474358358","name":"Дөлен","lat":50.663971,"lon":79.310699,"type":"village"},{"id":"475564553","name":"Привольное","lat":50.101284,"lon":81.552292,"type":"village"},{"id":"475578830","name":"Ивановка","lat":50.8923845,"lon":81.0491695,"type":"village"},{"id":"476259089","name":"Камышенка","lat":50.703091,"lon":80.749207,"type":"village"},{"id":"476263135","name":"Шетпе","lat":44.1413139,"lon":52.1556413,"type":"town"},{"id":"476293790","name":"Сайөтес","lat":44.327709,"lon":53.533142,"type":"village"},{"id":"476310282","name":"Ақжігіт","lat":45.037197,"lon":55.754574,"type":"village"},{"id":"481045720","name":"Ертіс","lat":53.3325963,"lon":75.4584153,"type":"town"},{"id":"484430183","name":"Қойшыбек","lat":43.4732602,"lon":77.1966205,"type":"village"},{"id":"484430197","name":"Алға","lat":43.443977,"lon":77.17585,"type":"village"},{"id":"489756729","name":"Қарабұлақ","lat":46.142754,"lon":82.167526,"type":"village"},{"id":"491923263","name":"Көкпек","lat":43.448711,"lon":78.674431,"type":"village"},{"id":"494763384","name":"Сәуле","lat":52.738491,"lon":70.711067,"type":"village"},{"id":"494764580","name":"Ақсу","lat":52.4613045,"lon":71.9857759,"type":"town"},{"id":"494765018","name":"Мамай","lat":52.598301,"lon":71.21508,"type":"village"},{"id":"494770324","name":"Азат","lat":52.0955584,"lon":71.530673,"type":"village"},{"id":"494792333","name":"Шақаман","lat":50.4569434,"lon":79.8471692,"type":"village"},{"id":"498369106","name":"Мадениет","lat":53.036663,"lon":70.629723,"type":"village"},{"id":"498369188","name":"Жанаталап","lat":53.119839,"lon":70.583946,"type":"village"},{"id":"498384006","name":"Тасшалкар","lat":53.0199827,"lon":70.7502258,"type":"village"},{"id":"506240936","name":"Рахат","lat":43.375938,"lon":77.360413,"type":"village"},{"id":"506868474","name":"Карагай","lat":52.640743,"lon":70.505852,"type":"village"},{"id":"506868865","name":"Зеленый Бор","lat":53.1049683,"lon":70.3610368,"type":"village"},{"id":"516335109","name":"Опытное Поле","lat":50.0358797,"lon":82.5502107,"type":"village"},{"id":"516335145","name":"Меновное","lat":49.9335966,"lon":82.5842022,"type":"village"},{"id":"516335153","name":"Ахмер","lat":49.9486903,"lon":82.5281972,"type":"village"},{"id":"518287466","name":"Асқаралы","lat":50.0561736,"lon":81.069851,"type":"village"},{"id":"518287479","name":"Кіші Қарасу","lat":49.9662462,"lon":81.124413,"type":"village"},{"id":"518287483","name":"Песчанка","lat":50.533958,"lon":81.572403,"type":"village"},{"id":"518287494","name":"Поллог","lat":50.5022735,"lon":81.2293685,"type":"village"},{"id":"518293039","name":"Бұлақ","lat":50.32428,"lon":80.864182,"type":"village"},{"id":"518293041","name":"Талица","lat":50.376945,"lon":80.812721,"type":"village"},{"id":"518293043","name":"Приречное","lat":50.358963,"lon":80.417587,"type":"village"},{"id":"518293048","name":"Стеклянка","lat":50.4971538,"lon":79.9362768,"type":"village"},{"id":"518293049","name":"Глуховка","lat":50.495895,"lon":79.870018,"type":"village"},{"id":"518293050","name":"Старая Крепость","lat":50.4967793,"lon":80.0916281,"type":"village"},{"id":"518293051","name":"Жыланды","lat":50.6495441,"lon":79.8722221,"type":"village"},{"id":"518293055","name":"Белокаменка","lat":50.5566815,"lon":79.6014557,"type":"village"},{"id":"518293912","name":"Бөкенші","lat":50.4846,"lon":79.724007,"type":"village"},{"id":"518295111","name":"Петропавловка","lat":50.746124,"lon":80.286369,"type":"village"},{"id":"518295846","name":"Шелехово","lat":50.800945,"lon":80.494766,"type":"village"},{"id":"518295976","name":"Зенковка","lat":50.7839636,"lon":80.6206941,"type":"village"},{"id":"518296069","name":"Орловка","lat":50.8267594,"lon":80.5575952,"type":"village"},{"id":"518296595","name":"Бурабай","lat":50.8598407,"lon":80.9168819,"type":"village"},{"id":"518296720","name":"Знаменка","lat":50.8021448,"lon":80.9982521,"type":"village"},{"id":"518296766","name":"Берёзовка қосшар","lat":50.8411788,"lon":81.016961,"type":"village"},{"id":"518300599","name":"Прогресс","lat":50.1360958,"lon":82.3910598,"type":"village"},{"id":"518300712","name":"Верхнеберёзовка","lat":50.277526,"lon":82.2200748,"type":"village"},{"id":"519755530","name":"Украинка","lat":50.02066,"lon":82.413734,"type":"village"},{"id":"519784029","name":"Саратовка","lat":50.060206,"lon":82.3202022,"type":"village"},{"id":"519786607","name":"Гагарино","lat":50.146702,"lon":81.848709,"type":"village"},{"id":"519820382","name":"Успенка","lat":50.6010548,"lon":80.9212857,"type":"village"},{"id":"519821442","name":"Ауыл станциясы","lat":51.0527443,"lon":81.0405945,"type":"village"},{"id":"519831511","name":"Переменовка","lat":50.847057,"lon":81.274963,"type":"village"},{"id":"519889986","name":"Қоңырбиік","lat":49.8275412,"lon":81.0744698,"type":"village"},{"id":"519895163","name":"Суықбұлақ","lat":49.7947582,"lon":80.8245025,"type":"town"},{"id":"519898483","name":"Ұзынжал","lat":49.9838196,"lon":80.7455445,"type":"village"},{"id":"519916928","name":"Михайличенково","lat":50.6436536,"lon":81.1319342,"type":"village"},{"id":"520311978","name":"Жаңа Бұқтырма","lat":49.629428,"lon":83.5186178,"type":"village"},{"id":"521350960","name":"Каменный Карьер","lat":50.006359,"lon":82.823639,"type":"village"},{"id":"521372223","name":"Үлбі","lat":50.265156,"lon":83.377739,"type":"town"},{"id":"521670304","name":"Таңдай","lat":47.549278,"lon":51.513214,"type":"village"},{"id":"521670845","name":"Хамит Ерғалиев ауылы","lat":47.3548469,"lon":51.1927223,"type":"village"},{"id":"521722378","name":"Қобда","lat":50.1521793,"lon":55.6679179,"type":"town"},{"id":"521734849","name":"Серебрянск","lat":49.684608,"lon":83.297089,"type":"city"},{"id":"521749286","name":"Полянское","lat":49.716362,"lon":83.84864,"type":"village"},{"id":"521749769","name":"Прибрежный","lat":49.659836,"lon":83.757141,"type":"village"},{"id":"521750566","name":"Октябрьский","lat":49.62682,"lon":83.589432,"type":"village"},{"id":"521776012","name":"Снегирёво","lat":49.749554,"lon":84.068237,"type":"village"},{"id":"521784704","name":"Соловьёво","lat":49.620834,"lon":84.3489,"type":"village"},{"id":"521794319","name":"Средигорное","lat":49.507492,"lon":84.388695,"type":"village"},{"id":"521805414","name":"Северное","lat":49.817429,"lon":83.139534,"type":"village"},{"id":"521811503","name":"Парыгино","lat":49.8076108,"lon":84.1209254,"type":"village"},{"id":"521847252","name":"Аршаты","lat":49.293674,"lon":86.560722,"type":"village"},{"id":"521851784","name":"Катонқарағай","lat":49.1776001,"lon":85.6063821,"type":"village"},{"id":"521857053","name":"Солдатово","lat":49.215656,"lon":85.074898,"type":"village"},{"id":"521858747","name":"Алтынбел","lat":49.2036564,"lon":84.8575274,"type":"village"},{"id":"521859099","name":"Кіші Нарым","lat":49.2585295,"lon":84.7444166,"type":"village"},{"id":"521864073","name":"Алтайка","lat":49.50032,"lon":83.8022,"type":"village"},{"id":"523843698","name":"Қоянбай","lat":51.5768956,"lon":79.3082949,"type":"village"},{"id":"523847700","name":"Қарағайлы","lat":51.0673446,"lon":79.4089326,"type":"village"},{"id":"523848244","name":"Бозтал","lat":51.0518487,"lon":79.6693215,"type":"village"},{"id":"523849716","name":"Ерназар","lat":51.449192,"lon":79.494125,"type":"village"},{"id":"523866666","name":"Изатулла","lat":50.734638,"lon":80.089699,"type":"village"},{"id":"524252481","name":"Майское","lat":52.8254968,"lon":62.6421096,"type":"village"},{"id":"525190320","name":"Денисовка","lat":52.44194,"lon":61.743259,"type":"village"},{"id":"525439568","name":"Құмқұдық","lat":50.469074,"lon":61.219841,"type":"village"},{"id":"525492535","name":"Тайынша","lat":53.847736,"lon":69.761436,"type":"town"},{"id":"527856584","name":"Азғыр","lat":47.8369853,"lon":47.9087224,"type":"village"},{"id":"529885575","name":"Секисовка","lat":50.3236983,"lon":82.5872488,"type":"village"},{"id":"531307345","name":"Қызылқайың","lat":45.847275,"lon":80.226814,"type":"village"},{"id":"531309211","name":"Қойлық","lat":45.652523,"lon":80.24292,"type":"village"},{"id":"533331785","name":"Зуевка","lat":53.2202782,"lon":64.5664812,"type":"village"},{"id":"533338426","name":"Сарыкөл","lat":53.317356,"lon":65.546844,"type":"town"},{"id":"533358782","name":"Чистополье","lat":52.5617672,"lon":67.250694,"type":"village"},{"id":"533382261","name":"Жалтыр","lat":51.6286543,"lon":69.834345,"type":"village"},{"id":"533388949","name":"Арайлы","lat":51.297096,"lon":71.00766,"type":"village"},{"id":"533751604","name":"Медеу","lat":49.250412,"lon":78.872673,"type":"village"},{"id":"533754334","name":"Баршатас","lat":48.167538,"lon":78.661774,"type":"village"},{"id":"534084948","name":"Үштөбе","lat":45.2513771,"lon":77.9838119,"type":"city"},{"id":"534085029","name":"Қызылағаш","lat":45.382175,"lon":78.730431,"type":"village"},{"id":"534085130","name":"Саяқ","lat":46.907158,"lon":77.353699,"type":"village"},{"id":"534085148","name":"Емелтау","lat":47.726979,"lon":77.4585254,"type":"village"},{"id":"534085162","name":"Айыртас","lat":48.0659083,"lon":76.8613988,"type":"village"},{"id":"534085183","name":"Қосағаш","lat":48.009022,"lon":78.606026,"type":"village"},{"id":"534085202","name":"Қорық","lat":48.446941,"lon":78.188896,"type":"village"},{"id":"534085211","name":"Қайнар","lat":49.2005611,"lon":77.3822229,"type":"village"},{"id":"534085217","name":"Танат","lat":49.0787648,"lon":78.1034192,"type":"village"},{"id":"534085218","name":"Ақбұлақ","lat":49.166667,"lon":77.950278,"type":"village"},{"id":"534085239","name":"Алғабас","lat":49.3560858,"lon":76.978603,"type":"village"},{"id":"534085272","name":"Абралы","lat":49.2647139,"lon":77.6358271,"type":"village"},{"id":"534085280","name":"Тоқтамыс","lat":49.2188887,"lon":78.3470019,"type":"village"},{"id":"534085322","name":"Жаңа Ақшиман","lat":50.7910655,"lon":76.7411852,"type":"village"},{"id":"534085391","name":"Евгеньевка","lat":51.962341,"lon":76.766731,"type":"village"},{"id":"534085434","name":"Жетіжар","lat":50.8936147,"lon":78.3127821,"type":"village"},{"id":"534085436","name":"Кривинка","lat":51.126555,"lon":78.1684302,"type":"village"},{"id":"534085486","name":"Төсағаш","lat":51.3186984,"lon":78.6972534,"type":"village"},{"id":"534085540","name":"Аққулы","lat":51.466458,"lon":77.7855099,"type":"village"},{"id":"534085548","name":"Баскөл","lat":51.735533,"lon":77.323883,"type":"village"},{"id":"534085549","name":"Қарақала","lat":51.720002,"lon":77.5325989,"type":"village"},{"id":"534085553","name":"Ольгинка","lat":51.9651078,"lon":77.6416907,"type":"village"},{"id":"534085567","name":"Шарбақты","lat":51.389167,"lon":78.292778,"type":"village"},{"id":"534085605","name":"Қазантай","lat":51.6383898,"lon":78.5523816,"type":"village"},{"id":"534085617","name":"Чигириновка","lat":52.012962,"lon":78.316551,"type":"village"},{"id":"534085620","name":"Мерғалым","lat":51.7835222,"lon":78.6688952,"type":"village"},{"id":"534085641","name":"Есілбай","lat":51.969723,"lon":78.449722,"type":"village"},{"id":"534085645","name":"Пограничник","lat":52.10859,"lon":76.4078124,"type":"village"},{"id":"534085650","name":"Жаңаауыл","lat":52.7118195,"lon":76.4696716,"type":"village"},{"id":"534085652","name":"Қараоба","lat":52.6861836,"lon":76.4894687,"type":"village"},{"id":"534085654","name":"Өтес","lat":52.627764,"lon":76.5430705,"type":"village"},{"id":"534085664","name":"Айнакөл","lat":52.2260325,"lon":76.8073692,"type":"village"},{"id":"534085666","name":"Атамекен","lat":52.260372,"lon":76.7871707,"type":"town"},{"id":"534085669","name":"Алғабас","lat":52.3007794,"lon":76.7749747,"type":"village"},{"id":"534085674","name":"Подстёпное","lat":52.1060676,"lon":77.0930943,"type":"village"},{"id":"534085675","name":"Байдала","lat":52.1382768,"lon":77.0549459,"type":"village"},{"id":"534085677","name":"Заозерное","lat":52.3142468,"lon":77.3028968,"type":"village"},{"id":"534085681","name":"Павлодарское","lat":52.3881139,"lon":76.8613965,"type":"village"},{"id":"534085684","name":"Қызылжар","lat":52.4592861,"lon":76.6621144,"type":"village"},{"id":"534085697","name":"Черноярка","lat":52.5206841,"lon":76.8082749,"type":"village"},{"id":"534085702","name":"Набережное","lat":52.6753321,"lon":76.7132395,"type":"village"},{"id":"534085704","name":"Жаңақала","lat":52.6299398,"lon":76.7346636,"type":"village"},{"id":"534085705","name":"Сычёвка","lat":52.5923861,"lon":76.7552357,"type":"village"},{"id":"534085706","name":"Мойылды","lat":52.3878986,"lon":77.0668014,"type":"village"},{"id":"534085712","name":"Ефремовка","lat":52.535145,"lon":77.343155,"type":"village"},{"id":"534085714","name":"Луганск","lat":52.6404462,"lon":77.3338158,"type":"village"},{"id":"534085736","name":"Исантерек","lat":52.7710049,"lon":76.4073486,"type":"village"},{"id":"534085821","name":"Қызылтаң","lat":52.920186,"lon":76.5068062,"type":"village"},{"id":"534085822","name":"Байконыс","lat":52.9550185,"lon":76.422458,"type":"village"},{"id":"534085835","name":"Алтай","lat":53.243057,"lon":76.502502,"type":"village"},{"id":"534085942","name":"Тлеубай","lat":53.0342583,"lon":76.6566146,"type":"village"},{"id":"534085946","name":"Қызылағаш","lat":52.8834293,"lon":77.0288084,"type":"village"},{"id":"534085961","name":"Тимирязево","lat":53.0698723,"lon":76.979392,"type":"village"},{"id":"534085963","name":"Константиновка","lat":52.7882912,"lon":77.224099,"type":"village"},{"id":"534085966","name":"Равнополь","lat":52.7849178,"lon":77.2591551,"type":"village"},{"id":"534085968","name":"Ольховка","lat":52.960382,"lon":77.110175,"type":"village"},{"id":"534085970","name":"Белоусовка","lat":52.935474,"lon":77.3126278,"type":"village"},{"id":"534085972","name":"Травянка","lat":52.993877,"lon":77.2818814,"type":"village"},{"id":"534085999","name":"Фрументьевка","lat":53.260555,"lon":76.713058,"type":"village"},{"id":"534086006","name":"Аққайың","lat":53.4356384,"lon":76.8373152,"type":"village"},{"id":"534086014","name":"Әулиеағаш","lat":53.353611,"lon":76.70639,"type":"village"},{"id":"534086032","name":"Әбілқайыр Баймолдин ауылы","lat":52.1043839,"lon":77.9770932,"type":"village"},{"id":"534086041","name":"Маралды","lat":52.2353808,"lon":77.5970672,"type":"village"},{"id":"534086091","name":"Тобылжан","lat":52.7104399,"lon":77.4540939,"type":"village"},{"id":"534086094","name":"Рождественка","lat":52.6664346,"lon":77.5168095,"type":"village"},{"id":"534086098","name":"Хмельницкое","lat":52.433483,"lon":77.768524,"type":"village"},{"id":"534086101","name":"Красиловка","lat":52.7129622,"lon":77.7912667,"type":"village"},{"id":"534086141","name":"Тақыр","lat":52.091583,"lon":78.063423,"type":"village"},{"id":"534086213","name":"Галкино","lat":52.240482,"lon":78.312706,"type":"village"},{"id":"534086252","name":"Жаңаауыл","lat":52.250313,"lon":78.654228,"type":"village"},{"id":"534086276","name":"Александровка","lat":52.33833,"lon":78.6749344,"type":"village"},{"id":"534086345","name":"Татьяновка","lat":52.436081,"lon":78.309593,"type":"village"},{"id":"534086367","name":"Шарбақты","lat":52.4894141,"lon":78.159375,"type":"village"},{"id":"534086371","name":"Сосновка","lat":52.7155581,"lon":78.0802164,"type":"village"},{"id":"534086381","name":"Алексеевка","lat":52.533333,"lon":78.5,"type":"village"},{"id":"534086383","name":"Сынтас","lat":52.6712473,"lon":78.3788857,"type":"village"},{"id":"534086385","name":"Успенка","lat":52.9072094,"lon":77.4185813,"type":"village"},{"id":"534086386","name":"Қоңырөзек","lat":52.9068529,"lon":77.8549965,"type":"village"},{"id":"534086388","name":"Заборовка","lat":52.854065,"lon":78.0102445,"type":"village"},{"id":"534086389","name":"Вознесенка","lat":52.82021,"lon":77.859444,"type":"village"},{"id":"534086390","name":"Надаровка","lat":52.800442,"lon":77.763329,"type":"village"},{"id":"534086396","name":"Дмитриевка","lat":52.9812669,"lon":77.9800137,"type":"village"},{"id":"534086404","name":"Ковалёвка","lat":53.1362476,"lon":77.6794878,"type":"village"},{"id":"534086406","name":"Қозыкеткен","lat":53.0967837,"lon":77.4400919,"type":"village"},{"id":"534086408","name":"Лозовое","lat":53.296017,"lon":77.77285,"type":"village"},{"id":"534086415","name":"Новопокровка","lat":52.9056906,"lon":78.0587924,"type":"village"},{"id":"534086421","name":"Галицкое","lat":53.0035123,"lon":78.1346185,"type":"village"},{"id":"534086431","name":"Жолтаптық","lat":53.720554,"lon":76.616386,"type":"village"},{"id":"534086435","name":"Мыңкөл","lat":53.7566768,"lon":76.6195014,"type":"village"},{"id":"534086444","name":"Петропавловка","lat":53.9597619,"lon":76.5727108,"type":"village"},{"id":"534086449","name":"Михайловка","lat":53.827221,"lon":76.546944,"type":"village"},{"id":"534086453","name":"Қоржынкөл","lat":53.517223,"lon":76.94194,"type":"village"},{"id":"534086461","name":"Красновка","lat":53.738015,"lon":76.9472481,"type":"village"},{"id":"534086466","name":"Тегістік","lat":53.602779,"lon":77.0,"type":"village"},{"id":"534086467","name":"Жаңақұрылыс","lat":53.5518087,"lon":77.1304467,"type":"village"},{"id":"534086479","name":"Жаңа Жұлдыз","lat":54.183333,"lon":76.4,"type":"village"},{"id":"534086485","name":"Майлы","lat":54.248333,"lon":76.590836,"type":"village"},{"id":"534086499","name":"Қаратай","lat":53.5158124,"lon":77.3963519,"type":"village"},{"id":"534086500","name":"Богатырь","lat":53.444443,"lon":77.575836,"type":"village"},{"id":"534086526","name":"Суықсай","lat":45.255363,"lon":79.413521,"type":"village"},{"id":"534086535","name":"Арасан","lat":45.278057,"lon":79.355003,"type":"village"},{"id":"534086631","name":"Кеңжыра","lat":45.506134,"lon":79.751038,"type":"village"},{"id":"534086637","name":"Тарас","lat":45.44368,"lon":79.796257,"type":"village"},{"id":"534086643","name":"Көкжайдақ","lat":45.57653,"lon":79.559006,"type":"village"},{"id":"534086646","name":"Ақсу","lat":45.610171,"lon":79.4667153,"type":"village"},{"id":"534086689","name":"Архарлы","lat":46.249981,"lon":80.100243,"type":"village"},{"id":"534086697","name":"Шатырбай","lat":45.511665,"lon":80.335556,"type":"village"},{"id":"534086705","name":"Черкасск","lat":45.667778,"lon":80.367226,"type":"village"},{"id":"534086713","name":"Лепсі","lat":45.524166,"lon":80.608612,"type":"village"},{"id":"534086749","name":"Көлбай","lat":45.814621,"lon":80.286766,"type":"village"},{"id":"534086754","name":"Екпінді","lat":45.739594,"lon":80.620262,"type":"village"},{"id":"534086755","name":"Қоңыр","lat":45.748985,"lon":80.786232,"type":"village"},{"id":"534086758","name":"Теректі","lat":45.826099,"lon":80.709526,"type":"village"},{"id":"534086763","name":"Жұмахан Балапанов ауылы","lat":45.994225,"lon":80.726341,"type":"village"},{"id":"534086772","name":"Еңбекші","lat":46.1652703,"lon":80.7122177,"type":"village"},{"id":"534086781","name":"Сапақ","lat":45.7878017,"lon":80.8714631,"type":"village"},{"id":"534086821","name":"Қазақстан","lat":46.1970756,"lon":81.0210093,"type":"village"},{"id":"534086826","name":"Бұлақты","lat":46.186035,"lon":81.093208,"type":"town"},{"id":"534086830","name":"Талапкер","lat":46.2456552,"lon":80.9340756,"type":"village"},{"id":"534086838","name":"Қайнар","lat":46.087067,"lon":81.249367,"type":"village"},{"id":"534086849","name":"Бескөл","lat":46.1717676,"lon":81.0954933,"type":"village"},{"id":"534087079","name":"Тарлаулы","lat":47.31469,"lon":79.739441,"type":"village"},{"id":"534087197","name":"Айғыз","lat":47.720001,"lon":79.483055,"type":"village"},{"id":"534087207","name":"Сағат","lat":46.6948528,"lon":80.7622909,"type":"village"},{"id":"534087229","name":"Қарақол","lat":46.9393029,"lon":80.749038,"type":"village"},{"id":"534087331","name":"Шолпан","lat":47.0660239,"lon":80.7346756,"type":"village"},{"id":"534087341","name":"Қамысқала","lat":46.4703219,"lon":81.5373308,"type":"village"},{"id":"534087359","name":"Жаңатілек","lat":47.124821,"lon":81.267105,"type":"village"},{"id":"534087368","name":"Егінсу","lat":46.95612,"lon":81.473549,"type":"village"},{"id":"534087372","name":"Жоғарғы Егінсу","lat":47.023838,"lon":81.39389,"type":"village"},{"id":"534087376","name":"Тасарық","lat":47.1033092,"lon":81.2968886,"type":"village"},{"id":"534087464","name":"Ай","lat":47.5590225,"lon":80.8220916,"type":"village"},{"id":"534087467","name":"Сегізбай","lat":47.280277,"lon":81.155556,"type":"village"},{"id":"534087469","name":"Алтыншоқы","lat":47.172878,"lon":81.064476,"type":"village"},{"id":"534087470","name":"Айтбай ауылы","lat":47.1579578,"lon":81.0054754,"type":"village"},{"id":"534087495","name":"Қазымбет","lat":47.2501875,"lon":81.5552359,"type":"village"},{"id":"534087507","name":"Некрасовка","lat":47.2422272,"lon":81.4061068,"type":"village"},{"id":"534087521","name":"Барқытбел","lat":47.1915938,"lon":81.5143992,"type":"village"},{"id":"534087542","name":"Тарбағатай","lat":47.805814,"lon":81.2720505,"type":"village"},{"id":"534087566","name":"Ақшәулі","lat":47.4657386,"lon":80.9045005,"type":"village"},{"id":"534087824","name":"Көктұма","lat":45.868057,"lon":81.646385,"type":"village"},{"id":"534087896","name":"Қаратал","lat":46.75,"lon":82.1,"type":"village"},{"id":"534087904","name":"Көктал","lat":46.45726,"lon":81.851395,"type":"village"},{"id":"534087917","name":"Елтай","lat":46.89336,"lon":81.5979906,"type":"village"},{"id":"534087943","name":"Науалы","lat":47.0014928,"lon":81.7500614,"type":"village"},{"id":"534087944","name":"Малақ","lat":47.0145972,"lon":81.7238097,"type":"village"},{"id":"534087953","name":"Келдемұрат","lat":47.031462,"lon":82.1473912,"type":"village"},{"id":"534087968","name":"Қарабұта","lat":46.8745889,"lon":82.5792072,"type":"village"},{"id":"534087970","name":"Ақшоқы","lat":46.9341768,"lon":82.8601002,"type":"village"},{"id":"534087974","name":"Бестерек","lat":47.1650803,"lon":81.6207802,"type":"village"},{"id":"534087975","name":"Қаратұма","lat":47.1010112,"lon":82.0102997,"type":"village"},{"id":"534087976","name":"Көлденең","lat":47.1244862,"lon":81.9442335,"type":"village"},{"id":"534087981","name":"Көкөзек","lat":47.1452133,"lon":81.8906715,"type":"village"},{"id":"534087986","name":"Үштөбе","lat":47.604755,"lon":81.863312,"type":"village"},{"id":"534087994","name":"Екпін","lat":47.783333,"lon":82.73333,"type":"village"},{"id":"534087995","name":"Ақсуат","lat":47.7620046,"lon":82.8061386,"type":"town"},{"id":"534088001","name":"Құмкөл","lat":47.569881,"lon":82.9364993,"type":"village"},{"id":"534088006","name":"Жаңаталап","lat":47.1114835,"lon":84.0507561,"type":"village"},{"id":"534088012","name":"Куйган","lat":47.4531276,"lon":83.5335512,"type":"village"},{"id":"534088080","name":"Ойшылық","lat":47.544495,"lon":83.002419,"type":"village"},{"id":"534088095","name":"Жалғызтал","lat":47.5453316,"lon":83.6075459,"type":"village"},{"id":"534088135","name":"Сарыөлең","lat":47.282797,"lon":84.0879635,"type":"village"},{"id":"534088160","name":"Байқошқар","lat":48.396667,"lon":78.754723,"type":"village"},{"id":"534088177","name":"Дөненбай","lat":48.1467837,"lon":80.0340837,"type":"village"},{"id":"534088182","name":"Көкбай","lat":48.7572269,"lon":79.3355756,"type":"village"},{"id":"534088187","name":"Кеңгірбай би ауылы","lat":48.9015932,"lon":79.2461376,"type":"village"},{"id":"534088200","name":"Жүрекадыр","lat":48.5491792,"lon":79.6273819,"type":"village"},{"id":"534088210","name":"Арқат","lat":49.0343718,"lon":80.0635992,"type":"village"},{"id":"534088223","name":"Бозай","lat":47.8756501,"lon":80.1751255,"type":"village"},{"id":"534088255","name":"Қараағаш","lat":47.9944288,"lon":80.8565073,"type":"village"},{"id":"534088261","name":"Үшбиік","lat":48.465546,"lon":80.575317,"type":"village"},{"id":"534088272","name":"Ақши","lat":47.9347795,"lon":80.9328234,"type":"village"},{"id":"534088292","name":"Аршалы","lat":48.6732797,"lon":80.8075614,"type":"village"},{"id":"534088304","name":"Жарықтас","lat":48.8671163,"lon":80.4789872,"type":"village"},{"id":"534088306","name":"Қызылағаш","lat":48.6147338,"lon":81.2157672,"type":"village"},{"id":"534088320","name":"Жарық","lat":48.8097238,"lon":81.5351865,"type":"village"},{"id":"534088329","name":"Ақжал","lat":49.2120265,"lon":81.4227165,"type":"village"},{"id":"534088331","name":"Егінбұлақ","lat":48.8875141,"lon":81.0727288,"type":"village"},{"id":"534088334","name":"Төлеуғали Әбдібеков ауылы","lat":48.9157941,"lon":80.8719027,"type":"village"},{"id":"534088335","name":"Қапанбұлақ станциясы","lat":48.9291845,"lon":80.8902466,"type":"village"},{"id":"534088336","name":"Восьмое Марта","lat":49.0637113,"lon":81.0099244,"type":"village"},{"id":"534088360","name":"Қасқабұлақ","lat":49.565773,"lon":79.869865,"type":"village"},{"id":"534088436","name":"Бөдене","lat":50.6186772,"lon":79.1128978,"type":"village"},{"id":"534088558","name":"Қыземшек","lat":50.1471569,"lon":79.6723765,"type":"village"},{"id":"534088599","name":"Бірлік","lat":50.5150365,"lon":79.7083835,"type":"village"},{"id":"534088602","name":"Мұрат","lat":50.4379653,"lon":80.1347249,"type":"village"},{"id":"534088611","name":"Мұқыр","lat":50.4408819,"lon":80.0726357,"type":"village"},{"id":"534088658","name":"Белтерек","lat":49.217236,"lon":80.730103,"type":"village"},{"id":"534088666","name":"Жайма","lat":49.7602128,"lon":80.589976,"type":"village"},{"id":"534088701","name":"Қаражал","lat":49.4300556,"lon":81.4001376,"type":"village"},{"id":"534088703","name":"Бірлік","lat":49.4056412,"lon":81.446855,"type":"village"},{"id":"534088704","name":"Салқынтөбе","lat":49.5229913,"lon":81.2266811,"type":"village"},{"id":"534088708","name":"Шалабай","lat":49.6933305,"lon":81.5065212,"type":"village"},{"id":"534088717","name":"Кезенсу","lat":49.653492,"lon":80.893524,"type":"village"},{"id":"534088719","name":"Үкілі","lat":49.563885,"lon":81.324013,"type":"village"},{"id":"534088761","name":"Терістаңбалы","lat":50.0950115,"lon":80.8087843,"type":"village"},{"id":"534088886","name":"Қарағайлы","lat":50.597365,"lon":80.3872926,"type":"village"},{"id":"534088887","name":"Дүйсекен","lat":50.5984175,"lon":80.4367445,"type":"village"},{"id":"534089002","name":"Жаңа Шүлбі","lat":50.5379577,"lon":81.3281503,"type":"village"},{"id":"534089165","name":"Қызылкесек","lat":47.8811338,"lon":82.0116687,"type":"village"},{"id":"534089208","name":"Кіндікті","lat":48.3366232,"lon":81.656056,"type":"village"},{"id":"534089384","name":"Көктүбек","lat":47.856552,"lon":82.720078,"type":"village"},{"id":"534089396","name":"Тассай","lat":48.356682,"lon":82.907745,"type":"village"},{"id":"534089400","name":"Қарағандыкөл","lat":48.4710821,"lon":82.9525225,"type":"village"},{"id":"534089414","name":"Биғаш","lat":48.6382023,"lon":82.0085643,"type":"village"},{"id":"534089489","name":"Қеңтарлау","lat":49.1671986,"lon":81.9724754,"type":"village"},{"id":"534089499","name":"Ажа","lat":48.6427403,"lon":82.565436,"type":"village"},{"id":"534089500","name":"Ұзынбұлақ","lat":48.623569,"lon":82.359451,"type":"village"},{"id":"534089507","name":"Көкжайық","lat":48.5519008,"lon":82.7981242,"type":"village"},{"id":"534089515","name":"Мамай","lat":48.588173,"lon":82.939339,"type":"village"},{"id":"534089525","name":"Шугульбай","lat":48.6774702,"lon":82.9572454,"type":"village"},{"id":"534089532","name":"Ақой","lat":48.7129142,"lon":82.7042057,"type":"village"},{"id":"534089534","name":"Преображенка","lat":48.839138,"lon":82.743622,"type":"village"},{"id":"534089543","name":"Үлкен Бөкен","lat":48.7788937,"lon":82.6923162,"type":"village"},{"id":"534089546","name":"Жұмба","lat":49.0091283,"lon":82.8029026,"type":"village"},{"id":"534089550","name":"Толағай","lat":48.8910421,"lon":82.4407425,"type":"village"},{"id":"534089554","name":"Укиликыз","lat":48.8943715,"lon":82.6881848,"type":"village"},{"id":"534089624","name":"Ақмектеп","lat":47.845001,"lon":83.432503,"type":"village"},{"id":"534089663","name":"Алғабас","lat":48.4672799,"lon":83.6356623,"type":"village"},{"id":"534089674","name":"Үшкөмей","lat":48.331654,"lon":82.958427,"type":"village"},{"id":"534089700","name":"Аманат","lat":47.999641,"lon":84.416458,"type":"village"},{"id":"534089769","name":"Жолнұсқау","lat":48.1331791,"lon":83.9576401,"type":"village"},{"id":"534089799","name":"Үлгілі Малшы","lat":48.5809879,"lon":83.0987934,"type":"village"},{"id":"534089808","name":"Қараөткел","lat":48.6561092,"lon":83.1196668,"type":"village"},{"id":"534089809","name":"Мелитополь","lat":48.656464,"lon":83.017899,"type":"village"},{"id":"534089812","name":"Аққала","lat":48.8585816,"lon":82.9731161,"type":"village"},{"id":"534089814","name":"Көкжота","lat":48.828506,"lon":83.290443,"type":"village"},{"id":"534089819","name":"Күршім","lat":48.5656876,"lon":83.6524237,"type":"village"},{"id":"534089826","name":"Құйған","lat":48.676189,"lon":83.500824,"type":"village"},{"id":"534089835","name":"Казнаковка","lat":48.8850868,"lon":83.3350554,"type":"village"},{"id":"534089844","name":"Самар","lat":49.0204442,"lon":83.3657624,"type":"village"},{"id":"534089845","name":"Миролюбовка","lat":49.026569,"lon":83.564377,"type":"village"},{"id":"534089854","name":"Барақ батыр","lat":48.5776702,"lon":83.784574,"type":"village"},{"id":"534089856","name":"Теректібұлақ","lat":48.666667,"lon":84.044722,"type":"village"},{"id":"534089862","name":"Кайнар","lat":48.813541,"lon":83.809784,"type":"village"},{"id":"534089866","name":"Қойтас","lat":48.679298,"lon":84.347961,"type":"village"},{"id":"534089901","name":"Палатцы","lat":49.1397111,"lon":83.7243119,"type":"village"},{"id":"534089936","name":"Сарыбел","lat":49.1052394,"lon":84.0474462,"type":"village"},{"id":"534089944","name":"Свинчатка","lat":49.0926762,"lon":84.2049562,"type":"village"},{"id":"534089951","name":"Приморское","lat":49.2052582,"lon":84.3461567,"type":"village"},{"id":"534089953","name":"Батыр Қапай","lat":49.3604467,"lon":81.6046226,"type":"village"},{"id":"534089955","name":"Ортабұлақ","lat":49.296841,"lon":81.81205,"type":"village"},{"id":"534089957","name":"Қаратөбе","lat":49.2491914,"lon":81.899485,"type":"village"},{"id":"534090044","name":"Сұлусары","lat":49.507713,"lon":81.815063,"type":"village"},{"id":"534090051","name":"Әди","lat":49.2236123,"lon":82.1771373,"type":"village"},{"id":"534090058","name":"Шымылдық","lat":49.4965438,"lon":81.8928031,"type":"village"},{"id":"534090080","name":"Акжартас","lat":49.5398548,"lon":82.1394962,"type":"village"},{"id":"534090085","name":"Әуезов","lat":49.710896,"lon":81.579475,"type":"town"},{"id":"534090089","name":"Бурсак","lat":49.710495,"lon":81.823425,"type":"village"},{"id":"534090414","name":"Жанұзақ","lat":49.6855854,"lon":82.1753562,"type":"village"},{"id":"534090555","name":"Ұлан","lat":49.738895,"lon":82.222176,"type":"village"},{"id":"534090638","name":"Бозанбай","lat":49.531586,"lon":82.409721,"type":"village"},{"id":"534090645","name":"Алғабас","lat":49.4502451,"lon":82.5509364,"type":"village"},{"id":"534090718","name":"Тарғын","lat":49.491795,"lon":82.841293,"type":"village"},{"id":"534090840","name":"Айыртау","lat":49.8362757,"lon":82.2667558,"type":"village"},{"id":"534090849","name":"Алмасай","lat":49.791481,"lon":82.444565,"type":"village"},{"id":"534090890","name":"Қасым Қайсенов ауылы","lat":49.8755707,"lon":82.4875024,"type":"village"},{"id":"534090891","name":"Ізгүтті Айтыков","lat":49.580082,"lon":82.715431,"type":"village"},{"id":"534090953","name":"Сағыр","lat":49.7188074,"lon":82.6605484,"type":"village"},{"id":"534091078","name":"Самсоновка","lat":49.8317558,"lon":82.6481942,"type":"village"},{"id":"534091121","name":"Ново-Троицкое","lat":49.8287585,"lon":82.890946,"type":"village"},{"id":"534091139","name":"Ермакова","lat":49.8152664,"lon":82.9170945,"type":"village"},{"id":"534091272","name":"Каменка","lat":49.928684,"lon":81.880119,"type":"village"},{"id":"534091276","name":"Тройницкое","lat":49.9356277,"lon":81.7558503,"type":"village"},{"id":"534091280","name":"Митрофановка","lat":50.049839,"lon":81.60775,"type":"village"},{"id":"534091302","name":"Жаңа Азов","lat":50.201793,"lon":81.7240719,"type":"village"},{"id":"534091384","name":"Отрадное","lat":49.9842998,"lon":82.2524033,"type":"village"},{"id":"534091411","name":"Пролетарка","lat":50.0679755,"lon":82.0611524,"type":"village"},{"id":"534091442","name":"Берёзовка","lat":50.234627,"lon":82.129448,"type":"village"},{"id":"534091453","name":"Макеевка","lat":50.1370374,"lon":82.2457874,"type":"village"},{"id":"534091471","name":"Үбі","lat":50.3266247,"lon":81.734693,"type":"village"},{"id":"534091478","name":"Қамысты","lat":50.5696546,"lon":81.8019547,"type":"village"},{"id":"534091500","name":"Речное","lat":50.4726026,"lon":81.6661229,"type":"village"},{"id":"534091521","name":"Қызылжар","lat":50.5096288,"lon":81.6815678,"type":"village"},{"id":"534091536","name":"Волчанка","lat":50.5658056,"lon":82.1432065,"type":"village"},{"id":"534091553","name":"Выдриха","lat":50.5332081,"lon":82.1622357,"type":"village"},{"id":"534091583","name":"Жаңа Одесса","lat":50.020424,"lon":82.305519,"type":"village"},{"id":"534091606","name":"Донское","lat":50.0850151,"lon":82.2681363,"type":"village"},{"id":"534091610","name":"Жаңа Ахмер","lat":49.9363201,"lon":82.5007581,"type":"village"},{"id":"534091702","name":"Белокаменка","lat":50.1818742,"lon":82.5874364,"type":"village"},{"id":"534091715","name":"Алтайский","lat":50.2466971,"lon":82.3617873,"type":"village"},{"id":"534091767","name":"Степное","lat":49.9757701,"lon":82.6820737,"type":"village"},{"id":"534091792","name":"Ушаново","lat":49.964979,"lon":82.7391567,"type":"village"},{"id":"534091862","name":"Таулы Үлбі","lat":49.9868283,"lon":82.9164678,"type":"village"},{"id":"534091902","name":"Бобровка","lat":50.167789,"lon":82.720642,"type":"village"},{"id":"534091912","name":"Тарханка","lat":50.115421,"lon":82.951355,"type":"village"},{"id":"534091933","name":"Зимовье","lat":50.305599,"lon":82.858826,"type":"village"},{"id":"534091937","name":"Веселовка","lat":50.3075947,"lon":82.3334507,"type":"village"},{"id":"534091954","name":"Үлкен Өзен","lat":50.5812091,"lon":82.3588377,"type":"village"},{"id":"534091962","name":"Жоғарғы Үбі","lat":50.4783047,"lon":82.4197465,"type":"village"},{"id":"534091991","name":"Белогорский","lat":49.475807,"lon":83.144905,"type":"village"},{"id":"534091995","name":"Манат","lat":49.440262,"lon":83.430649,"type":"village"},{"id":"534092010","name":"Жоғарғы Тайынты","lat":49.401485,"lon":83.052895,"type":"village"},{"id":"534092016","name":"Қарақол","lat":49.3690799,"lon":83.6588852,"type":"village"},{"id":"534092266","name":"Огнёвка","lat":49.681255,"lon":83.017792,"type":"village"},{"id":"534092330","name":"Берёзовка","lat":49.685341,"lon":83.433319,"type":"village"},{"id":"534092343","name":"Александровка","lat":49.7285863,"lon":83.3197886,"type":"village"},{"id":"534092438","name":"Васильевка","lat":49.7405628,"lon":83.6514955,"type":"village"},{"id":"534092557","name":"Подгорное","lat":49.2538346,"lon":83.7999579,"type":"village"},{"id":"534092837","name":"Алыбай","lat":49.2633869,"lon":84.2408363,"type":"village"},{"id":"534092839","name":"Новохайрузовка","lat":49.256332,"lon":84.343712,"type":"village"},{"id":"534092850","name":"Бородино","lat":49.492222,"lon":84.096947,"type":"village"},{"id":"534092854","name":"Шірікқайың","lat":49.4320281,"lon":84.2840331,"type":"village"},{"id":"534092913","name":"Крестовка","lat":49.7140545,"lon":84.0114241,"type":"village"},{"id":"534093124","name":"Никольск","lat":49.5709394,"lon":83.9443453,"type":"village"},{"id":"534093139","name":"Тұрғысын","lat":49.7675077,"lon":84.0074555,"type":"village"},{"id":"534093273","name":"Орловка","lat":49.634167,"lon":84.128334,"type":"village"},{"id":"534093280","name":"Пролетарка","lat":49.6228773,"lon":84.048413,"type":"village"},{"id":"534093305","name":"Шығыс","lat":49.706944,"lon":84.175835,"type":"village"},{"id":"534093319","name":"Чапаево","lat":49.6875,"lon":84.056946,"type":"village"},{"id":"534093349","name":"Подорленок","lat":49.632778,"lon":84.235832,"type":"village"},{"id":"534093383","name":"Берёзовское","lat":49.7110005,"lon":84.2346843,"type":"village"},{"id":"534093396","name":"Маяк","lat":49.687214,"lon":84.338715,"type":"village"},{"id":"534093416","name":"Баяновск","lat":49.78891,"lon":84.166145,"type":"village"},{"id":"534093433","name":"Кутиха","lat":49.895905,"lon":84.077576,"type":"village"},{"id":"534093438","name":"Зубовка","lat":49.791912,"lon":84.249626,"type":"village"},{"id":"534093443","name":"Ландман","lat":49.761944,"lon":84.326942,"type":"village"},{"id":"534093451","name":"Малеевск","lat":49.8182567,"lon":84.3160912,"type":"village"},{"id":"534093721","name":"Поперечное","lat":50.410275,"lon":83.818588,"type":"village"},{"id":"534093738","name":"Қарасай","lat":47.0880733,"lon":84.7487512,"type":"village"},{"id":"534093740","name":"Жанатурмыс","lat":47.3731565,"lon":84.870413,"type":"village"},{"id":"534093749","name":"Қуаныш","lat":47.676476,"lon":84.957901,"type":"village"},{"id":"534093752","name":"Саржыра","lat":47.6016089,"lon":84.8910155,"type":"village"},{"id":"534093753","name":"Көгедей","lat":47.5856747,"lon":85.066686,"type":"village"},{"id":"534093756","name":"Қайнар","lat":47.545189,"lon":84.958969,"type":"village"},{"id":"534093795","name":"Сарытерек","lat":47.4988035,"lon":85.1754476,"type":"village"},{"id":"534093796","name":"Шеңгелді","lat":47.9029878,"lon":84.6297664,"type":"village"},{"id":"534093803","name":"Қаратоғай","lat":48.39407,"lon":84.483177,"type":"village"},{"id":"534093804","name":"Ақбұлақ","lat":48.4677523,"lon":84.9959216,"type":"village"},{"id":"534093805","name":"Тақыр","lat":48.149929,"lon":84.97216,"type":"village"},{"id":"534093808","name":"Боран","lat":48.0121383,"lon":85.1939687,"type":"village"},{"id":"534093869","name":"Жаңаауыл","lat":48.1419768,"lon":85.1998819,"type":"village"},{"id":"534093873","name":"Марқакөл","lat":48.4269057,"lon":85.7338403,"type":"village"},{"id":"534093881","name":"Қыстау-Күршім","lat":48.672222,"lon":84.516944,"type":"village"},{"id":"534093934","name":"Маралды","lat":48.7710025,"lon":84.7030948,"type":"village"},{"id":"534093985","name":"Көктерек","lat":49.111111,"lon":84.473335,"type":"village"},{"id":"534094011","name":"Көкбастау","lat":49.2011424,"lon":84.6622807,"type":"village"},{"id":"534094015","name":"Балғын","lat":49.146942,"lon":84.566666,"type":"village"},{"id":"534094051","name":"Үштөбе","lat":49.183056,"lon":84.827778,"type":"village"},{"id":"534094065","name":"Майемер","lat":49.1793012,"lon":84.9727057,"type":"village"},{"id":"534094177","name":"Согорное","lat":49.2117069,"lon":85.3686521,"type":"village"},{"id":"534094178","name":"Белқарағай","lat":49.183333,"lon":85.300278,"type":"village"},{"id":"534094220","name":"Жаңаүлгі","lat":49.177242,"lon":85.774323,"type":"village"},{"id":"534094242","name":"Қабырға","lat":49.163891,"lon":85.70417,"type":"village"},{"id":"534094246","name":"Ақжайлау","lat":48.5980388,"lon":85.9681164,"type":"village"},{"id":"534094247","name":"Шағанатты","lat":48.6995538,"lon":86.4853108,"type":"village"},{"id":"534094251","name":"Ұрынқай","lat":48.785736,"lon":86.025696,"type":"village"},{"id":"534094286","name":"Шыңғыстай","lat":49.18306,"lon":85.871109,"type":"village"},{"id":"534094294","name":"Қызылжұлдыз","lat":49.216389,"lon":86.0,"type":"village"},{"id":"534094297","name":"Төсқайың","lat":48.87329,"lon":86.2801422,"type":"village"},{"id":"534094310","name":"Балықтыбұлақ","lat":48.8446661,"lon":86.5320532,"type":"village"},{"id":"534094360","name":"Новополяковка","lat":49.484722,"lon":84.692497,"type":"village"},{"id":"534094363","name":"Бесүй","lat":49.4504225,"lon":84.6570962,"type":"village"},{"id":"534094366","name":"Құндызды","lat":49.408056,"lon":84.515833,"type":"village"},{"id":"534094368","name":"Андреевка","lat":49.5241416,"lon":84.4687681,"type":"village"},{"id":"534094370","name":"Александровка","lat":49.5075,"lon":84.536111,"type":"village"},{"id":"534094381","name":"Солоновка","lat":49.304169,"lon":84.751114,"type":"village"},{"id":"534094392","name":"Егінді","lat":49.2446983,"lon":84.8880544,"type":"village"},{"id":"534094450","name":"Қаражал","lat":49.4345783,"lon":84.846903,"type":"village"},{"id":"534094451","name":"Коробиха","lat":49.460278,"lon":85.058334,"type":"village"},{"id":"534094464","name":"Быково","lat":49.713051,"lon":84.569824,"type":"village"},{"id":"534094481","name":"Жаңашаруа","lat":49.6294945,"lon":84.434808,"type":"village"},{"id":"534094491","name":"Богатырёво","lat":49.7875,"lon":84.422222,"type":"village"},{"id":"534094566","name":"Сенное","lat":49.5808538,"lon":84.7890735,"type":"village"},{"id":"534094718","name":"Барлық","lat":49.3357115,"lon":85.1644703,"type":"village"},{"id":"534094940","name":"Ақсу","lat":49.3637971,"lon":85.41417,"type":"village"},{"id":"534095006","name":"Үшбұлақ","lat":49.3975,"lon":85.22,"type":"village"},{"id":"534095049","name":"Жазаба","lat":49.4521398,"lon":85.27512,"type":"village"},{"id":"534095081","name":"Бекалқа","lat":49.355833,"lon":85.585278,"type":"village"},{"id":"534095101","name":"Мойылды","lat":49.2202443,"lon":85.6777277,"type":"village"},{"id":"534095299","name":"Ақшарбақ","lat":49.535228,"lon":85.5164279,"type":"village"},{"id":"534095907","name":"Аққайнар","lat":49.2266853,"lon":85.8880941,"type":"village"},{"id":"534096380","name":"Берел","lat":49.3731796,"lon":86.4315677,"type":"village"},{"id":"534096452","name":"Қайыңды","lat":49.2246287,"lon":86.2039911,"type":"village"},{"id":"534096743","name":"Рахман қайнары","lat":49.53379,"lon":86.5090433,"type":"village"},{"id":"534096827","name":"Черемушка","lat":50.6457749,"lon":79.0581614,"type":"village"},{"id":"534097077","name":"Малая Владимировка","lat":50.9514496,"lon":79.4046504,"type":"village"},{"id":"534097099","name":"Қарабас","lat":51.0423812,"lon":79.1009369,"type":"village"},{"id":"534097124","name":"Баскөл","lat":51.187376,"lon":79.3019308,"type":"village"},{"id":"534097140","name":"Қарамырза","lat":50.673534,"lon":79.667084,"type":"village"},{"id":"534097147","name":"Бесқарағай","lat":50.888058,"lon":79.480721,"type":"village"},{"id":"534097164","name":"Бөкебай","lat":51.052223,"lon":79.473892,"type":"village"},{"id":"534097171","name":"Жабағылы","lat":51.493533,"lon":78.8437497,"type":"village"},{"id":"534097209","name":"Шоқтал","lat":51.7975849,"lon":78.9884185,"type":"village"},{"id":"534097210","name":"Шақа","lat":51.7143573,"lon":78.9910495,"type":"village"},{"id":"534097212","name":"Майқарағай","lat":51.752489,"lon":78.7498533,"type":"village"},{"id":"534097219","name":"Шалдай","lat":51.9257903,"lon":78.8162429,"type":"village"},{"id":"534097254","name":"Морозов орманшар","lat":51.4328156,"lon":79.5011878,"type":"village"},{"id":"534097259","name":"Жаңаауыл","lat":50.7564543,"lon":80.3327691,"type":"village"},{"id":"534097261","name":"Новопокровка","lat":50.6732256,"lon":80.4611202,"type":"village"},{"id":"534097264","name":"Байтанат","lat":50.8476349,"lon":80.1967948,"type":"village"},{"id":"534097265","name":"Зубаир","lat":50.813145,"lon":80.295868,"type":"village"},{"id":"534097274","name":"Сарыноғай","lat":50.6867242,"lon":80.5332637,"type":"village"},{"id":"534097275","name":"Михайловка","lat":50.6837485,"lon":80.6734942,"type":"village"},{"id":"534097280","name":"Бековка","lat":50.84486,"lon":80.7350801,"type":"village"},{"id":"534097287","name":"№41-темір жол айрығы","lat":50.9005549,"lon":80.7934286,"type":"village"},{"id":"534097313","name":"Поднебесное","lat":50.6467243,"lon":80.9212688,"type":"village"},{"id":"534097327","name":"Сосновка","lat":50.877499,"lon":81.044998,"type":"village"},{"id":"534097354","name":"Буркотово","lat":50.741844,"lon":81.524834,"type":"village"},{"id":"534097390","name":"Андроновка","lat":50.81026,"lon":81.2656771,"type":"village"},{"id":"534097394","name":"Орловка","lat":50.9532908,"lon":81.4051985,"type":"village"},{"id":"534097395","name":"Ремки","lat":50.8966292,"lon":81.2940211,"type":"village"},{"id":"534097400","name":"Қарөстелі","lat":51.044998,"lon":81.0,"type":"village"},{"id":"534097406","name":"Садықащы","lat":52.0360521,"lon":78.7990183,"type":"village"},{"id":"534097410","name":"Горкуново","lat":50.712223,"lon":81.70639,"type":"village"},{"id":"534097411","name":"Сугатовка","lat":50.6747087,"lon":81.712063,"type":"village"},{"id":"534097413","name":"Сохновка","lat":50.6354017,"lon":81.6048065,"type":"village"},{"id":"534097465","name":"Медведка","lat":50.6737614,"lon":82.0678757,"type":"village"},{"id":"534097602","name":"Карагужиха","lat":50.7672043,"lon":83.0321142,"type":"village"},{"id":"535064260","name":"Шиелі","lat":44.176025,"lon":66.740959,"type":"town"},{"id":"537561303","name":"Екібастұз","lat":51.7275817,"lon":75.3288511,"type":"city"},{"id":"537879832","name":"Жұмыскер","lat":51.2627984,"lon":77.8667255,"type":"village"},{"id":"537891135","name":"Май","lat":50.911396,"lon":78.239159,"type":"village"},{"id":"537905301","name":"Үлкен Ақжар","lat":50.801277,"lon":78.468552,"type":"village"},{"id":"537906903","name":"Қаратерек","lat":51.0826606,"lon":78.0701822,"type":"village"},{"id":"537906988","name":"Майтүбек","lat":51.1225858,"lon":78.0537326,"type":"village"},{"id":"537907876","name":"Малайсары","lat":51.430565,"lon":77.547531,"type":"village"},{"id":"539565165","name":"Чайковское","lat":52.3818771,"lon":61.1055442,"type":"village"},{"id":"539570975","name":"Варваринка","lat":52.9691916,"lon":62.1906913,"type":"village"},{"id":"539629484","name":"Зааят","lat":52.892086,"lon":61.577431,"type":"village"},{"id":"539629498","name":"Әйет","lat":52.862389,"lon":61.527962,"type":"village"},{"id":"539629508","name":"Фрунзе","lat":52.849613,"lon":61.522438,"type":"village"},{"id":"546773876","name":"Ботақара","lat":50.0596912,"lon":73.716709,"type":"town"},{"id":"546790138","name":"Үміткер","lat":50.365677,"lon":74.277489,"type":"village"},{"id":"546798578","name":"Қаныш Сәтбаев","lat":50.55395,"lon":74.67318,"type":"village"},{"id":"547809559","name":"Байқадам","lat":50.0139039,"lon":73.3876705,"type":"village"},{"id":"547809608","name":"Бастау","lat":50.0910981,"lon":73.5008014,"type":"village"},{"id":"547811784","name":"Керней","lat":50.2153326,"lon":74.2763795,"type":"village"},{"id":"547816514","name":"Мұса Шорман","lat":50.6335394,"lon":74.7702492,"type":"village"},{"id":"547817036","name":"Құндыкөл","lat":50.7242585,"lon":75.0934876,"type":"village"},{"id":"547818309","name":"Баянауыл","lat":50.7928518,"lon":75.702764,"type":"village"},{"id":"547824035","name":"Жүсіпбек Аймауытов ауылы","lat":50.5511532,"lon":76.2692822,"type":"village"},{"id":"554059814","name":"Шідерті","lat":51.7142366,"lon":74.6728316,"type":"town"},{"id":"645056630","name":"Құспанкөл","lat":50.797897,"lon":52.053127,"type":"village"},{"id":"650928052","name":"Леонидовка","lat":53.967728,"lon":69.529213,"type":"village"},{"id":"671767973","name":"Смирновка","lat":53.611092,"lon":62.183949,"type":"village"},{"id":"672750682","name":"разъезд 102","lat":51.137197,"lon":71.7574017,"type":"village"},{"id":"672757207","name":"Михайловка","lat":51.0078335,"lon":72.2729121,"type":"village"},{"id":"704397626","name":"Жітіқара","lat":52.1905261,"lon":61.2047527,"type":"city"},{"id":"706206672","name":"Қостомар","lat":51.2128218,"lon":71.7914639,"type":"village"},{"id":"706358652","name":"Сарыоба","lat":51.2044579,"lon":72.1837904,"type":"village"},{"id":"706397125","name":"Елтоқ","lat":51.0292504,"lon":71.9611392,"type":"village"},{"id":"706401574","name":"Койгельды","lat":51.0896379,"lon":71.952483,"type":"village"},{"id":"706493807","name":"Николаевка","lat":51.095434,"lon":72.4346998,"type":"village"},{"id":"729610410","name":"Ақтау","lat":43.6353364,"lon":51.168222,"type":"city"},{"id":"732526628","name":"Жасыл","lat":52.7866298,"lon":70.2906692,"type":"village"},{"id":"732526800","name":"Сосновка","lat":52.8734025,"lon":70.438321,"type":"village"},{"id":"732595923","name":"Төңкеріс","lat":51.446346,"lon":71.195724,"type":"village"},{"id":"732623217","name":"Шортанды","lat":51.697429,"lon":70.9871618,"type":"town"},{"id":"761956738","name":"Батпакты","lat":50.462204,"lon":72.692894,"type":"village"},{"id":"761956982","name":"Ошағанды","lat":50.3118443,"lon":72.7329582,"type":"village"},{"id":"761957222","name":"Баймырза","lat":50.218941,"lon":72.893448,"type":"village"},{"id":"765064981","name":"Ақсу-Аюлы","lat":48.7655707,"lon":73.6740332,"type":"village"},{"id":"767046413","name":"Талшық","lat":53.6433864,"lon":71.8767545,"type":"village"},{"id":"767046805","name":"Қазан","lat":53.758011,"lon":71.667969,"type":"village"},{"id":"767047065","name":"Наурызбай батыра","lat":53.2725114,"lon":70.4918716,"type":"village"},{"id":"767047192","name":"Андыкожа батыра","lat":53.136654,"lon":70.726311,"type":"village"},{"id":"767047245","name":"Восходское","lat":54.0110223,"lon":71.7696188,"type":"village"},{"id":"767047722","name":"Баймырза","lat":54.1895179,"lon":71.7826683,"type":"village"},{"id":"767047951","name":"Заозёрное","lat":53.105263,"lon":71.151497,"type":"village"},{"id":"767048064","name":"Амандық","lat":53.467529,"lon":70.401955,"type":"village"},{"id":"767048417","name":"Ильичёвка","lat":53.502098,"lon":70.388092,"type":"village"},{"id":"772399115","name":"Қарақұдық","lat":50.231323,"lon":53.307873,"type":"village"},{"id":"773059030","name":"Олжабай батыр ауылы","lat":51.298065,"lon":72.797714,"type":"village"},{"id":"773059038","name":"Еркіншілік","lat":51.41497,"lon":72.63504,"type":"village"},{"id":"773059350","name":"Ақсуат","lat":51.205967,"lon":72.59156,"type":"village"},{"id":"773403511","name":"Ольгинка","lat":51.0775892,"lon":72.6107436,"type":"village"},{"id":"773403540","name":"Тайбай","lat":51.5528034,"lon":72.9695362,"type":"village"},{"id":"773403559","name":"Еңбек","lat":51.4198792,"lon":72.7439661,"type":"village"},{"id":"773404633","name":"Коржинколь","lat":51.584663,"lon":73.41407,"type":"village"},{"id":"773404637","name":"Ынтымак","lat":51.17564,"lon":72.993042,"type":"village"},{"id":"773404651","name":"Жарық","lat":51.4270281,"lon":73.0274089,"type":"village"},{"id":"773404660","name":"Алғабас","lat":51.364365,"lon":73.181297,"type":"village"},{"id":"773404665","name":"Шакей","lat":51.112347,"lon":73.148575,"type":"village"},{"id":"773404671","name":"Күншалған","lat":51.132908,"lon":73.087036,"type":"village"},{"id":"773467330","name":"Белоярка","lat":50.9702063,"lon":72.9518515,"type":"village"},{"id":"773467344","name":"Каратал","lat":51.035576,"lon":73.068794,"type":"village"},{"id":"789358543","name":"Келлеровка","lat":53.8399016,"lon":69.3021305,"type":"village"},{"id":"789360526","name":"Красная Поляна","lat":53.941536,"lon":68.982285,"type":"village"},{"id":"789365996","name":"Доброжановка","lat":53.966927,"lon":69.049385,"type":"village"},{"id":"804034143","name":"Әлкей Марғұлан","lat":51.1935647,"lon":74.0379682,"type":"village"},{"id":"820700690","name":"Ақмол","lat":51.0714722,"lon":70.9811874,"type":"village"},{"id":"832355131","name":"Дубовка","lat":49.7355542,"lon":72.9078902,"type":"village"},{"id":"853045530","name":"Торайғыров","lat":50.8648133,"lon":75.6326093,"type":"village"},{"id":"894693769","name":"Клочково","lat":51.671429,"lon":62.041355,"type":"village"},{"id":"896986848","name":"Мойынқұм","lat":44.28545,"lon":72.94297,"type":"village"},{"id":"914021120","name":"Қашар","lat":53.369434,"lon":62.869267,"type":"town"},{"id":"934340038","name":"Үштөбе","lat":49.773911,"lon":73.238266,"type":"village"},{"id":"983585435","name":"Сарытөбе","lat":50.070961,"lon":73.544357,"type":"village"},{"id":"986043692","name":"Долинка","lat":49.6783731,"lon":72.6783469,"type":"village"},{"id":"1014625648","name":"Дружба","lat":52.586021,"lon":66.491188,"type":"village"},{"id":"1102521710","name":"Новоузенка","lat":49.8782526,"lon":72.9986407,"type":"village"},{"id":"1106418007","name":"Құрылыс","lat":49.6999376,"lon":73.3203183,"type":"village"},{"id":"1126480568","name":"Волгоград","lat":51.633236,"lon":60.933315,"type":"village"},{"id":"1126480572","name":"Милютинка","lat":51.940422,"lon":61.147629,"type":"village"},{"id":"1126480580","name":"Забеловка","lat":52.289291,"lon":61.337204,"type":"village"},{"id":"1126480588","name":"Тургеновка","lat":52.1468331,"lon":61.1053322,"type":"village"},{"id":"1126480605","name":"Шевченковка","lat":51.9219399,"lon":60.8110996,"type":"village"},{"id":"1128220486","name":"Львовка","lat":52.1684048,"lon":61.4830734,"type":"village"},{"id":"1128220490","name":"Тохтарово","lat":52.1129417,"lon":61.5592153,"type":"village"},{"id":"1128220494","name":"Қамысты","lat":51.963688,"lon":61.779518,"type":"village"},{"id":"1128220498","name":"Приречное","lat":51.9293423,"lon":61.5298073,"type":"village"},{"id":"1128220506","name":"Степное","lat":51.7494377,"lon":61.3554451,"type":"village"},{"id":"1128220515","name":"Ырсай","lat":52.2587178,"lon":61.4618989,"type":"village"},{"id":"1128220520","name":"Глебовка","lat":52.2224306,"lon":61.5103134,"type":"village"},{"id":"1141168432","name":"Окраинка","lat":52.6396283,"lon":61.3703563,"type":"village"},{"id":"1141193378","name":"Приреченка","lat":52.6382909,"lon":61.2895499,"type":"village"},{"id":"1149402543","name":"Адай","lat":51.804825,"lon":62.031368,"type":"village"},{"id":"1149402553","name":"Алтынсарин","lat":51.7365496,"lon":62.3475227,"type":"village"},{"id":"1149402558","name":"Орқаш","lat":51.3421528,"lon":62.324673,"type":"village"},{"id":"1149402561","name":"Аралкөл","lat":51.081886,"lon":62.691544,"type":"village"},{"id":"1149402600","name":"Бестөбе","lat":51.9071492,"lon":62.0326432,"type":"village"},{"id":"1226800928","name":"Дәуіт","lat":53.6091041,"lon":71.4755852,"type":"village"},{"id":"1226800933","name":"Алқатерек","lat":53.45146,"lon":71.244014,"type":"village"},{"id":"1226808193","name":"Аққұдық","lat":53.655956,"lon":70.810074,"type":"village"},{"id":"1231105219","name":"Красная Поляна","lat":49.2410531,"lon":73.0202593,"type":"village"},{"id":"1238308608","name":"Молодёжный","lat":50.722263,"lon":73.531303,"type":"town"},{"id":"1238352007","name":"Ақбастау","lat":49.41824,"lon":73.594246,"type":"village"},{"id":"1238359427","name":"Суықсу","lat":49.494843,"lon":73.714523,"type":"village"},{"id":"1256842962","name":"Сұрыптау","lat":49.9663974,"lon":73.2119254,"type":"village"},{"id":"1282416486","name":"Қаскелең","lat":43.1976867,"lon":76.6303854,"type":"city"},{"id":"1282428111","name":"Тоғызқұдық","lat":49.881065,"lon":73.578453,"type":"village"},{"id":"1282430541","name":"Доскей","lat":49.859524,"lon":73.259415,"type":"village"},{"id":"1282449748","name":"Ынтымақ","lat":43.1699424,"lon":76.3440278,"type":"village"},{"id":"1282450834","name":"Жамбыл","lat":43.14661,"lon":76.182419,"type":"village"},{"id":"1284932620","name":"Ростовка","lat":50.0476494,"lon":72.6847428,"type":"village"},{"id":"1297024443","name":"Ақсукент","lat":42.4234022,"lon":69.8252591,"type":"village"},{"id":"1298132253","name":"Мамлют","lat":54.934776,"lon":68.545174,"type":"city"},{"id":"1314751576","name":"Жаңақима","lat":51.596725,"lon":67.57888,"type":"village"},{"id":"1314751577","name":"Қима","lat":51.5870167,"lon":67.5562496,"type":"village"},{"id":"1314870466","name":"Сабынды","lat":50.877716,"lon":70.554131,"type":"village"},{"id":"1314870472","name":"Шалқар","lat":50.4053147,"lon":69.9197285,"type":"village"},{"id":"1314870474","name":"Қараегін","lat":50.8508409,"lon":70.383613,"type":"village"},{"id":"1314870477","name":"Майшукур","lat":50.7310378,"lon":69.9878472,"type":"village"},{"id":"1314870480","name":"Жантеке","lat":50.783436,"lon":70.149712,"type":"village"},{"id":"1314870481","name":"Өркендеу","lat":50.585243,"lon":69.867546,"type":"village"},{"id":"1314889891","name":"Ұялы","lat":50.6535688,"lon":70.3298482,"type":"village"},{"id":"1314889895","name":"Кеңбидайық","lat":50.737328,"lon":70.609871,"type":"village"},{"id":"1314889897","name":"Садырбай","lat":50.596756,"lon":70.341904,"type":"village"},{"id":"1314889905","name":"Арықты","lat":50.636471,"lon":70.561607,"type":"village"},{"id":"1314889924","name":"Оразақ","lat":50.9375227,"lon":70.7066356,"type":"village"},{"id":"1314909997","name":"Баршын","lat":49.6737941,"lon":69.5394602,"type":"village"},{"id":"1314984380","name":"Үшсарт","lat":50.3011285,"lon":70.0493682,"type":"village"},{"id":"1315944960","name":"Балкашино","lat":52.520611,"lon":68.7533243,"type":"village"},{"id":"1315945102","name":"Белгородское","lat":52.480267,"lon":69.16394,"type":"village"},{"id":"1315945296","name":"Каменка","lat":52.369377,"lon":69.047264,"type":"village"},{"id":"1316750825","name":"Улан","lat":52.213177,"lon":69.278557,"type":"village"},{"id":"1328248993","name":"Нүсіпбеков","lat":43.0490047,"lon":78.6105545,"type":"village"},{"id":"1328271159","name":"Саймасай","lat":43.446185,"lon":77.3335472,"type":"village"},{"id":"1328271205","name":"Бірлік","lat":43.498085,"lon":77.520309,"type":"village"},{"id":"1328271215","name":"Құлжа","lat":43.4523035,"lon":77.4065738,"type":"village"},{"id":"1328316078","name":"Қарабұлақ","lat":43.070156,"lon":78.536781,"type":"village"},{"id":"1338425909","name":"Курское","lat":51.7411176,"lon":66.3215743,"type":"village"},{"id":"1338425979","name":"Юльевка","lat":52.116447,"lon":64.273552,"type":"village"},{"id":"1338426050","name":"Қарамеңді","lat":51.657513,"lon":64.222992,"type":"village"},{"id":"1338929582","name":"Москалевка","lat":52.206207,"lon":63.385002,"type":"village"},{"id":"1338974704","name":"Дүзбай","lat":52.337505,"lon":64.552643,"type":"village"},{"id":"1338974760","name":"Құсмұрын","lat":52.451801,"lon":64.615204,"type":"town"},{"id":"1338974770","name":"Черниговка","lat":52.404312,"lon":64.380592,"type":"village"},{"id":"1338974782","name":"Харьковка","lat":52.287007,"lon":64.3701784,"type":"village"},{"id":"1339442931","name":"Талапкер","lat":53.054981,"lon":63.728928,"type":"village"},{"id":"1339442940","name":"Айсары","lat":52.918083,"lon":63.794064,"type":"village"},{"id":"1339442941","name":"Жосалы","lat":52.703259,"lon":63.956371,"type":"village"},{"id":"1339442965","name":"Қостомар","lat":52.822044,"lon":63.905575,"type":"village"},{"id":"1339442967","name":"Рыспай","lat":52.988438,"lon":63.623432,"type":"village"},{"id":"1339442968","name":"Новонежинка","lat":52.532204,"lon":64.034866,"type":"village"},{"id":"1342514342","name":"Аққарға","lat":51.446171,"lon":61.3332578,"type":"village"},{"id":"1342514351","name":"Мүктікөл","lat":51.7969342,"lon":60.9136216,"type":"village"},{"id":"1350467987","name":"Фёдоровка","lat":53.6373094,"lon":62.6961379,"type":"village"},{"id":"1358746972","name":"Ұлытау","lat":48.6536253,"lon":67.0069227,"type":"village"},{"id":"1360270411","name":"Сортөбе","lat":42.8659454,"lon":75.2496825,"type":"village"},{"id":"1360310446","name":"Жиделі","lat":45.432503,"lon":74.321053,"type":"village"},{"id":"1360314919","name":"Балатопар","lat":45.052654,"lon":74.616493,"type":"village"},{"id":"1362711625","name":"Челгаши","lat":52.138184,"lon":65.650726,"type":"village"},{"id":"1362752104","name":"Ивановка","lat":53.6881514,"lon":64.1879653,"type":"village"},{"id":"1362767764","name":"Лесное","lat":53.7639679,"lon":64.267546,"type":"village"},{"id":"1369831093","name":"Айдабол","lat":52.698238,"lon":68.986061,"type":"village"},{"id":"1369831119","name":"Бөгенбай би ауылы","lat":52.750488,"lon":69.18351,"type":"village"},{"id":"1369831162","name":"Новоникольское","lat":52.733337,"lon":68.733681,"type":"village"},{"id":"1369831193","name":"Викторовка","lat":52.755051,"lon":69.114822,"type":"village"},{"id":"1369831260","name":"Сандыктау","lat":52.60746,"lon":68.840828,"type":"village"},{"id":"1369831430","name":"Максимовка","lat":52.399021,"lon":68.624069,"type":"village"},{"id":"1369831497","name":"Петровка","lat":52.47765,"lon":68.722084,"type":"village"},{"id":"1369849641","name":"Алға","lat":43.234776,"lon":74.757324,"type":"village"},{"id":"1369873238","name":"Савинка","lat":52.8314772,"lon":69.8673308,"type":"village"},{"id":"1369873362","name":"Златополье","lat":52.863796,"lon":69.949409,"type":"village"},{"id":"1373438234","name":"Қараөзек","lat":52.587757,"lon":70.266533,"type":"village"},{"id":"1373438235","name":"Жанатуган","lat":52.518398,"lon":69.378082,"type":"village"},{"id":"1373438236","name":"Дмитриевка","lat":52.7218061,"lon":69.9813291,"type":"village"},{"id":"1373438237","name":"Вознесенка","lat":52.4032392,"lon":70.2243726,"type":"village"},{"id":"1373438238","name":"Ұялы","lat":52.561241,"lon":69.374443,"type":"village"},{"id":"1373438240","name":"Тоқтамыс","lat":52.40168,"lon":70.027321,"type":"village"},{"id":"1373438241","name":"Исаковка","lat":52.605007,"lon":69.3312355,"type":"village"},{"id":"1373438243","name":"Николаевка","lat":52.473042,"lon":69.610573,"type":"village"},{"id":"1373438244","name":"Шұбарағаш","lat":52.342133,"lon":69.802299,"type":"village"},{"id":"1373438245","name":"Костомаровка","lat":52.652046,"lon":69.279053,"type":"village"},{"id":"1373438246","name":"Иванковка","lat":52.284372,"lon":70.0839941,"type":"village"},{"id":"1373438247","name":"Обалы","lat":52.7692187,"lon":69.687303,"type":"village"},{"id":"1373438248","name":"Отрадное","lat":52.3604584,"lon":69.631211,"type":"village"},{"id":"1373438249","name":"Веденовка","lat":52.604786,"lon":69.493576,"type":"village"},{"id":"1373438250","name":"Новодонецк","lat":52.07925,"lon":69.983147,"type":"village"},{"id":"1373438251","name":"Успеноюрьевка","lat":52.659061,"lon":69.86879,"type":"village"},{"id":"1373438252","name":"Карабулак","lat":52.479389,"lon":69.327232,"type":"village"},{"id":"1373438253","name":"Журавлёвка","lat":51.94463,"lon":69.953247,"type":"village"},{"id":"1373438254","name":"Урумкай","lat":52.7032642,"lon":69.9999114,"type":"village"},{"id":"1373445865","name":"Пушкино","lat":52.2744058,"lon":70.2345055,"type":"village"},{"id":"1373445868","name":"Капитоновка","lat":52.177544,"lon":70.134911,"type":"village"},{"id":"1373445879","name":"имени Балуана Шолака","lat":52.2154668,"lon":70.1846163,"type":"village"},{"id":"1373446948","name":"Васильевка","lat":52.269241,"lon":69.265442,"type":"village"},{"id":"1373535156","name":"Тулькули","lat":52.716801,"lon":69.60614,"type":"village"},{"id":"1373535159","name":"Карашилик","lat":52.7989913,"lon":69.4680112,"type":"village"},{"id":"1373535163","name":"Красиловка","lat":52.700222,"lon":69.029434,"type":"village"},{"id":"1373535168","name":"Кызылегис","lat":52.771111,"lon":69.366676,"type":"village"},{"id":"1373535196","name":"Мәлік Ғабдуллин ауылы","lat":52.901016,"lon":69.498505,"type":"village"},{"id":"1373535229","name":"Дороговка","lat":52.846851,"lon":69.581566,"type":"village"},{"id":"1373535246","name":"Ортаагаш","lat":52.8737412,"lon":69.4220234,"type":"village"},{"id":"1373535254","name":"Серафимовка","lat":52.9607051,"lon":69.2953794,"type":"village"},{"id":"1373535255","name":"Коктерек","lat":52.8516078,"lon":69.3008984,"type":"village"},{"id":"1373574681","name":"Новобратское","lat":52.0470947,"lon":69.5992133,"type":"village"},{"id":"1373574698","name":"Добровольное","lat":52.0552145,"lon":69.4015249,"type":"village"},{"id":"1373574744","name":"Красносельское","lat":52.090324,"lon":69.348091,"type":"village"},{"id":"1373574789","name":"Партизанка","lat":52.1772703,"lon":69.6490874,"type":"village"},{"id":"1373574794","name":"Киндиккарагай","lat":52.599434,"lon":70.082359,"type":"village"},{"id":"1373574806","name":"Будённовка","lat":52.1012835,"lon":69.6260435,"type":"village"},{"id":"1373574857","name":"Кульстан","lat":52.656494,"lon":69.959366,"type":"village"},{"id":"1375916598","name":"Қаражар","lat":49.865021,"lon":72.579414,"type":"village"},{"id":"1375949711","name":"Асыл","lat":49.886047,"lon":72.577637,"type":"village"},{"id":"1375960032","name":"Жаңаталап","lat":49.9539864,"lon":72.5248082,"type":"village"},{"id":"1375975105","name":"Қызылжар","lat":49.982578,"lon":72.607628,"type":"village"},{"id":"1375990240","name":"Қызылқайың","lat":49.9978291,"lon":72.6927362,"type":"village"},{"id":"1375999660","name":"Тасауыл","lat":50.0251615,"lon":72.7534768,"type":"village"},{"id":"1379323989","name":"Жұрын","lat":49.254284,"lon":57.585487,"type":"village"},{"id":"1379324044","name":"Монке би","lat":48.1620722,"lon":59.0600571,"type":"village"},{"id":"1379357053","name":"Торғай","lat":49.632599,"lon":63.491604,"type":"village"},{"id":"1379357063","name":"Тәуіш","lat":49.984127,"lon":63.943851,"type":"village"},{"id":"1379357066","name":"Жалдама","lat":50.4475806,"lon":65.6546639,"type":"village"},{"id":"1384387947","name":"Қарамұрын","lat":49.2552425,"lon":72.9744092,"type":"village"},{"id":"1387111604","name":"Арнасай","lat":51.0055991,"lon":72.0721805,"type":"village"},{"id":"1387115249","name":"Бабатай","lat":50.9715536,"lon":71.9584275,"type":"village"},{"id":"1387137205","name":"Булаксай","lat":51.2870809,"lon":72.0919942,"type":"village"},{"id":"1395827251","name":"Еленовка","lat":53.260382,"lon":68.8889376,"type":"village"},{"id":"1407351539","name":"Свердловка","lat":52.9243633,"lon":61.547375,"type":"village"},{"id":"1409446799","name":"Үрпек","lat":50.1038752,"lon":65.3103245,"type":"village"},{"id":"1409446836","name":"Қабырға","lat":49.902824,"lon":64.848114,"type":"village"},{"id":"1410760848","name":"Белбасар","lat":43.4784318,"lon":73.8436015,"type":"village"},{"id":"1415655976","name":"Придорожное","lat":53.5106868,"lon":63.0814795,"type":"village"},{"id":"1415655977","name":"Озёрное","lat":53.4494761,"lon":63.289727,"type":"village"},{"id":"1415655978","name":"Первомайское","lat":53.369759,"lon":62.476582,"type":"village"},{"id":"1415655979","name":"Пешковка","lat":53.732456,"lon":62.39222,"type":"village"},{"id":"1415655980","name":"Приуральское","lat":53.881813,"lon":61.953098,"type":"village"},{"id":"1415655981","name":"Трактовое","lat":53.479965,"lon":62.503971,"type":"village"},{"id":"1415655982","name":"Успеновка","lat":53.5608056,"lon":62.9826528,"type":"village"},{"id":"1418172538","name":"Ақшығанақ","lat":49.2910718,"lon":62.7097853,"type":"village"},{"id":"1418191915","name":"Қотыртас","lat":48.3434965,"lon":58.8304659,"type":"village"},{"id":"1426818110","name":"Дарбаза","lat":41.5678133,"lon":69.0838827,"type":"village"},{"id":"1430694778","name":"Покровка","lat":54.3010634,"lon":68.3552371,"type":"village"},{"id":"1450268667","name":"Құрықсай","lat":41.5199612,"lon":69.0400254,"type":"village"},{"id":"1450271495","name":"Таскескен","lat":41.409328,"lon":69.015411,"type":"village"},{"id":"1456004422","name":"Мәртөк","lat":50.7443222,"lon":56.4995791,"type":"town"},{"id":"1457457600","name":"Петропавл","lat":54.8668104,"lon":69.1334984,"type":"city"},{"id":"1466716533","name":"Шымкент","lat":42.3146962,"lon":69.5883282,"type":"city"},{"id":"1467100075","name":"Булаев","lat":54.896652,"lon":70.447189,"type":"city"},{"id":"1467107455","name":"Тоқушы","lat":54.85788,"lon":69.717262,"type":"village"},{"id":"1467107458","name":"Полудино","lat":54.862617,"lon":69.919205,"type":"village"},{"id":"1467107465","name":"Қарақоға","lat":54.904881,"lon":70.816818,"type":"village"},{"id":"1480778254","name":"Ақшымырау","lat":44.823097,"lon":52.836056,"type":"village"},{"id":"1480778266","name":"Қызан","lat":44.889339,"lon":52.674557,"type":"village"},{"id":"1480778282","name":"Тұщықұдық","lat":44.7348537,"lon":51.9644091,"type":"village"},{"id":"1480778285","name":"Шебір","lat":44.8144,"lon":52.092407,"type":"village"},{"id":"1480819615","name":"Пресновка","lat":54.6686113,"lon":67.1452217,"type":"village"},{"id":"1482114717","name":"Жарсуат","lat":51.478645,"lon":53.284653,"type":"village"},{"id":"1482162343","name":"Приурал","lat":51.478325,"lon":53.105526,"type":"village"},{"id":"1483353370","name":"Талдысай","lat":51.253815,"lon":53.652084,"type":"village"},{"id":"1483353560","name":"Жаңаталап","lat":51.3888001,"lon":53.5035006,"type":"village"},{"id":"1483353563","name":"Успенка","lat":51.273247,"lon":53.611263,"type":"village"},{"id":"1483960148","name":"Пугачёво","lat":51.2065823,"lon":52.8967111,"type":"village"},{"id":"1492994952","name":"Абай","lat":41.3494551,"lon":68.9522597,"type":"village"},{"id":"1496100938","name":"Алғабас","lat":41.235402,"lon":68.8152506,"type":"village"},{"id":"1496100943","name":"Нұртас","lat":43.246349,"lon":67.960525,"type":"village"},{"id":"1496100953","name":"Атақоныс","lat":41.306061,"lon":68.679184,"type":"village"},{"id":"1496100956","name":"Атақоныс","lat":40.710793,"lon":68.2276358,"type":"village"},{"id":"1496100963","name":"Атамұра","lat":40.753061,"lon":68.4050884,"type":"village"},{"id":"1496100966","name":"Әуезов","lat":40.9102501,"lon":68.2464611,"type":"village"},{"id":"1496100988","name":"Қабыланбек","lat":41.4927303,"lon":69.2770776,"type":"village"},{"id":"1496100998","name":"Бақабұлақ","lat":41.95018,"lon":69.004181,"type":"village"},{"id":"1496100999","name":"Баққоныс","lat":40.7888214,"lon":68.1847145,"type":"village"},{"id":"1496101006","name":"Бақышсай","lat":41.310669,"lon":68.706879,"type":"village"},{"id":"1496101023","name":"Байылдыр","lat":43.5525318,"lon":68.4836314,"type":"village"},{"id":"1496101028","name":"Бейбітшілік","lat":41.0020902,"lon":68.2450098,"type":"village"},{"id":"1496101036","name":"Қарабастау","lat":41.9116221,"lon":69.6741726,"type":"village"},{"id":"1496101040","name":"Бейсен Оңтаев ауылы","lat":42.4918128,"lon":69.0205299,"type":"village"},{"id":"1496101058","name":"Бескепе","lat":42.430656,"lon":69.776573,"type":"village"},{"id":"1496101059","name":"Бескетік","lat":40.7258158,"lon":68.2904804,"type":"village"},{"id":"1496101062","name":"Бесқұдық","lat":41.4276503,"lon":69.0974732,"type":"village"},{"id":"1496101083","name":"Бірлесу","lat":41.2361984,"lon":68.8539141,"type":"village"},{"id":"1496101086","name":"Бірлік","lat":41.2280509,"lon":68.6173314,"type":"village"},{"id":"1496101096","name":"Бірлік","lat":42.4838845,"lon":69.1447724,"type":"village"},{"id":"1496101102","name":"Қияжол","lat":40.9798854,"lon":68.6798541,"type":"village"},{"id":"1496101112","name":"Қасқасу","lat":42.2257772,"lon":70.1673402,"type":"village"},{"id":"1496101116","name":"Аманжар","lat":41.2435837,"lon":68.8278458,"type":"village"},{"id":"1496101118","name":"Ақжайлау","lat":41.016769,"lon":68.125107,"type":"village"},{"id":"1496101121","name":"Зертас","lat":42.2612735,"lon":69.9065446,"type":"village"},{"id":"1496101124","name":"28 гвардияшылар ауылы","lat":41.1371371,"lon":68.8090899,"type":"village"},{"id":"1496101128","name":"Көксаяқ","lat":42.2555899,"lon":69.9824433,"type":"village"},{"id":"1496101131","name":"Дархан","lat":41.3980557,"lon":69.0559854,"type":"village"},{"id":"1496101139","name":"Жамбыл","lat":42.2690837,"lon":70.1875688,"type":"village"},{"id":"1496101142","name":"Жамбыл","lat":42.464921,"lon":69.1496021,"type":"village"},{"id":"1496101145","name":"Нұрмұхамед Есентаев ауылы","lat":40.9340967,"lon":68.4909495,"type":"village"},{"id":"1496101146","name":"Жұлдыз","lat":40.9546967,"lon":68.5050349,"type":"village"},{"id":"1496101152","name":"Диханкөл","lat":42.1950627,"lon":70.1198542,"type":"village"},{"id":"1496101155","name":"Жиынбай","lat":42.482887,"lon":70.007415,"type":"village"},{"id":"1496101159","name":"Қорған","lat":42.1206423,"lon":69.971411,"type":"village"},{"id":"1496101171","name":"Достық","lat":40.7138835,"lon":68.3263151,"type":"village"},{"id":"1496101174","name":"Елшібек батыр ауылы","lat":42.88496,"lon":68.971351,"type":"village"},{"id":"1496101189","name":"Еңбек","lat":42.585495,"lon":69.881202,"type":"village"},{"id":"1496101192","name":"Еңбек","lat":41.3930882,"lon":68.8668529,"type":"village"},{"id":"1496101204","name":"Еңбекші","lat":42.542152,"lon":69.882362,"type":"village"},{"id":"1496101208","name":"Еңбекші","lat":41.0245088,"lon":68.1698031,"type":"village"},{"id":"1496101214","name":"Еңбекшідихан","lat":43.358017,"lon":68.360794,"type":"village"},{"id":"1496101218","name":"Еркінабад","lat":40.7454868,"lon":68.5350414,"type":"village"},{"id":"1496101219","name":"Жазықсай","lat":40.8832701,"lon":68.2666938,"type":"village"},{"id":"1496101220","name":"Теміржол","lat":40.9222549,"lon":68.1137504,"type":"village"},{"id":"1496101228","name":"Жалаңтөс","lat":43.15245,"lon":67.907783,"type":"village"},{"id":"1496101230","name":"Жаңаарық","lat":41.4408484,"lon":69.1367247,"type":"village"},{"id":"1496101232","name":"Жаңадәуір","lat":41.128391,"lon":68.730255,"type":"village"},{"id":"1496101241","name":"Жаңажол","lat":40.7694834,"lon":68.4209598,"type":"village"},{"id":"1496101244","name":"Жаңақоғам","lat":42.58876,"lon":69.838241,"type":"village"},{"id":"1496101251","name":"Жаңақоныс","lat":41.2751108,"lon":68.8625384,"type":"village"},{"id":"1496101259","name":"Көлтоған","lat":41.3822054,"lon":68.9441611,"type":"village"},{"id":"1496101270","name":"Жаңаталап","lat":41.4730547,"lon":69.0935075,"type":"village"},{"id":"1496101277","name":"Жаңатіршілік","lat":41.2526859,"lon":68.6365947,"type":"village"},{"id":"1496101283","name":"Жаңатұрмыс","lat":41.492888,"lon":69.3123162,"type":"village"},{"id":"1496101288","name":"Жаңатұрмыс","lat":42.1945251,"lon":70.0468145,"type":"village"},{"id":"1496101294","name":"Жантақсай","lat":40.6331399,"lon":68.54133,"type":"village"},{"id":"1496101311","name":"Жуантобе","lat":44.763718,"lon":68.831017,"type":"village"},{"id":"1496101315","name":"Ақсуабат","lat":42.4879454,"lon":69.7386358,"type":"village"},{"id":"1496101316","name":"Рысқұл","lat":42.519664,"lon":70.198043,"type":"village"},{"id":"1496101317","name":"Бәйтерек","lat":40.9070628,"lon":68.2905208,"type":"village"},{"id":"1496101325","name":"Гүлістан","lat":40.704429,"lon":68.359893,"type":"village"},{"id":"1496101328","name":"Жемісті","lat":40.8476083,"lon":68.0650839,"type":"village"},{"id":"1496101337","name":"Алпамыс","lat":40.9109017,"lon":68.3982399,"type":"village"},{"id":"1496101338","name":"Жеңіс ата","lat":43.880568,"lon":68.7766919,"type":"village"},{"id":"1496101350","name":"Қараой","lat":40.7318119,"lon":68.203727,"type":"village"},{"id":"1496101352","name":"Жетітөбе","lat":41.374744,"lon":68.855614,"type":"village"},{"id":"1496101362","name":"Жігерген","lat":41.914817,"lon":69.725807,"type":"village"},{"id":"1496101371","name":"Жіңішке","lat":41.904686,"lon":69.460114,"type":"village"},{"id":"1496101372","name":"Жіңішке","lat":42.2324441,"lon":70.0211246,"type":"village"},{"id":"1496101375","name":"Жолбасшы","lat":41.3952943,"lon":68.977513,"type":"village"},{"id":"1496101386","name":"Жұлдыз","lat":42.434864,"lon":68.97805,"type":"village"},{"id":"1496101393","name":"Жұмысшы","lat":41.881942,"lon":69.502777,"type":"village"},{"id":"1496101411","name":"Игілік","lat":40.8965516,"lon":68.4919761,"type":"village"},{"id":"1496101416","name":"Игілік","lat":41.391293,"lon":68.89003,"type":"village"},{"id":"1496101419","name":"Қазақстан","lat":42.2593436,"lon":70.020732,"type":"village"},{"id":"1496101440","name":"Шарафкент","lat":42.5816779,"lon":70.1141033,"type":"village"},{"id":"1496101443","name":"Тұғыртас","lat":41.6823369,"lon":69.4997263,"type":"village"},{"id":"1496101454","name":"Қарабау","lat":41.8492524,"lon":69.546981,"type":"village"},{"id":"1496101468","name":"Қаражон","lat":43.67065,"lon":67.877151,"type":"village"},{"id":"1496101485","name":"Қарақия","lat":42.0392126,"lon":69.5614788,"type":"village"},{"id":"1496101486","name":"Қарақұм","lat":42.880497,"lon":68.919509,"type":"village"},{"id":"1496101501","name":"Ақпан","lat":42.419998,"lon":68.9464599,"type":"village"},{"id":"1496101508","name":"Қаратал","lat":41.3249433,"lon":68.7283557,"type":"village"},{"id":"1496101511","name":"Қаратас","lat":42.8346917,"lon":69.7432886,"type":"village"},{"id":"1496101512","name":"Қаратөбе","lat":42.0105529,"lon":69.5326836,"type":"village"},{"id":"1496101522","name":"Қаратөбе","lat":41.080368,"lon":68.677681,"type":"village"},{"id":"1496101524","name":"Сұлтанрабат","lat":42.1856783,"lon":69.8261176,"type":"village"},{"id":"1496101533","name":"Қаржан","lat":41.829372,"lon":69.713317,"type":"village"},{"id":"1496101538","name":"Жүзімдік","lat":41.1973113,"lon":68.8039775,"type":"village"},{"id":"1496101543","name":"Еңкес","lat":41.4268608,"lon":69.1220023,"type":"village"},{"id":"1496101545","name":"Батыр Ата","lat":42.5580355,"lon":69.1560764,"type":"village"},{"id":"1496101558","name":"Жоғарғы Қасқасу","lat":42.2035019,"lon":70.2014635,"type":"village"},{"id":"1496101561","name":"Көксағыз","lat":42.5237679,"lon":70.2771186,"type":"village"},{"id":"1496101574","name":"Таусағыз","lat":42.548675,"lon":70.239028,"type":"village"},{"id":"1496101579","name":"Кеңесарық","lat":42.2345203,"lon":70.1898684,"type":"village"},{"id":"1496101587","name":"Керегетас","lat":42.196983,"lon":70.162979,"type":"village"},{"id":"1496101595","name":"Бақыбек","lat":42.5198261,"lon":70.3398909,"type":"village"},{"id":"1496101607","name":"Монтайтас","lat":42.081199,"lon":68.966506,"type":"village"},{"id":"1496101612","name":"Көкарал","lat":40.7538441,"lon":68.4737871,"type":"village"},{"id":"1496101617","name":"Көкібел","lat":41.9551225,"lon":69.7325814,"type":"village"},{"id":"1496101627","name":"Көкбұлақ","lat":41.0579831,"lon":68.6571483,"type":"village"},{"id":"1496101643","name":"Жаңаұйым","lat":42.1600055,"lon":69.9265855,"type":"village"},{"id":"1496101654","name":"Қызылдихан","lat":41.735515,"lon":69.585769,"type":"village"},{"id":"1496101655","name":"Абай","lat":40.9448426,"lon":68.2894335,"type":"village"},{"id":"1496101666","name":"Жүйнек","lat":43.428551,"lon":68.275742,"type":"village"},{"id":"1496101676","name":"Молыке Шойманов ауылы","lat":42.7630269,"lon":68.3967327,"type":"village"},{"id":"1496101677","name":"Төреарық","lat":42.515846,"lon":69.079154,"type":"village"},{"id":"1496101688","name":"Көрікті","lat":40.8537836,"lon":68.3026692,"type":"village"},{"id":"1496101692","name":"Қосбұлақ","lat":43.2308335,"lon":68.9561576,"type":"village"},{"id":"1496101698","name":"Қосқұдық","lat":41.0205377,"lon":68.1626308,"type":"village"},{"id":"1496101710","name":"Қошқарата","lat":41.3107944,"lon":68.9326243,"type":"village"},{"id":"1496101713","name":"Көшқорған","lat":43.373253,"lon":68.488037,"type":"village"},