[{"id":"41626831","name":"Ella","lat":6.8736058,"lon":81.0489927,"type":"town"},{"id":"44240758","name":"Nuwara Eliya","lat":6.9739741,"lon":80.7669855,"type":"city"},{"id":"49374844","name":"Kegalle","lat":7.2532006,"lon":80.3454132,"type":"city"},{"id":"50414847","name":"Talpe","lat":5.9971428,"lon":80.2811795,"type":"village"},{"id":"50416399","name":"Koggala","lat":5.9903676,"lon":80.3226304,"type":"village"},{"id":"50769618","name":"Mirissa","lat":5.9493634,"lon":80.4558128,"type":"town"},{"id":"50794342","name":"Colombo","lat":6.9388614,"lon":79.8542005,"type":"city"},{"id":"51216347","name":"Tangalle","lat":6.0250847,"lon":80.7949279,"type":"town"},{"id":"51226428","name":"Pussellawa","lat":7.110145,"lon":80.6337679,"type":"town"},{"id":"51226438","name":"Hakgala","lat":6.92375,"lon":80.8262591,"type":"village"},{"id":"51226450","name":"Keppetipola","lat":6.8948998,"lon":80.8694619,"type":"village"},{"id":"51232363","name":"Tanamalwila","lat":6.4362434,"lon":81.1302757,"type":"town"},{"id":"51232367","name":"Lunugamvehera","lat":6.3470414,"lon":81.1961423,"type":"town"},{"id":"51232378","name":"Weerawila","lat":6.2574968,"lon":81.2281152,"type":"town"},{"id":"51232381","name":"Ambalantota","lat":6.1224627,"lon":81.0238588,"type":"town"},{"id":"51232382","name":"Nonagama","lat":6.1126485,"lon":80.9921128,"type":"village"},{"id":"51232384","name":"Hungama","lat":6.1099095,"lon":80.9320164,"type":"town"},{"id":"51232436","name":"Ranna","lat":6.0970103,"lon":80.8751364,"type":"town"},{"id":"51237546","name":"Pasyala","lat":7.1684426,"lon":80.1242004,"type":"town"},{"id":"51237600","name":"Mawanella","lat":7.2523524,"lon":80.4469352,"type":"town"},{"id":"51237603","name":"Kadawatha","lat":7.002137,"lon":79.9512274,"type":"town"},{"id":"61522016","name":"Monrovia","lat":6.1180647,"lon":80.1580397,"type":"village"},{"id":"61522032","name":"Kattupol Watta","lat":6.1209159,"lon":80.1667793,"type":"village"},{"id":"61557398","name":"Moratuwa","lat":6.7746821,"lon":79.8826095,"type":"city"},{"id":"61602698","name":"Rajgama","lat":6.0915285,"lon":80.1416237,"type":"village"},{"id":"77369078","name":"Dondra","lat":5.9281039,"lon":80.5893555,"type":"town"},{"id":"98593218","name":"Akuressa","lat":6.1011778,"lon":80.4764879,"type":"town"},{"id":"102764947","name":"Kahaduwawatta","lat":6.0648309,"lon":80.2145368,"type":"village"},{"id":"129616015","name":"Bandaragama","lat":6.7145129,"lon":79.9889673,"type":"town"},{"id":"130460965","name":"Thalgasgoda","lat":6.2473323,"lon":80.0747682,"type":"village"},{"id":"130461056","name":"Thalgaskanda","lat":6.2487572,"lon":80.0812289,"type":"village"},{"id":"134253719","name":"Dehiwala","lat":6.8512785,"lon":79.8659769,"type":"town"},{"id":"198828296","name":"Pannipitiya","lat":6.8464397,"lon":79.9486254,"type":"village"},{"id":"198828328","name":"Nugegoda","lat":6.8699688,"lon":79.8882835,"type":"town"},{"id":"245519771","name":"Padukka","lat":6.8415384,"lon":80.0916472,"type":"town"},{"id":"247205705","name":"Hatton","lat":6.8916333,"lon":80.5984591,"type":"town"},{"id":"247206090","name":"Ginigathhena","lat":6.9890908,"lon":80.4941848,"type":"town"},{"id":"247211381","name":"Talawakele","lat":6.9380776,"lon":80.661471,"type":"town"},{"id":"247220841","name":"Hambantota","lat":6.1249126,"lon":81.1242563,"type":"city"},{"id":"248049206","name":"Nalagasdeniya","lat":6.1403764,"lon":80.1094221,"type":"village"},{"id":"248049211","name":"Poddala","lat":6.1157677,"lon":80.2172265,"type":"village"},{"id":"250131587","name":"Yayawatta","lat":6.005693,"lon":80.7354624,"type":"village"},{"id":"250131633","name":"Yayawatta Palotha","lat":6.015619,"lon":80.748394,"type":"village"},{"id":"250132081","name":"Akurala","lat":6.192196,"lon":80.0629238,"type":"village"},{"id":"250132087","name":"Madampagama","lat":6.214748,"lon":80.0591135,"type":"village"},{"id":"250132238","name":"Urawatte","lat":6.2249305,"lon":80.055321,"type":"village"},{"id":"250132319","name":"Peraliya","lat":6.1666809,"lon":80.0899137,"type":"village"},{"id":"250132419","name":"Owakanda","lat":6.0801537,"lon":80.1526817,"type":"village"},{"id":"250132438","name":"Thalaramba","lat":5.9398427,"lon":80.4753806,"type":"village"},{"id":"250132444","name":"Walgama","lat":5.9424672,"lon":80.5149276,"type":"town"},{"id":"250132486","name":"Pamburana","lat":5.9451958,"lon":80.5285454,"type":"village"},{"id":"250132536","name":"Kamburugamuwa","lat":5.9411497,"lon":80.4942905,"type":"village"},{"id":"250135758","name":"Polhena","lat":5.9394504,"lon":80.524231,"type":"village"},{"id":"250730974","name":"Pelawatte","lat":6.891596,"lon":79.9289573,"type":"town"},{"id":"251366138","name":"Gandara","lat":5.9377157,"lon":80.613406,"type":"village"},{"id":"251366149","name":"Kottagoda","lat":5.9494342,"lon":80.6370242,"type":"village"},{"id":"251844762","name":"Pokunuwita","lat":6.7260305,"lon":80.0339642,"type":"village"},{"id":"251844978","name":"Boralesgamuwa","lat":6.8410598,"lon":79.9017028,"type":"town"},{"id":"252537457","name":"Kahathuduwa","lat":6.7831285,"lon":79.9839654,"type":"village"},{"id":"252542985","name":"Ja-ela","lat":7.0793775,"lon":79.8907632,"type":"town"},{"id":"256824244","name":"Battaramulla","lat":6.9021809,"lon":79.9195776,"type":"town"},{"id":"258031093","name":"Dambulla","lat":7.8742031,"lon":80.6510917,"type":"town"},{"id":"258034509","name":"Katugastota","lat":7.3220837,"lon":80.6249552,"type":"town"},{"id":"258047343","name":"Habarana","lat":8.0398876,"lon":80.7554997,"type":"town"},{"id":"258049423","name":"Matale","lat":7.4720453,"lon":80.6234307,"type":"city"},{"id":"258523517","name":"Polonnaruwa","lat":7.9395357,"lon":81.0003387,"type":"city"},{"id":"258615787","name":"Naula","lat":7.7070389,"lon":80.6530833,"type":"town"},{"id":"258615791","name":"Hunganwela","lat":7.6775782,"lon":80.6413048,"type":"village"},{"id":"258615793","name":"Palapathwela","lat":7.5369467,"lon":80.6275032,"type":"village"},{"id":"258615800","name":"Ambatenna","lat":7.3508935,"lon":80.6142184,"type":"village"},{"id":"263798278","name":"Atabage","lat":7.1350219,"lon":80.5978714,"type":"village"},{"id":"265874918","name":"Yala Junction","lat":6.6634307,"lon":80.07151,"type":"village"},{"id":"265874956","name":"Anguruwathota","lat":6.645179,"lon":80.0762915,"type":"village"},{"id":"265875005","name":"Galpatha","lat":6.6293988,"lon":80.0249444,"type":"village"},{"id":"266478441","name":"Kadewatta","lat":5.9834746,"lon":80.4358122,"type":"village"},{"id":"267304700","name":"Malagala","lat":6.7919138,"lon":80.109788,"type":"village"},{"id":"267304734","name":"Dambara","lat":6.7628853,"lon":80.1026629,"type":"village"},{"id":"267304789","name":"Kahawala","lat":6.7753792,"lon":80.1115905,"type":"village"},{"id":"267304812","name":"Ihala Millawa North","lat":6.7871354,"lon":80.0726646,"type":"village"},{"id":"267304862","name":"Pahala Millawa North","lat":6.7989253,"lon":80.0827337,"type":"village"},{"id":"267305055","name":"Gurugoda","lat":6.7264407,"lon":80.0994374,"type":"village"},{"id":"267305145","name":"Kananwila","lat":6.7500925,"lon":80.0518337,"type":"village"},{"id":"267305352","name":"Gelanigama","lat":6.7187694,"lon":80.0013608,"type":"village"},{"id":"267305391","name":"Raigama","lat":6.7186391,"lon":80.0108447,"type":"village"},{"id":"267305559","name":"Gonapola","lat":6.7638594,"lon":80.0130531,"type":"village"},{"id":"267305868","name":"Kumbuka","lat":6.7356237,"lon":80.0286247,"type":"village"},{"id":"267305985","name":"Pinhena","lat":6.8330326,"lon":79.9646627,"type":"village"},{"id":"292785668","name":"Seeduwa","lat":7.1306288,"lon":79.8782394,"type":"town"},{"id":"309607443","name":"Labuduwa","lat":6.0727684,"lon":80.2318917,"type":"town"},{"id":"309898394","name":"Godakanda","lat":6.0780775,"lon":80.2228397,"type":"village"},{"id":"309898644","name":"Galketiya","lat":6.0757899,"lon":80.22329,"type":"village"},{"id":"310166096","name":"Hapugala","lat":6.0757917,"lon":80.1975697,"type":"village"},{"id":"310166135","name":"Wakwella","lat":6.1011226,"lon":80.1848753,"type":"village"},{"id":"310166136","name":"Kithulampitiya","lat":6.0648926,"lon":80.2053202,"type":"village"},{"id":"313407388","name":"Kochchikade","lat":7.2649211,"lon":79.8590371,"type":"town"},{"id":"313808390","name":"Mihira","lat":6.0847625,"lon":80.148476,"type":"village"},{"id":"313808479","name":"Gamaddegoda","lat":6.0881337,"lon":80.1458152,"type":"village"},{"id":"313809466","name":"Wewala","lat":6.1298515,"lon":80.1034626,"type":"village"},{"id":"313809710","name":"Seenigama","lat":6.1572576,"lon":80.0930219,"type":"village"},{"id":"313809891","name":"Thelwatta","lat":6.1734308,"lon":80.0862058,"type":"village"},{"id":"313809951","name":"Godagama","lat":6.1794041,"lon":80.0796827,"type":"village"},{"id":"313809996","name":"Kahawa","lat":6.1839907,"lon":80.0723657,"type":"village"},{"id":"313810388","name":"Kuleegoda","lat":6.2139499,"lon":80.0704568,"type":"village"},{"id":"313811388","name":"Randombe","lat":6.2525285,"lon":80.0442346,"type":"village"},{"id":"313811771","name":"Wathuregama","lat":6.2955924,"lon":80.0399008,"type":"village"},{"id":"324707446","name":"Kankesanturai","lat":9.8118663,"lon":80.0374464,"type":"town"},{"id":"324707634","name":"Chunnakam","lat":9.7430313,"lon":80.028827,"type":"town"},{"id":"330173100","name":"Puttalam","lat":8.030245,"lon":79.8286545,"type":"city"},{"id":"335253618","name":"Trincomalee","lat":8.576425,"lon":81.2344952,"type":"city"},{"id":"339885285","name":"Talaimannar","lat":9.1055245,"lon":79.7307431,"type":"town"},{"id":"340001017","name":"Malaiyadi","lat":9.5939073,"lon":79.772919,"type":"village"},{"id":"388241712","name":"Thihagoda","lat":6.0127562,"lon":80.565877,"type":"town"},{"id":"388245026","name":"Yatiyana","lat":6.024698,"lon":80.6012659,"type":"town"},{"id":"388261676","name":"Wewurukannala","lat":5.9772933,"lon":80.6982869,"type":"village"},{"id":"388262220","name":"Walasgala","lat":5.9854942,"lon":80.699933,"type":"village"},{"id":"540529437","name":"Matugama","lat":6.5229542,"lon":80.1142603,"type":"town"},{"id":"558931492","name":"Athurugiriya","lat":6.8772464,"lon":79.9899292,"type":"town"},{"id":"566568740","name":"Ihalagama","lat":8.0584255,"lon":80.5528316,"type":"village"},{"id":"566568747","name":"Andiyagala","lat":7.9030308,"lon":80.5237321,"type":"village"},{"id":"566574609","name":"Talawa","lat":8.2366956,"lon":80.3506415,"type":"village"},{"id":"566574942","name":"Anuradhapura","lat":8.334985,"lon":80.4106096,"type":"city"},{"id":"598167631","name":"Haputale","lat":6.7681528,"lon":80.9602296,"type":"town"},{"id":"599776563","name":"Nambuluwa","lat":6.826351,"lon":79.9760958,"type":"village"},{"id":"599776565","name":"Brahmanagama","lat":6.8215139,"lon":79.9818137,"type":"village"},{"id":"599815327","name":"Kirigampamunuwa","lat":6.8053875,"lon":79.9785599,"type":"village"},{"id":"603240329","name":"Beragala","lat":6.7637697,"lon":80.9130843,"type":"village"},{"id":"610929933","name":"Weeraketiya","lat":6.1484324,"lon":80.7632359,"type":"town"},{"id":"610930009","name":"Meegasara","lat":6.2007131,"lon":80.7688185,"type":"village"},{"id":"617242457","name":"Dankotuwa","lat":7.2974892,"lon":79.8821873,"type":"town"},{"id":"617248525","name":"Kotugoda","lat":7.1234948,"lon":79.9247807,"type":"town"},{"id":"617248527","name":"Ekala","lat":7.1013158,"lon":79.91027,"type":"town"},{"id":"617248529","name":"Industrial Zone","lat":7.1007133,"lon":79.899506,"type":"village"},{"id":"617262856","name":"Vidyala Junction","lat":6.8664947,"lon":79.9595731,"type":"village"},{"id":"618688780","name":"Hingurakgoda","lat":8.0415145,"lon":80.9531701,"type":"town"},{"id":"619133455","name":"Talawatugoda","lat":6.8763201,"lon":79.9353613,"type":"town"},{"id":"619742373","name":"Hokandara North","lat":6.8816229,"lon":79.9809292,"type":"village"},{"id":"619880001","name":"Habarakada","lat":6.8656803,"lon":80.0134781,"type":"village"},{"id":"619905117","name":"Kaduwela","lat":6.9357027,"lon":79.9843311,"type":"city"},{"id":"619905135","name":"Miriswatte","lat":7.0738514,"lon":80.0160646,"type":"town"},{"id":"620529015","name":"Bopitiya","lat":7.0795314,"lon":79.8593207,"type":"village"},{"id":"620529016","name":"Pulluhena","lat":7.074474,"lon":79.8572178,"type":"village"},{"id":"621150152","name":"Kiribathgoda","lat":6.978151,"lon":79.9269935,"type":"town"},{"id":"621201131","name":"Hekitta","lat":6.9839168,"lon":79.8763752,"type":"village"},{"id":"621940712","name":"Karagampitiya","lat":6.8502681,"lon":79.8720051,"type":"village"},{"id":"633759246","name":"Mullaitivu","lat":9.2698532,"lon":80.8145347,"type":"city"},{"id":"633777951","name":"Mutur","lat":8.4579687,"lon":81.2667036,"type":"village"},{"id":"634160532","name":"Attanagalla","lat":7.1138383,"lon":80.1367665,"type":"village"},{"id":"634172978","name":"Mulliyawalai","lat":9.2255073,"lon":80.7783112,"type":"town"},{"id":"634173386","name":"Mankulam","lat":9.1283525,"lon":80.4460374,"type":"town"},{"id":"634174328","name":"Kanakarayankulam","lat":9.0470052,"lon":80.518048,"type":"town"},{"id":"634174641","name":"Nedunkerny","lat":9.0621351,"lon":80.6608048,"type":"town"},{"id":"634179060","name":"Nainamadu","lat":9.0283929,"lon":80.5990969,"type":"village"},{"id":"634179061","name":"Puliyankulam","lat":8.965263,"lon":80.5249678,"type":"town"},{"id":"634181330","name":"Kokavil","lat":9.2730832,"lon":80.4125439,"type":"village"},{"id":"634181331","name":"Iranamadu","lat":9.3342699,"lon":80.4092187,"type":"village"},{"id":"634182147","name":"Vavuniya","lat":8.7593517,"lon":80.5000778,"type":"city"},{"id":"634187544","name":"Inamaluwa","lat":7.9296392,"lon":80.6877296,"type":"village"},{"id":"634201943","name":"Rambukkana","lat":7.3239273,"lon":80.3957479,"type":"town"},{"id":"634207826","name":"Galagedara","lat":7.3729671,"lon":80.5246925,"type":"town"},{"id":"634222744","name":"Puthukkudiyirippu","lat":9.3137049,"lon":80.696277,"type":"town"},{"id":"634224455","name":"Chalai","lat":9.4209203,"lon":80.6657994,"type":"village"},{"id":"634225682","name":"Puthumattalan","lat":9.3582439,"lon":80.728495,"type":"village"},{"id":"634225685","name":"Palamattalan","lat":9.3710324,"lon":80.7173633,"type":"village"},{"id":"634253347","name":"Kilinochchi","lat":9.3840068,"lon":80.4087224,"type":"city"},{"id":"634261389","name":"Oddusudan","lat":9.1554375,"lon":80.6513268,"type":"town"},{"id":"634262363","name":"Paranthan","lat":9.4372313,"lon":80.4078621,"type":"town"},{"id":"634470650","name":"Galigamuwa","lat":7.2357407,"lon":80.3102645,"type":"village"},{"id":"634848847","name":"Kirindiwela","lat":7.0431455,"lon":80.1317271,"type":"town"},{"id":"636834739","name":"Karaitivu","lat":8.2228084,"lon":79.8080276,"type":"village"},{"id":"636859120","name":"Moragaswewa","lat":8.0322026,"lon":80.7727954,"type":"village"},{"id":"636866396","name":"Kibissa","lat":7.9392594,"lon":80.7267997,"type":"village"},{"id":"636866398","name":"Tamaraivillu","lat":8.4915048,"lon":81.1916684,"type":"village"},{"id":"636867709","name":"Kantale","lat":8.3670029,"lon":81.0028383,"type":"town"},{"id":"636867711","name":"Agbopura","lat":8.3417817,"lon":80.9818789,"type":"village"},{"id":"636901988","name":"Kirinde","lat":6.2174118,"lon":81.3350166,"type":"village"},{"id":"636920538","name":"Paddippalai","lat":7.5987902,"lon":81.7048515,"type":"village"},{"id":"636923903","name":"Urukamam","lat":7.6505381,"lon":81.4950366,"type":"village"},{"id":"636923904","name":"Unnichchai","lat":7.6148695,"lon":81.5470947,"type":"village"},{"id":"636931698","name":"Cheddipalaiyam","lat":7.5719716,"lon":81.7848212,"type":"village"},{"id":"637029092","name":"Narammala","lat":7.43073,"lon":80.2143788,"type":"town"},{"id":"637652815","name":"Ragama","lat":7.0263493,"lon":79.9236484,"type":"town"},{"id":"637706199","name":"Ganemulla","lat":7.0682842,"lon":79.9613944,"type":"town"},{"id":"637895939","name":"Pelmadulla","lat":6.6234343,"lon":80.5431464,"type":"town"},{"id":"637897018","name":"Ratnapura","lat":6.6803691,"lon":80.4022975,"type":"city"},{"id":"638941854","name":"Udugampola","lat":7.126079,"lon":79.9812272,"type":"village"},{"id":"638948677","name":"Divulapitiya","lat":7.2245446,"lon":80.0193654,"type":"town"},{"id":"638948678","name":"Mirigama","lat":7.2475144,"lon":80.1299215,"type":"town"},{"id":"638951280","name":"Giriulla","lat":7.3299461,"lon":80.1225131,"type":"town"},{"id":"638957830","name":"Veyangoda","lat":7.1534492,"lon":80.0602466,"type":"town"},{"id":"638957839","name":"Nalapaya","lat":7.1854322,"lon":80.0413713,"type":"village"},{"id":"638957844","name":"Dunagaha","lat":7.2312809,"lon":79.9736318,"type":"village"},{"id":"639153516","name":"Katunayake","lat":7.156773,"lon":79.8716676,"type":"town"},{"id":"639175794","name":"Katana","lat":7.2505527,"lon":79.9051957,"type":"town"},{"id":"639252024","name":"Kimbulapitiya","lat":7.2056808,"lon":79.8957069,"type":"village"},{"id":"639252030","name":"Andiambalama","lat":7.1844926,"lon":79.9078158,"type":"village"},{"id":"639263035","name":"Pannala","lat":7.328358,"lon":80.0241058,"type":"town"},{"id":"639263038","name":"Makandura","lat":7.3220162,"lon":79.9774078,"type":"village"},{"id":"639263039","name":"Sandalankawa","lat":7.3005219,"lon":79.9403539,"type":"village"},{"id":"639267408","name":"Bolawatta","lat":7.2964862,"lon":79.8578383,"type":"village"},{"id":"639267409","name":"Nainamadama","lat":7.3122968,"lon":79.8474814,"type":"village"},{"id":"639303995","name":"Radawana","lat":7.0338683,"lon":80.092349,"type":"village"},{"id":"639304543","name":"Dompe","lat":6.9496578,"lon":80.058322,"type":"village"},{"id":"639306500","name":"Godigomuwa","lat":7.279985,"lon":79.9625824,"type":"village"},{"id":"650331671","name":"Ambalanwatta","lat":6.0575573,"lon":80.2333371,"type":"village"},{"id":"652646582","name":"Thihariya","lat":7.1252272,"lon":80.0724256,"type":"village"},{"id":"665006571","name":"Arewwala","lat":6.8339578,"lon":79.9423268,"type":"village"},{"id":"665686382","name":"Kotikawatte","lat":6.9361356,"lon":79.9159756,"type":"town"},{"id":"665687033","name":"Ambatale","lat":6.9374104,"lon":79.9448314,"type":"village"},{"id":"666021104","name":"Angoda","lat":6.9360192,"lon":79.9257199,"type":"town"},{"id":"666021113","name":"Mulleriyawa","lat":6.9272771,"lon":79.9405074,"type":"town"},{"id":"666072119","name":"Malapalla","lat":6.8446676,"lon":79.9713029,"type":"village"},{"id":"667362617","name":"Kahanthota","lat":6.8995902,"lon":79.971732,"type":"village"},{"id":"667505795","name":"Wathurugama","lat":7.0534629,"lon":80.1066802,"type":"village"},{"id":"668032681","name":"Thalapathpitiya","lat":6.8674092,"lon":79.9158906,"type":"village"},{"id":"670836047","name":"Pamunuwa","lat":6.8491934,"lon":79.9288897,"type":"village"},{"id":"672187152","name":"Thalangama","lat":6.9060361,"lon":79.9263326,"type":"village"},{"id":"696486183","name":"Sedawatta","lat":6.9531713,"lon":79.8788038,"type":"village"},{"id":"696497075","name":"Grandpass","lat":6.9479501,"lon":79.8866482,"type":"village"},{"id":"696519958","name":"Wellampitiya","lat":6.9372438,"lon":79.8962142,"type":"town"},{"id":"803792646","name":"Point Pedro","lat":9.8241007,"lon":80.2361837,"type":"town"},{"id":"904968167","name":"Makumbura","lat":6.8392272,"lon":79.9726949,"type":"village"},{"id":"917948834","name":"Kataragama","lat":6.4135586,"lon":81.3324423,"type":"town"},{"id":"969659938","name":"Agalawatta","lat":6.5423445,"lon":80.157362,"type":"town"},{"id":"1093751366","name":"Thalagaha","lat":6.0780651,"lon":80.2484115,"type":"village"},{"id":"1093774247","name":"Yatalamatta","lat":6.1631946,"lon":80.2798995,"type":"village"},{"id":"1093799347","name":"Pitabeddara","lat":6.2011428,"lon":80.4740497,"type":"town"},{"id":"1135422214","name":"Siyambalanduwa","lat":6.9064021,"lon":81.5592089,"type":"town"},{"id":"1135433343","name":"Moneragala","lat":6.8725497,"lon":81.3507069,"type":"city"},{"id":"1135479950","name":"Dambagalla","lat":6.9521479,"lon":81.3684596,"type":"village"},{"id":"1150415971","name":"Labugama","lat":6.8584184,"lon":80.174194,"type":"village"},{"id":"1150497671","name":"Kithulgala","lat":6.9978725,"lon":80.4084927,"type":"town"},{"id":"1150550162","name":"Kalpitiya","lat":8.2368062,"lon":79.7661508,"type":"village"},{"id":"1156534098","name":"Wattegama","lat":7.3513246,"lon":80.6825933,"type":"town"},{"id":"1157624885","name":"Elkaduwa","lat":7.4168658,"lon":80.6831227,"type":"village"},{"id":"1157658023","name":"Kandenuwara","lat":7.4539936,"lon":80.6823547,"type":"village"},{"id":"1175899378","name":"Ukuwela","lat":7.4212501,"lon":80.6331832,"type":"town"},{"id":"1175900715","name":"Hindagala","lat":7.2386673,"lon":80.6012335,"type":"village"},{"id":"1181395633","name":"Denipitiya","lat":5.983201,"lon":80.4523557,"type":"village"},{"id":"1183726317","name":"Sooriyawewa","lat":6.3081836,"lon":81.0021826,"type":"town"},{"id":"1190564935","name":"Norton Bridge","lat":6.9153603,"lon":80.5206586,"type":"village"},{"id":"1223037744","name":"Kandakuli","lat":8.2141932,"lon":79.7262601,"type":"village"},{"id":"1237275871","name":"Galkulama","lat":8.2751604,"lon":80.4998012,"type":"village"},{"id":"1239429314","name":"Bamunaakotuwa","lat":7.5716162,"lon":80.2489255,"type":"town"},{"id":"1239442633","name":"Dampelessa","lat":7.4128518,"lon":80.2105517,"type":"village"},{"id":"1239482971","name":"Kalugamuwa","lat":7.4490513,"lon":80.2580097,"type":"village"},{"id":"1239560146","name":"Alawwa","lat":7.2940156,"lon":80.2392415,"type":"town"},{"id":"1239591372","name":"Padeniya","lat":7.6555886,"lon":80.2219283,"type":"town"},{"id":"1239651747","name":"Daladagama","lat":7.8214845,"lon":80.2502341,"type":"village"},{"id":"1239690493","name":"Maho","lat":7.8239143,"lon":80.273567,"type":"town"},{"id":"1241525013","name":"Giritale","lat":8.000262,"lon":80.9244422,"type":"town"},{"id":"1241588299","name":"Ranpokunagama","lat":7.136873,"lon":80.1099421,"type":"village"},{"id":"1241639671","name":"Naiwala","lat":7.1593736,"lon":80.0309,"type":"village"},{"id":"1241668462","name":"Kalagedihena","lat":7.1192313,"lon":80.0597034,"type":"village"},{"id":"1242638983","name":"Walahanduwa","lat":6.0504945,"lon":80.2547098,"type":"village"},{"id":"1242646684","name":"Haliwala","lat":6.0461098,"lon":80.2434977,"type":"village"},{"id":"1242646685","name":"Akmeemana","lat":6.0695562,"lon":80.2609968,"type":"village"},{"id":"1242694029","name":"Potankadu","lat":8.3476138,"lon":81.0083665,"type":"village"},{"id":"1242700528","name":"Kanniya","lat":8.6184026,"lon":81.1671242,"type":"village"},{"id":"1242724515","name":"Kinniya","lat":8.5016494,"lon":81.1912179,"type":"village"},{"id":"1242793101","name":"Uppuveli","lat":8.6005237,"lon":81.2178369,"type":"village"},{"id":"1245022182","name":"Ponnalai","lat":9.7507128,"lon":79.9174453,"type":"village"},{"id":"1245037503","name":"Vallipuram","lat":9.7884388,"lon":80.2426229,"type":"village"},{"id":"1245043181","name":"Chavakachcheri","lat":9.6579014,"lon":80.1643076,"type":"town"},{"id":"1245043224","name":"Navatkuli","lat":9.6626751,"lon":80.0831893,"type":"town"},{"id":"1252523233","name":"Rawathawatta","lat":6.7880501,"lon":79.8850579,"type":"town"},{"id":"1261568432","name":"Badalgama","lat":7.2864141,"lon":79.9855834,"type":"village"},{"id":"1269983060","name":"Dungalpitiya","lat":7.14691,"lon":79.8320301,"type":"town"},{"id":"1269983065","name":"Kapungoda","lat":7.1189172,"lon":79.841015,"type":"town"},{"id":"1269988029","name":"Nugape","lat":7.0491582,"lon":79.8657444,"type":"village"},{"id":"1269994494","name":"Kurana","lat":7.194552,"lon":79.8564854,"type":"village"},{"id":"1278101263","name":"Niwandama","lat":7.0888793,"lon":79.9332251,"type":"village"},{"id":"1278101317","name":"Makawita","lat":7.1043608,"lon":79.9348318,"type":"village"},{"id":"1278101424","name":"Batapotha","lat":7.1211745,"lon":79.956178,"type":"village"},{"id":"1292892060","name":"Bollatha","lat":7.0632029,"lon":79.9320835,"type":"village"},{"id":"1292892090","name":"Ihala Imbulgoda","lat":7.0421484,"lon":79.9929054,"type":"village"},{"id":"1292892213","name":"Kirillawala","lat":7.0346833,"lon":79.9902341,"type":"village"},{"id":"1306560765","name":"Poonugala","lat":7.0595399,"lon":80.3642018,"type":"village"},{"id":"1306560769","name":"Gonagamuwa","lat":7.0267737,"lon":80.3661169,"type":"village"},{"id":"1306560777","name":"Malalpola","lat":7.061712,"lon":80.3345902,"type":"village"},{"id":"1370722181","name":"Delpe","lat":7.0211611,"lon":79.9352442,"type":"village"},{"id":"1400410588","name":"Chilaw","lat":7.5765074,"lon":79.7956755,"type":"town"},{"id":"1400420567","name":"Kakkapalliya Junction","lat":7.5299613,"lon":79.8215796,"type":"village"},{"id":"1400420569","name":"Mahawewa","lat":7.4539599,"lon":79.8283059,"type":"village"},{"id":"1400420570","name":"Mundalama","lat":7.7880299,"lon":79.8272454,"type":"village"},{"id":"1464688730","name":"Bothalegama","lat":7.3641919,"lon":79.8805094,"type":"village"},{"id":"1466614123","name":"Kirimetiyana","lat":7.3536993,"lon":79.8858777,"type":"village"},{"id":"1473109327","name":"Koswatta","lat":7.3659684,"lon":79.8925803,"type":"village"},{"id":"1494019080","name":"Kaithady","lat":9.6877397,"lon":80.1036274,"type":"town"},{"id":"1494019659","name":"Madduvil","lat":9.6888047,"lon":80.1490346,"type":"village"},{"id":"1494022576","name":"Vaddukkodai","lat":9.7281116,"lon":79.9487867,"type":"village"},{"id":"1494022611","name":"Arali","lat":9.7091445,"lon":79.9488425,"type":"village"},{"id":"1529230874","name":"Naadugala","lat":5.9827303,"lon":80.5488308,"type":"village"},{"id":"1529230884","name":"Puhulwella","lat":6.0406066,"lon":80.618578,"type":"village"},{"id":"1529264246","name":"Katukurunda","lat":6.5624083,"lon":79.9699876,"type":"town"},{"id":"1533923903","name":"Kawdana","lat":6.8445317,"lon":79.8747511,"type":"village"},{"id":"1534183371","name":"Ambanpola","lat":7.9196719,"lon":80.239316,"type":"town"},{"id":"1535410542","name":"Werella","lat":7.6740048,"lon":80.2322102,"type":"village"},{"id":"1535431768","name":"Serumunawewa","lat":7.8648832,"lon":80.2400637,"type":"village"},{"id":"1535455763","name":"Kaasikote","lat":7.9404082,"lon":80.2451354,"type":"village"},{"id":"1535455787","name":"Mahagalkadawala","lat":8.0599555,"lon":80.2821909,"type":"village"},{"id":"1536641429","name":"Katupitigama","lat":7.89283,"lon":80.2154327,"type":"village"},{"id":"1536641432","name":"Udadiwulwewa","lat":7.9191458,"lon":80.1943159,"type":"village"},{"id":"1536641434","name":"Walaliya","lat":7.8638842,"lon":80.2109671,"type":"village"},{"id":"1536641439","name":"Bakmeewewa","lat":7.8917832,"lon":80.1801185,"type":"village"},{"id":"1536648877","name":"Uduweriya","lat":7.8507904,"lon":80.2451277,"type":"village"},{"id":"1536648880","name":"Dethewa","lat":7.8933013,"lon":80.2483892,"type":"village"},{"id":"1536648881","name":"Nikaweratiya","lat":7.750383,"lon":80.1157229,"type":"town"},{"id":"1536648882","name":"Nagala","lat":7.8375261,"lon":80.1934576,"type":"village"},{"id":"1536648886","name":"Ihakolagama","lat":7.7687081,"lon":80.1447903,"type":"village"},{"id":"1536695366","name":"Ibbagamuwa","lat":7.5479128,"lon":80.4496417,"type":"town"},{"id":"1536695369","name":"Mælsiripura","lat":7.6427647,"lon":80.5093145,"type":"town"},{"id":"1578215204","name":"Baddegama","lat":6.1724812,"lon":80.1779163,"type":"village"},{"id":"1606175319","name":"Bentota","lat":6.4215276,"lon":79.9978544,"type":"town"},{"id":"1614298232","name":"Aluthgama","lat":6.4326494,"lon":79.9988986,"type":"town"},{"id":"1639373029","name":"Beliatte","lat":6.0492655,"lon":80.7347526,"type":"town"},{"id":"1662568250","name":"Angunakolapelessa","lat":6.4492224,"lon":81.0264399,"type":"village"},{"id":"1700567438","name":"Turkish Village Midigama","lat":5.9785353,"lon":80.3994815,"type":"village"},{"id":"1706426811","name":"Siruppiddy","lat":9.7331734,"lon":80.0941915,"type":"village"},{"id":"1712640599","name":"Kalupahana","lat":6.7660433,"lon":80.8495244,"type":"village"},{"id":"1720491052","name":"Badalkumbura","lat":6.8952411,"lon":81.2359813,"type":"town"},{"id":"1720491067","name":"Buttala","lat":6.7619728,"lon":81.2465378,"type":"town"},{"id":"1721048205","name":"Buduruwagala","lat":6.6901818,"lon":81.107521,"type":"village"},{"id":"1722822878","name":"Kumbukkana","lat":6.8078952,"lon":81.2979217,"type":"village"},{"id":"1722822879","name":"Maligawila","lat":6.7252077,"lon":81.3537594,"type":"village"},{"id":"1723290057","name":"Udawalawe","lat":6.4241386,"lon":80.8172144,"type":"town"},{"id":"1723302619","name":"Madampe","lat":6.5339401,"lon":80.5931448,"type":"town"},{"id":"1723302622","name":"Tiruwanaketiya","lat":6.6653628,"lon":80.4317733,"type":"village"},{"id":"1723384697","name":"Tissamaharama","lat":6.2770724,"lon":81.2892814,"type":"town"},{"id":"1725053934","name":"Thandiyadi","lat":7.0605581,"lon":81.8345535,"type":"village"},{"id":"1725053935","name":"Thirukkovil","lat":7.11554,"lon":81.8517011,"type":"village"},{"id":"1725061614","name":"Kalkudah","lat":7.9156649,"lon":81.5603565,"type":"village"},{"id":"1727645733","name":"Rattota","lat":7.5206092,"lon":80.677573,"type":"town"},{"id":"1728308112","name":"Rotawewa","lat":8.5953845,"lon":80.9149848,"type":"village"},{"id":"1729302889","name":"Handapanagala","lat":6.6568558,"lon":81.1309067,"type":"village"},{"id":"1729302890","name":"Uva Kuda Oya","lat":6.5234139,"lon":81.1242206,"type":"village"},{"id":"1729302900","name":"Nugayaya","lat":6.7049289,"lon":81.1087149,"type":"village"},{"id":"1729302903","name":"Thelulla","lat":6.6009078,"lon":81.1394342,"type":"village"},{"id":"1729302906","name":"Uva Pelwatte","lat":6.7466664,"lon":81.1935855,"type":"village"},{"id":"1729302908","name":"Veherayaya","lat":6.6433348,"lon":81.1180043,"type":"village"},{"id":"1729302909","name":"Warunagama","lat":6.7328459,"lon":81.1341191,"type":"village"},{"id":"1729302925","name":"Yalabowa","lat":6.7202853,"lon":81.104213,"type":"village"},{"id":"1730326811","name":"Sinthupuram","lat":9.7466655,"lon":79.9532657,"type":"village"},{"id":"1730339960","name":"Kolambage Ara","lat":6.4339439,"lon":80.7682555,"type":"village"},{"id":"1731515014","name":"Kalladiya","lat":7.9928315,"lon":79.8971539,"type":"village"},{"id":"1731515234","name":"Madurankuliya","lat":7.9053801,"lon":79.8220149,"type":"town"},{"id":"1731515457","name":"Galkulama","lat":7.9730199,"lon":79.9164978,"type":"village"},{"id":"1731568993","name":"Anamaduwa","lat":7.8776367,"lon":80.0109366,"type":"town"},{"id":"1733717462","name":"Dedigama","lat":7.2073472,"lon":80.2634399,"type":"village"},{"id":"1733768118","name":"Warakapola","lat":7.2249609,"lon":80.1965392,"type":"town"},{"id":"1733768477","name":"Mahapallegama","lat":7.1774151,"lon":80.26241,"type":"village"},{"id":"1739426106","name":"Wellawaya","lat":6.7317804,"lon":81.1018359,"type":"town"},{"id":"1739955377","name":"Seeppukulama","lat":8.380412,"lon":80.5876922,"type":"village"},{"id":"1740742132","name":"Horowpotana","lat":8.5496687,"lon":80.8321271,"type":"town"},{"id":"1745481386","name":"Dikwella","lat":5.964618,"lon":80.6946513,"type":"town"},{"id":"1745481398","name":"Hunnadeniya","lat":5.962348,"lon":80.6555753,"type":"village"},{"id":"1745511873","name":"Galge","lat":6.54039,"lon":81.3048517,"type":"village"},{"id":"1745524916","name":"Pallebedda","lat":6.4818813,"lon":80.7076416,"type":"town"},{"id":"1745540310","name":"Idangoda","lat":6.7313377,"lon":80.2785668,"type":"village"},{"id":"1745540314","name":"Kahawatta","lat":6.5831751,"lon":80.573265,"type":"town"},{"id":"1745540317","name":"Lellopitiya","lat":6.6631304,"lon":80.4825972,"type":"village"},{"id":"1745548902","name":"Ingiriya","lat":6.7437564,"lon":80.1766773,"type":"town"},{"id":"1745548912","name":"Poruwadanda","lat":6.7376359,"lon":80.119583,"type":"village"},{"id":"1752796346","name":"Ohiya","lat":6.819676,"lon":80.8465729,"type":"village"},{"id":"1783925992","name":"Hunnasgiriya","lat":7.2972586,"lon":80.8518127,"type":"town"},{"id":"1783976655","name":"Mahiyanganaya","lat":7.3401663,"lon":80.993126,"type":"town"},{"id":"1788271749","name":"Meegoda","lat":6.8441085,"lon":80.0460308,"type":"town"},{"id":"1788410986","name":"Induruwa","lat":6.3739739,"lon":80.0105559,"type":"town"},{"id":"1788450007","name":"Karandeniya","lat":6.2706811,"lon":80.0911885,"type":"town"},{"id":"1789585967","name":"Polwatte Junction","lat":6.3530575,"lon":80.2176357,"type":"village"},{"id":"1790041446","name":"Dummaladeniya","lat":7.2209061,"lon":80.1888661,"type":"village"},{"id":"1792701998","name":"Kellapatha Junction","lat":6.312202,"lon":80.2126314,"type":"village"},{"id":"1792916650","name":"Mapalagama","lat":6.221984,"lon":80.2856003,"type":"town"},{"id":"1796819714","name":"Moragahahena","lat":6.7844301,"lon":80.0551878,"type":"village"},{"id":"1796922858","name":"Govinna","lat":6.675212,"lon":80.1182895,"type":"village"},{"id":"1796923027","name":"Thebuwana","lat":6.5936816,"lon":80.05489,"type":"village"},{"id":"1796923177","name":"Bulathsinhala","lat":6.6498951,"lon":80.1780249,"type":"town"},{"id":"1796923201","name":"Warakagoda","lat":6.616805,"lon":80.1021446,"type":"village"},{"id":"1805745147","name":"Karawanella","lat":7.0239285,"lon":80.2629202,"type":"town"},{"id":"1805745169","name":"Dehiowita","lat":6.9665597,"lon":80.2659166,"type":"town"},{"id":"1805745280","name":"Magammana","lat":7.0102862,"lon":80.2624481,"type":"village"},{"id":"1805745304","name":"Ruwanwella","lat":7.0458636,"lon":80.2537792,"type":"town"},{"id":"1805791970","name":"Urapola","lat":7.0978173,"lon":80.1447522,"type":"village"},{"id":"1809578921","name":"Yatiyantota","lat":7.0289554,"lon":80.2950276,"type":"town"},{"id":"1809637891","name":"Nugawela","lat":7.3283292,"lon":80.5876229,"type":"village"},{"id":"1809677746","name":"Halloluwa","lat":7.2907251,"lon":80.6070953,"type":"village"},{"id":"1813587330","name":"Sudugala","lat":5.9341422,"lon":80.5998587,"type":"village"},{"id":"1813587947","name":"Talalla","lat":5.9482175,"lon":80.627464,"type":"village"},{"id":"1814571480","name":"Padalangala","lat":6.2536678,"lon":80.9133142,"type":"town"},{"id":"1814571533","name":"Embilipitiya","lat":6.3340647,"lon":80.8538325,"type":"town"},{"id":"1814571596","name":"Meegahajandura","lat":6.3686266,"lon":81.029452,"type":"village"},{"id":"1818516404","name":"Ridiyagama","lat":6.1877995,"lon":80.981816,"type":"village"},{"id":"1818567146","name":"Ganegoda","lat":6.160045,"lon":80.9740805,"type":"village"},{"id":"1818567298","name":"Mahapelessa","lat":6.2476556,"lon":80.9841334,"type":"village"},{"id":"1818583229","name":"Angunukolapelessa","lat":6.166936,"lon":80.8976735,"type":"town"},{"id":"1818771605","name":"Diyatalawa","lat":6.8069617,"lon":80.9572225,"type":"town"},{"id":"1819856065","name":"Bandarawela","lat":6.8304821,"lon":80.9888204,"type":"town"},{"id":"1819856580","name":"Ettampitiya","lat":6.9369633,"lon":80.9895727,"type":"town"},{"id":"1820038174","name":"Boralande","lat":6.8302749,"lon":80.8954065,"type":"town"},{"id":"1822512017","name":"Kalutara","lat":6.5852614,"lon":79.963301,"type":"city"},{"id":"1822570013","name":"Nagoda","lat":6.5690331,"lon":79.9886982,"type":"town"},{"id":"1825443197","name":"Nedimala","lat":6.8499045,"lon":79.8791135,"type":"village"},{"id":"1827254732","name":"Maggona","lat":6.5038044,"lon":79.9812833,"type":"village"},{"id":"1827277942","name":"Beruwala","lat":6.4755855,"lon":79.9834066,"type":"town"},{"id":"1829374908","name":"Rathmalvinna","lat":6.6741251,"lon":80.7212554,"type":"village"},{"id":"1830417760","name":"Norwood","lat":6.8389314,"lon":80.6122237,"type":"town"},{"id":"1830417762","name":"Maskeliya","lat":6.8338713,"lon":80.5720298,"type":"town"},{"id":"1830446549","name":"Ambatenna","lat":6.8722247,"lon":80.6131302,"type":"village"},{"id":"1830490033","name":"Mahara","lat":7.1617138,"lon":80.5743643,"type":"village"},{"id":"1830490058","name":"Gampola","lat":7.1636487,"lon":80.5702744,"type":"town"},{"id":"1831898259","name":"Hemmathagama","lat":7.1738895,"lon":80.4998611,"type":"town"},{"id":"1831930947","name":"Kurunduwatte","lat":7.1272283,"lon":80.5297704,"type":"town"},{"id":"1831954075","name":"Ulapane","lat":7.1055883,"lon":80.5639046,"type":"village"},{"id":"1831954178","name":"Ethgala","lat":7.1326008,"lon":80.5686672,"type":"village"},{"id":"1834947923","name":"Hapugastalawa","lat":7.0556488,"lon":80.572708,"type":"village"},{"id":"1834957969","name":"Kumbaloluwa","lat":7.0307244,"lon":80.6576239,"type":"village"},{"id":"1834958038","name":"Kalapitiya","lat":7.0474261,"lon":80.648349,"type":"village"},{"id":"1834981287","name":"Niyamgamdora","lat":7.0477754,"lon":80.6641995,"type":"village"},{"id":"1835004527","name":"Tawalantenna","lat":7.0683414,"lon":80.6860207,"type":"village"},{"id":"1835802068","name":"Valvettithurai","lat":9.822013,"lon":80.1695508,"type":"town"},{"id":"1835809122","name":"Elephant Pass","lat":9.5248985,"lon":80.4055256,"type":"town"},{"id":"1835809125","name":"Poonakary","lat":9.5043102,"lon":80.2124126,"type":"town"},{"id":"1835820775","name":"Punewa","lat":8.6118307,"lon":80.4705353,"type":"village"},{"id":"1836349874","name":"Poojapitiya","lat":7.3784973,"lon":80.586694,"type":"village"},{"id":"1837177540","name":"Karuwalagaswewa","lat":8.0571301,"lon":79.9609197,"type":"town"},{"id":"1837177541","name":"Saliyawewa","lat":8.190668,"lon":80.091275,"type":"town"},{"id":"1837181383","name":"Katuneriya","lat":7.3654796,"lon":79.8328992,"type":"village"},{"id":"1837181385","name":"Wennappuwa","lat":7.3426407,"lon":79.8413079,"type":"town"},{"id":"1837184844","name":"Wattala","lat":6.9898705,"lon":79.8927094,"type":"town"},{"id":"1840965415","name":"Andarawewa","lat":6.3007052,"lon":81.0823532,"type":"village"},{"id":"1840965422","name":"Mattala","lat":6.3064347,"lon":81.1122052,"type":"village"},{"id":"1840965425","name":"Uda Mattala","lat":6.3345408,"lon":81.1327002,"type":"village"},{"id":"1840968230","name":"Koholankala","lat":6.1542312,"lon":81.144172,"type":"village"},{"id":"1840968232","name":"Sippukulama","lat":6.145104,"lon":81.1223754,"type":"village"},{"id":"1840968235","name":"Andella","lat":6.2380549,"lon":81.2304058,"type":"village"},{"id":"1840977981","name":"Dedduwawala","lat":6.0062427,"lon":80.720263,"type":"village"},{"id":"1841025826","name":"Yainna","lat":6.5680733,"lon":80.5758105,"type":"village"},{"id":"1841029618","name":"Kiriella","lat":6.7379565,"lon":80.27308,"type":"town"},{"id":"1841029620","name":"Nambapana","lat":6.7384164,"lon":80.1837348,"type":"village"},{"id":"1841033463","name":"Wadduwa","lat":6.6639728,"lon":79.9305102,"type":"town"},{"id":"1841053417","name":"Miriswatte","lat":6.7973217,"lon":79.9307888,"type":"village"},{"id":"1843491184","name":"Hanwella","lat":6.9088363,"lon":80.0817106,"type":"town"},{"id":"1843491273","name":"Kanduboda","lat":6.9818606,"lon":80.0206662,"type":"village"},{"id":"1843491276","name":"Delgoda","lat":6.9870574,"lon":80.0133277,"type":"town"},{"id":"1843491294","name":"Dekatana","lat":6.9699755,"lon":80.0428109,"type":"town"},{"id":"1847947560","name":"Ballapana","lat":7.2025739,"lon":79.9967719,"type":"village"},{"id":"1848019758","name":"Nattandiya","lat":7.4118752,"lon":79.8652073,"type":"town"},{"id":"1848166524","name":"Koswatte Junction","lat":7.4153273,"lon":79.8892046,"type":"village"},{"id":"1848166695","name":"Welipannagahamula","lat":7.431636,"lon":79.9273645,"type":"village"},{"id":"1854231416","name":"Kadukanna","lat":6.0324525,"lon":80.4981458,"type":"village"},{"id":"1854630224","name":"Kosgama","lat":6.9406343,"lon":80.1370564,"type":"town"},{"id":"1854630227","name":"Pugoda","lat":6.9758255,"lon":80.1203623,"type":"town"},{"id":"1854653001","name":"Meepe","lat":6.8586575,"lon":80.0913569,"type":"town"},{"id":"1854653007","name":"Embulgama","lat":6.9090619,"lon":80.0539537,"type":"village"},{"id":"1854653011","name":"Suduwella","lat":6.9239558,"lon":80.1102193,"type":"village"},{"id":"1855232234","name":"Uthuwankanda","lat":7.2516381,"lon":80.4232674,"type":"village"},{"id":"1855232333","name":"Karandupana","lat":7.2530429,"lon":80.3768417,"type":"village"},{"id":"1855296052","name":"Molagoda","lat":7.2567529,"lon":80.3964029,"type":"village"},{"id":"1855349748","name":"Daulagala","lat":7.2265148,"lon":80.5774149,"type":"town"},{"id":"1856813098","name":"Udukumbura","lat":7.2314906,"lon":80.2439616,"type":"village"},{"id":"1856813219","name":"Thulhiriya","lat":7.2791971,"lon":80.2239914,"type":"village"},{"id":"1862711686","name":"Boralugoda","lat":6.9609641,"lon":80.13099,"type":"village"},{"id":"1874159258","name":"Panama","lat":6.7556593,"lon":81.8048928,"type":"town"},{"id":"1874239095","name":"Akkaraipattu","lat":7.2140576,"lon":81.8482489,"type":"town"},{"id":"1874239303","name":"Pottuvil","lat":6.8732418,"lon":81.8300476,"type":"town"},{"id":"1874239446","name":"Arugam Bay","lat":6.8468506,"lon":81.8306961,"type":"village"},{"id":"1877296501","name":"Ampara","lat":7.2978118,"lon":81.6790194,"type":"city"},{"id":"1877296678","name":"Addalaichchenai","lat":7.2507668,"lon":81.8543368,"type":"village"},{"id":"1877384735","name":"Wadinagala","lat":7.1298569,"lon":81.5706495,"type":"village"},{"id":"1877384841","name":"Inginiyagala","lat":7.2194056,"lon":81.5448535,"type":"village"},{"id":"1877385005","name":"Damana","lat":7.2051223,"lon":81.6524251,"type":"village"},{"id":"1877385081","name":"Sammanturai","lat":7.357955,"lon":81.7962578,"type":"town"},{"id":"1877385126","name":"Hingurana","lat":7.2271423,"lon":81.6746125,"type":"town"},{"id":"1880354572","name":"Kaluwanchikudy","lat":7.5174967,"lon":81.7871283,"type":"town"},{"id":"1880380923","name":"Karadiyanaru","lat":7.7024356,"lon":81.537165,"type":"village"},{"id":"1880414067","name":"Toppur","lat":8.4043359,"lon":81.3123381,"type":"village"},{"id":"1880414086","name":"Ganewalpola","lat":8.0922701,"lon":80.6295957,"type":"village"},{"id":"1880414110","name":"Kekirawa","lat":8.0407932,"lon":80.5970669,"type":"town"},{"id":"1880414146","name":"Valaichchenai","lat":7.9090822,"lon":81.5331218,"type":"town"},{"id":"1880414149","name":"Maradankadawala","lat":8.1271305,"lon":80.5630768,"type":"town"},{"id":"1880458265","name":"Sewanapitiya","lat":7.9216525,"lon":81.1828638,"type":"village"},{"id":"1880627994","name":"Mihintale","lat":8.3583002,"lon":80.5121579,"type":"town"},{"id":"1881982344","name":"Kebitigollewa","lat":8.6408406,"lon":80.6698267,"type":"town"},{"id":"1881982709","name":"Kahatagasdigiliya","lat":8.42648,"lon":80.6881685,"type":"town"},{"id":"1882011315","name":"Kuchchaveli","lat":8.818264,"lon":81.0996219,"type":"village"},{"id":"1882011483","name":"Irakkandi","lat":8.7249293,"lon":81.1735403,"type":"village"},{"id":"1886444959","name":"Padaviya","lat":8.8339506,"lon":80.7709729,"type":"town"},{"id":"1886444964","name":"Sripura Colony","lat":8.8911776,"lon":80.7690395,"type":"village"},{"id":"1886556944","name":"Soranapattu","lat":9.5890641,"lon":80.3644981,"type":"village"},{"id":"1886574306","name":"Karainagar","lat":9.7404431,"lon":79.8850371,"type":"town"},{"id":"1886574426","name":"Kayts","lat":9.6923229,"lon":79.8673045,"type":"town"},{"id":"1886592081","name":"Kiriyankalli","lat":7.76472,"lon":79.8289816,"type":"village"},{"id":"1886592110","name":"Mannar","lat":8.9812896,"lon":79.9043942,"type":"city"},{"id":"1887817326","name":"Dummalasuriya","lat":7.4924854,"lon":79.9162818,"type":"village"},{"id":"1889384155","name":"Lunuwila","lat":7.3486782,"lon":79.8623799,"type":"village"},{"id":"1889384164","name":"Thummodara","lat":7.3910794,"lon":79.8606526,"type":"village"},{"id":"1889406410","name":"Poruthota","lat":7.261352,"lon":79.8428964,"type":"village"},{"id":"1889406413","name":"Ettukala","lat":7.2352162,"lon":79.8415147,"type":"village"},{"id":"1896024292","name":"Kandana","lat":7.0494955,"lon":79.8982002,"type":"town"},{"id":"1902018019","name":"Enderamulla","lat":6.9963743,"lon":79.9162626,"type":"village"},{"id":"1909544555","name":"Mulgama","lat":7.1545759,"lon":80.6709549,"type":"village"},{"id":"1909549007","name":"Galaha","lat":7.1974996,"lon":80.6696477,"type":"village"},{"id":"1909757113","name":"Pamunugama","lat":7.0925656,"lon":79.850131,"type":"village"},{"id":"1924765777","name":"Kelaniya","lat":6.9501246,"lon":79.9172715,"type":"town"},{"id":"1924902306","name":"Mallawapitiya","lat":7.4738033,"lon":80.3903845,"type":"village"},{"id":"1924902377","name":"Mawathagama","lat":7.4329884,"lon":80.4464094,"type":"town"},{"id":"1924916030","name":"Elahera","lat":7.7325173,"lon":80.7917091,"type":"village"},{"id":"1924916088","name":"Bakamuna","lat":7.7771846,"lon":80.8169595,"type":"town"},{"id":"1931843075","name":"Sooriyakanda","lat":6.4387656,"lon":80.6354945,"type":"town"},{"id":"1932027698","name":"Walasmulla","lat":6.1558503,"lon":80.6979578,"type":"town"},{"id":"1932060660","name":"Hakmana","lat":6.083926,"lon":80.6449735,"type":"town"},{"id":"1933478723","name":"Katuwana","lat":6.2647248,"lon":80.6910109,"type":"town"},{"id":"1933478883","name":"Middeniya","lat":6.2514944,"lon":80.7643027,"type":"town"},{"id":"1933478890","name":"Karametiya Junction","lat":6.2425683,"lon":80.6716346,"type":"village"},{"id":"1933478972","name":"Kirama","lat":6.2075905,"lon":80.6671231,"type":"village"},{"id":"1941159276","name":"Dampe","lat":6.8210349,"lon":80.0498181,"type":"village"},{"id":"1941205796","name":"Thiththagalla","lat":6.0164601,"lon":80.3549837,"type":"village"},{"id":"1941205815","name":"Ahangama","lat":5.9735163,"lon":80.3622999,"type":"town"},{"id":"1941205822","name":"Midigama","lat":5.9652216,"lon":80.3909468,"type":"village"},{"id":"1944069983","name":"Hiripitiya","lat":7.0544558,"lon":80.0672005,"type":"village"},{"id":"1945604754","name":"Pelgahathenna","lat":6.9448013,"lon":81.1259638,"type":"village"},{"id":"1945604886","name":"Badulla","lat":6.9900353,"lon":81.0570315,"type":"city"},{"id":"1945644436","name":"Passara","lat":6.9354004,"lon":81.1569928,"type":"town"},{"id":"1945700048","name":"Lunugala","lat":7.0419405,"lon":81.2021768,"type":"town"},{"id":"1958205781","name":"Manampita","lat":6.2611406,"lon":80.2643054,"type":"village"},{"id":"1965378017","name":"Kithal Ella","lat":6.8653,"lon":81.0362503,"type":"village"},{"id":"1969575236","name":"Kekulanda","lat":6.546576,"lon":80.1624869,"type":"village"},{"id":"1969575295","name":"Dapiligoda","lat":6.5330177,"lon":80.1754474,"type":"village"},{"id":"1973275907","name":"Depanama","lat":6.856603,"lon":79.945244,"type":"village"},{"id":"1974499447","name":"Nawalapitiya","lat":7.0558938,"lon":80.5350145,"type":"town"},{"id":"1974536022","name":"Angunuwaragala","lat":7.4268889,"lon":80.9897258,"type":"village"},{"id":"1974676458","name":"Girandurukotte","lat":7.4701979,"lon":81.0148572,"type":"town"},{"id":"1974709637","name":"Dehigolla","lat":7.3370727,"lon":81.0262838,"type":"village"},{"id":"1974713688","name":"Beligalla","lat":7.3861293,"lon":81.073926,"type":"village"},{"id":"1974719559","name":"Diyawiddagama","lat":7.5415989,"lon":81.0343774,"type":"village"},{"id":"1974722612","name":"Sandunpura","lat":7.6280126,"lon":81.0483516,"type":"village"},{"id":"1974740794","name":"Siripura","lat":7.7292933,"lon":81.0166518,"type":"village"},{"id":"1974745059","name":"Dimbulagala","lat":7.8589687,"lon":81.1069232,"type":"village"},{"id":"1974755458","name":"Aralaganwila","lat":7.782607,"lon":81.184693,"type":"town"},{"id":"1975993021","name":"Padiyatalawa","lat":7.4002002,"lon":81.2424642,"type":"town"},{"id":"1976086750","name":"Kaluachchigama","lat":7.8338053,"lon":80.0511017,"type":"village"},{"id":"1976141592","name":"Kobeigane","lat":7.6558352,"lon":80.1264573,"type":"town"},{"id":"1976165108","name":"Hettipola","lat":7.6055725,"lon":80.078758,"type":"town"},{"id":"1976172945","name":"Munamaldeniya","lat":7.5477119,"lon":80.0582622,"type":"village"},{"id":"1976181047","name":"Kadawalagedara","lat":7.516202,"lon":80.0506559,"type":"village"},{"id":"1976198826","name":"Bowatta","lat":7.5986864,"lon":79.9619644,"type":"town"},{"id":"1976202073","name":"Kuliyapitiya","lat":7.4701428,"lon":80.0440349,"type":"town"},{"id":"1978104392","name":"Madagama","lat":7.5331899,"lon":79.8776036,"type":"village"},{"id":"1979375847","name":"Nakkala","lat":6.8900462,"lon":81.2985758,"type":"town"},{"id":"1979375865","name":"Bibile","lat":7.1600897,"lon":81.2254141,"type":"town"},{"id":"1981159940","name":"Rambewa","lat":8.4415315,"lon":80.5065701,"type":"town"},{"id":"1981249135","name":"Weligalla","lat":7.1897084,"lon":80.5926517,"type":"town"},{"id":"1982491517","name":"Boossa","lat":6.0717372,"lon":80.1630556,"type":"village"},{"id":"1982631153","name":"Rumassala","lat":6.0152758,"lon":80.2386402,"type":"village"},{"id":"1985676634","name":"Siyambalagoda","lat":6.212147,"lon":80.9316417,"type":"village"},{"id":"1985676702","name":"Eraminiyaya","lat":6.1624062,"lon":80.9010859,"type":"village"},{"id":"1985788725","name":"Rakwana","lat":6.4750056,"lon":80.6115649,"type":"town"},{"id":"1994693288","name":"Kalawana","lat":6.5310929,"lon":80.3964775,"type":"town"},{"id":"1994770491","name":"Baduraliya","lat":6.5173375,"lon":80.2305795,"type":"town"},{"id":"1994857187","name":"Opanayake","lat":6.6085302,"lon":80.6229237,"type":"town"},{"id":"1994857640","name":"Nivithigala","lat":6.5959109,"lon":80.4577939,"type":"town"},{"id":"1994857682","name":"Molkawa","lat":6.6110603,"lon":80.2333251,"type":"village"},{"id":"1994857934","name":"Udawela","lat":6.6102693,"lon":80.6387198,"type":"village"},{"id":"1994926599","name":"Nikagoda","lat":6.5404546,"lon":80.3641863,"type":"village"},{"id":"1994926600","name":"Kukulegama","lat":6.534264,"lon":80.354134,"type":"village"},{"id":"1994926601","name":"Palawela","lat":6.6457806,"lon":80.3535971,"type":"village"},{"id":"1994926602","name":"Karawita","lat":6.5885695,"lon":80.4161366,"type":"town"},{"id":"1998324379","name":"Diyagama","lat":6.8103766,"lon":79.9953639,"type":"village"},{"id":"1998339772","name":"Kiriwattuduwa","lat":6.7998511,"lon":80.0201797,"type":"village"},{"id":"2001986955","name":"Meegaswatta","lat":7.3831794,"lon":81.2282732,"type":"village"},{"id":"2001999444","name":"Palthuruella EP","lat":7.4682568,"lon":81.290239,"type":"village"},{"id":"2001999455","name":"Pallegama EP","lat":7.4422593,"lon":81.262475,"type":"village"},{"id":"2001999522","name":"Maha Oya","lat":7.5305913,"lon":81.3568582,"type":"town"},{"id":"2002048241","name":"Tumpalancholai","lat":7.6227116,"lon":81.499794,"type":"village"},{"id":"2002177662","name":"Rukamputur","lat":7.6593298,"lon":81.4921212,"type":"village"},{"id":"2002187462","name":"Illipaiyadichchenai","lat":7.7210109,"lon":81.5458858,"type":"village"},{"id":"2011981297","name":"Hali-Ela","lat":6.9551692,"lon":81.0322528,"type":"town"},{"id":"2015265416","name":"Thunthota","lat":7.1931586,"lon":80.2648419,"type":"village"},{"id":"2015265418","name":"Kannattota","lat":7.0796524,"lon":80.2769066,"type":"village"},{"id":"2015265461","name":"Pitagaldeniya","lat":7.1927577,"lon":80.3000159,"type":"village"},{"id":"2015279495","name":"Kotiyakumbura","lat":7.123942,"lon":80.2873565,"type":"town"},{"id":"2017450858","name":"Ginnaliya","lat":6.322102,"lon":80.6547326,"type":"village"},{"id":"2017450880","name":"Urubokka","lat":6.3075623,"lon":80.6313477,"type":"town"},{"id":"2021504901","name":"Uggoda","lat":7.153314,"lon":80.4633296,"type":"village"},{"id":"2021504995","name":"Tellake","lat":7.1579604,"lon":80.4808828,"type":"village"},{"id":"2021573963","name":"Gurugalla","lat":6.9914862,"lon":80.2175215,"type":"village"},{"id":"2021573974","name":"Talduwa","lat":6.9585541,"lon":80.2218436,"type":"village"},{"id":"2021648882","name":"Giridara WP","lat":6.947625,"lon":80.0941525,"type":"village"},{"id":"2024829217","name":"Ganewatta","lat":7.6557665,"lon":80.3491357,"type":"village"},{"id":"2024849122","name":"Hiripitiya","lat":7.656862,"lon":80.3692493,"type":"town"},{"id":"2024849232","name":"Kumbukgate","lat":7.6760968,"lon":80.424747,"type":"town"},{"id":"2035855682","name":"Kandapola","lat":6.997133,"lon":80.8230259,"type":"village"},{"id":"2035867651","name":"Ragala","lat":7.0118204,"lon":80.8573123,"type":"town"},{"id":"2035867758","name":"Brookside","lat":7.0173156,"lon":80.843017,"type":"village"},{"id":"2035876081","name":"Maviththara","lat":6.8039654,"lon":79.9405569,"type":"village"},{"id":"2035882234","name":"Padiyapelella","lat":7.0911507,"lon":80.7990298,"type":"town"},{"id":"2045796384","name":"Hiripitiya","lat":6.8299587,"lon":79.9788586,"type":"village"},{"id":"2049684415","name":"Loggal Oya","lat":7.2098174,"lon":81.0131808,"type":"village"},{"id":"2050947471","name":"Jaffna","lat":9.665093,"lon":80.0093029,"type":"city"},{"id":"2051197997","name":"Sigiriya","lat":7.9498094,"lon":80.7463471,"type":"village"},{"id":"2051234917","name":"Illukkumbura","lat":7.5467739,"lon":80.7713232,"type":"village"},{"id":"2051321104","name":"Digampathaha","lat":7.9840645,"lon":80.7207999,"type":"village"},{"id":"2051345887","name":"Pasikudah Bay","lat":7.935994,"lon":81.534944,"type":"village"},{"id":"2051354272","name":"Chenkaladi","lat":7.7854281,"lon":81.5912809,"type":"town"},{"id":"2055561682","name":"Hettipola","lat":7.5368871,"lon":80.9129994,"type":"town"},{"id":"2055561806","name":"Kolongoda","lat":7.4754429,"lon":80.9422226,"type":"village"},{"id":"2055561816","name":"Udawela CP","lat":7.4369862,"lon":80.9546895,"type":"village"},{"id":"2055565028","name":"Weragantota","lat":7.3365881,"lon":80.9836837,"type":"village"},{"id":"2055565043","name":"Hasalaka","lat":7.3520948,"lon":80.9506061,"type":"town"},{"id":"2055570586","name":"Andaulpotha","lat":7.262485,"lon":81.0800822,"type":"village"},{"id":"2055622739","name":"Dankumbura","lat":7.2828687,"lon":81.2293343,"type":"village"},{"id":"2055642672","name":"Polwatta","lat":7.2301824,"lon":81.5617963,"type":"village"},{"id":"2059494459","name":"Nallur","lat":9.6734908,"lon":80.0290277,"type":"town"},{"id":"2059587591","name":"Kopay","lat":9.7151701,"lon":80.0668497,"type":"village"},{"id":"2064194449","name":"Negombo","lat":7.2094282,"lon":79.833117,"type":"city"},{"id":"2078581275","name":"Spring Valley","lat":6.9272169,"lon":81.0947648,"type":"village"},{"id":"2091753195","name":"Delkanda","lat":6.8630854,"lon":79.9014222,"type":"town"},{"id":"2091951428","name":"Kolonnawa","lat":6.9326254,"lon":79.8903143,"type":"city"},{"id":"2141194088","name":"Galhinna","lat":7.4184492,"lon":80.5632695,"type":"village"},{"id":"2141684777","name":"Getahetta","lat":6.9066613,"lon":80.2281422,"type":"village"},{"id":"2142229422","name":"Angurukaramulla","lat":7.2100773,"lon":79.8543058,"type":"village"},{"id":"2142229449","name":"Munnakkara","lat":7.2035899,"lon":79.8337876,"type":"village"},{"id":"2142229454","name":"Mankuliya","lat":7.2044946,"lon":79.8307406,"type":"village"},{"id":"2143494665","name":"Alawathupitiya","lat":7.1108166,"lon":79.8883008,"type":"village"},{"id":"2145161524","name":"Sella Kataragama","lat":6.438132,"lon":81.3034854,"type":"village"},{"id":"2146160317","name":"Parakaduwa","lat":6.8255749,"lon":80.3140966,"type":"village"},{"id":"2146192375","name":"Pussella","lat":6.8077387,"lon":80.3309616,"type":"village"},{"id":"2146192419","name":"Keeragala","lat":6.7963515,"lon":80.356872,"type":"village"},{"id":"2146223770","name":"Kuruwita","lat":6.7761011,"lon":80.3668957,"type":"town"},{"id":"2149942829","name":"Paradise","lat":6.759617,"lon":80.3733622,"type":"village"},{"id":"2150108387","name":"Amithagoda","lat":6.7248656,"lon":80.3769711,"type":"village"},{"id":"2151631666","name":"Palabaddala","lat":6.7863717,"lon":80.4537551,"type":"village"},{"id":"2152832446","name":"Kalviyankadu","lat":9.6812711,"lon":80.038644,"type":"village"},{"id":"2152922098","name":"Deiyandara","lat":6.1529782,"lon":80.6038444,"type":"town"},{"id":"2152922316","name":"Bamunugama","lat":6.1238991,"lon":80.5923163,"type":"village"},{"id":"2152922356","name":"Mulatiyana","lat":6.1605117,"lon":80.5844627,"type":"town"},{"id":"2152922366","name":"Horapawita","lat":6.1076414,"lon":80.5800854,"type":"village"},{"id":"2152922389","name":"Denagama - East","lat":6.1232019,"lon":80.6554096,"type":"village"},{"id":"2152922473","name":"Buluthota","lat":6.435914,"lon":80.6489699,"type":"village"},{"id":"2152922567","name":"Dela","lat":6.6215872,"lon":80.4540026,"type":"village"},{"id":"2152922614","name":"Radawela","lat":6.13646,"lon":80.6162899,"type":"village"},{"id":"2152922665","name":"Manandola","lat":6.5660853,"lon":80.5268041,"type":"village"},{"id":"2152922745","name":"Panamure","lat":6.343636,"lon":80.7723031,"type":"village"},{"id":"2152922787","name":"Watapotha","lat":6.5877523,"lon":80.5022986,"type":"village"},{"id":"2152975766","name":"Ethpitiya","lat":6.1843357,"lon":80.6834874,"type":"village"},{"id":"2155382778","name":"Pitipanaveediya","lat":7.2029179,"lon":79.8205236,"type":"village"},{"id":"2155382779","name":"Doowa","lat":7.2042604,"lon":79.8255616,"type":"village"},{"id":"2155637865","name":"Deniyaya","lat":6.3425637,"lon":80.560618,"type":"town"},{"id":"2155827282","name":"Batuwangala","lat":6.3788666,"lon":80.3721734,"type":"village"},{"id":"2155827552","name":"Kosmodara","lat":6.2913114,"lon":80.5604677,"type":"village"},{"id":"2155827560","name":"Galdola","lat":6.2793069,"lon":80.5472602,"type":"village"},{"id":"2155827571","name":"Morawaka","lat":6.2612748,"lon":80.4917496,"type":"town"},{"id":"2155827697","name":"Kotapola","lat":6.2938122,"lon":80.5441814,"type":"village"},{"id":"2155827808","name":"Neluwa","lat":6.3773432,"lon":80.360788,"type":"town"},{"id":"2164942214","name":"Hulandawa","lat":6.1904341,"lon":80.4691814,"type":"village"},{"id":"2165102278","name":"Mapalana","lat":6.0533148,"lon":80.5630802,"type":"village"},{"id":"2165128744","name":"Kamburupitiya","lat":6.0802831,"lon":80.5673834,"type":"town"},{"id":"2176728108","name":"Viharahena","lat":6.3675923,"lon":80.5944031,"type":"village"},{"id":"2176940889","name":"Pallegama","lat":6.3330346,"lon":80.5248183,"type":"village"},{"id":"2176947343","name":"Poddana","lat":6.3477381,"lon":80.4994958,"type":"village"},{"id":"2179406766","name":"Kathaluwa","lat":5.9811688,"lon":80.3402316,"type":"village"},{"id":"2185045619","name":"Pitigala","lat":6.3435755,"lon":80.2225563,"type":"town"},{"id":"2185271561","name":"Udugama","lat":6.2118289,"lon":80.3389495,"type":"town"},{"id":"2195327175","name":"Madampella","lat":7.2609735,"lon":79.9394009,"type":"village"},{"id":"2211160989","name":"Welikanda","lat":7.9472106,"lon":81.2475591,"type":"town"},{"id":"2212538178","name":"Uswatte","lat":7.0462262,"lon":79.8911171,"type":"village"},{"id":"2215848823","name":"Kurunduwaththa vilage","lat":6.0764407,"lon":80.2742724,"type":"village"},{"id":"2262022047","name":"Medirigiriya","lat":8.1423253,"lon":80.971342,"type":"town"},{"id":"2272544113","name":"Kaduruwela","lat":7.9306474,"lon":81.032735,"type":"town"},{"id":"2278165594","name":"Pulasthigama","lat":8.0419765,"lon":81.0781663,"type":"village"},{"id":"2278210758","name":"Sungavila","lat":8.0710223,"lon":81.0888683,"type":"village"},{"id":"2278214430","name":"Tambala","lat":8.0045129,"lon":81.0544921,"type":"village"},{"id":"2278214435","name":"Palugasdamana","lat":7.9545876,"lon":81.0252356,"type":"village"},{"id":"2304485476","name":"Dalukana","lat":7.8827124,"lon":81.1390895,"type":"village"},{"id":"2304546463","name":"Dehiattakandiya","lat":7.6714995,"lon":81.0408922,"type":"town"},{"id":"2306122120","name":"Ududumbara","lat":7.3189577,"lon":80.8781956,"type":"town"},{"id":"2312470927","name":"Nawanagala","lat":7.3102423,"lon":80.8640509,"type":"village"},{"id":"2315533328","name":"Medamahanuwara","lat":7.2891288,"lon":80.8172463,"type":"town"},{"id":"2322904383","name":"Udakekulawala","lat":7.2807366,"lon":80.2067816,"type":"village"},{"id":"2322904780","name":"Bujjomuwa","lat":7.2756714,"lon":80.2101987,"type":"village"},{"id":"2322906432","name":"Siyambalapitiya","lat":7.2863777,"lon":80.205381,"type":"village"},{"id":"2322906433","name":"Abbowa","lat":7.2944657,"lon":80.2064109,"type":"village"},{"id":"2334131711","name":"Moragahamula","lat":7.2789761,"lon":80.8085184,"type":"village"},{"id":"2334155481","name":"Wellethota","lat":7.2972487,"lon":80.7728987,"type":"village"},{"id":"2334155482","name":"Teldeniya","lat":7.309641,"lon":80.764946,"type":"town"},{"id":"2334155509","name":"Pahurugolla","lat":7.2899163,"lon":80.7828068,"type":"village"},{"id":"2334155536","name":"Wegala","lat":7.2884025,"lon":80.7996909,"type":"village"},{"id":"2334261043","name":"Digana","lat":7.2964937,"lon":80.7334168,"type":"town"},{"id":"2334261103","name":"Menikhinna","lat":7.3157156,"lon":80.7018465,"type":"town"},{"id":"2335072251","name":"Henagahawela","lat":7.2868461,"lon":80.7641493,"type":"village"},{"id":"2335072273","name":"Maberiyatenna","lat":7.2705989,"lon":80.7641004,"type":"village"},{"id":"2337934151","name":"Gevilipitiya","lat":7.1839564,"lon":80.4541023,"type":"village"},{"id":"2337934863","name":"Polambegoda","lat":7.1984805,"lon":80.4585104,"type":"village"},{"id":"2337935637","name":"Ussapitiya","lat":7.2161454,"lon":80.4544425,"type":"village"},{"id":"2342986413","name":"Gangasirigama","lat":7.3241453,"lon":80.7452129,"type":"village"},{"id":"2342986416","name":"Gonawala","lat":7.3107158,"lon":80.7331913,"type":"village"},{"id":"2343120886","name":"Kirimetiya","lat":7.3049673,"lon":80.6875765,"type":"village"},{"id":"2343202733","name":"Pilawala","lat":7.3052546,"lon":80.6787676,"type":"village"},{"id":"2343202762","name":"Keheliyagam","lat":7.3115736,"lon":80.6840269,"type":"village"},{"id":"2347272772","name":"Kapugoda","lat":6.9508917,"lon":80.0959528,"type":"village"},{"id":"2361348766","name":"Debathgama","lat":7.1723547,"lon":80.4214222,"type":"village"},{"id":"2361348843","name":"Alapalawala","lat":7.1757525,"lon":80.3844313,"type":"village"},{"id":"2363317851","name":"Makehelwala","lat":7.2792607,"lon":80.4564565,"type":"village"},{"id":"2370154600","name":"Pamburugoda","lat":6.0418594,"lon":80.3877486,"type":"village"},{"id":"2370162928","name":"Indigahadeniya","lat":6.038241,"lon":80.3904049,"type":"village"},{"id":"2382094322","name":"Talatuoya","lat":7.2515055,"lon":80.6903642,"type":"town"},{"id":"2383121120","name":"Nochchiyagama","lat":8.2640142,"lon":80.2105099,"type":"town"},{"id":"2383121121","name":"Maragahawewa","lat":8.2439839,"lon":80.1460242,"type":"village"},{"id":"2383121122","name":"Kala Oya","lat":8.2099112,"lon":80.1079458,"type":"village"},{"id":"2383121123","name":"Ottappuwa","lat":8.1919949,"lon":80.2613806,"type":"village"},{"id":"2383121124","name":"Sinharagama","lat":8.2842452,"lon":80.2552008,"type":"village"},{"id":"2386322832","name":"Ampitiya","lat":7.2678653,"lon":80.666297,"type":"village"},{"id":"2393590067","name":"Thotagamuwa","lat":7.5088844,"lon":80.6229414,"type":"village"},{"id":"2407760124","name":"Mamaduwa","lat":8.8108597,"lon":80.5391874,"type":"village"},{"id":"2408760452","name":"Mahakachchikodiya","lat":8.7912239,"lon":80.5799245,"type":"village"},{"id":"2408760504","name":"Omanthai","lat":8.8655702,"lon":80.5031196,"type":"village"},{"id":"2411308798","name":"Moragalla","lat":6.4546483,"lon":79.9823333,"type":"village"},{"id":"2542798547","name":"Amunukole Junction","lat":8.0423808,"lon":80.2817897,"type":"village"},{"id":"2543525405","name":"Kiribamuna","lat":7.5951634,"lon":80.4386973,"type":"village"},{"id":"2558049897","name":"Panadanda","lat":7.3183251,"lon":80.1639304,"type":"village"},{"id":"2569114304","name":"Mattegoda","lat":6.8121327,"lon":79.9746984,"type":"village"},{"id":"2579034515","name":"Civic Centre","lat":9.3932425,"lon":80.4436516,"type":"village"},{"id":"2579034516","name":"Pannakandy","lat":9.4060941,"lon":80.4364542,"type":"village"},{"id":"2579034517","name":"Thiruvaiyaru","lat":9.384678,"lon":80.4260387,"type":"village"},{"id":"2581144950","name":"Kospelawinna","lat":6.6992229,"lon":80.3932595,"type":"village"},{"id":"2581144951","name":"Ratnapura New Town","lat":6.710455,"lon":80.3809002,"type":"village"},{"id":"2637063504","name":"Nanu Oya","lat":6.9409797,"lon":80.7442077,"type":"town"},{"id":"2638007016","name":"Idalgashinna","lat":6.7819,"lon":80.8948335,"type":"village"},{"id":"2643487648","name":"Habaraduwa","lat":5.994571,"lon":80.3085378,"type":"village"},{"id":"2678378690","name":"Ahungalla","lat":6.313789,"lon":80.0351217,"type":"town"},{"id":"2678433190","name":"Kosgoda","lat":6.3385879,"lon":80.028902,"type":"town"},{"id":"2682122126","name":"Yakwila","lat":7.3803823,"lon":80.0367174,"type":"village"},{"id":"2683036450","name":"Balapitiya","lat":6.2805756,"lon":80.0405753,"type":"town"},{"id":"2711676236","name":"Kudawa","lat":6.4404011,"lon":80.4208208,"type":"village"},{"id":"2712296528","name":"Meemure","lat":7.4415244,"lon":80.8442148,"type":"village"},{"id":"2712296529","name":"Rangala","lat":7.3558149,"lon":80.7895481,"type":"village"},{"id":"2718539003","name":"Kohilawatte","lat":6.9461695,"lon":79.9129005,"type":"village"},{"id":"2718847363","name":"Haldummulla","lat":6.7602163,"lon":80.8808852,"type":"town"},{"id":"2728009239","name":"Madampe","lat":7.4954162,"lon":79.8413815,"type":"town"},{"id":"2739097200","name":"Iranaipaalai","lat":9.3397761,"lon":80.7134345,"type":"village"},{"id":"2753808536","name":"Golagammana","lat":7.372103,"lon":80.5417738,"type":"village"},{"id":"2821280145","name":"Manampitiya","lat":7.9088455,"lon":81.1119238,"type":"town"},{"id":"2822294944","name":"Kusumama","lat":7.913758,"lon":81.0495107,"type":"village"},{"id":"2822294981","name":"Gallella","lat":7.9065783,"lon":81.0572947,"type":"village"},{"id":"2823998328","name":"Koskandawala","lat":7.0796142,"lon":80.0499765,"type":"village"},{"id":"2830868465","name":"14 Canal","lat":7.9906996,"lon":81.0840788,"type":"village"},{"id":"2830868802","name":"Onegama","lat":7.9767386,"lon":81.0961058,"type":"village"},{"id":"2831102430","name":"Horuvila","lat":8.2706558,"lon":80.1476478,"type":"village"},{"id":"2831586567","name":"Asokapura","lat":8.3741669,"lon":80.4779886,"type":"village"},{"id":"2831618263","name":"Nawa Madagama","lat":7.568729,"lon":81.0415759,"type":"village"},{"id":"2831700960","name":"Bandanagala","lat":7.7072988,"lon":81.0760644,"type":"village"},{"id":"2831757044","name":"Maspotha","lat":7.546437,"lon":80.307729,"type":"village"},{"id":"2833603808","name":"Parasangaswewa","lat":8.4485206,"lon":80.4311242,"type":"village"},{"id":"2834980802","name":"Palugaswewa","lat":8.0635895,"lon":80.7090898,"type":"village"},{"id":"2834994101","name":"Thirappane","lat":8.2157151,"lon":80.5229819,"type":"village"},{"id":"2837029737","name":"Sravasthipura","lat":8.2991416,"lon":80.3751422,"type":"village"},{"id":"2837565659","name":"Senarathgama","lat":8.0839156,"lon":80.2754966,"type":"village"},{"id":"2853533969","name":"Pinnawala","lat":7.3004342,"lon":80.3862978,"type":"village"},{"id":"2902138041","name":"Paraketawela","lat":7.2784806,"lon":80.542501,"type":"village"},{"id":"2902156268","name":"Danture","lat":7.2820442,"lon":80.5342641,"type":"village"},{"id":"2902171945","name":"Dodamwala","lat":7.2920039,"lon":80.5386032,"type":"village"},{"id":"2907017040","name":"Kurunegala","lat":7.4870464,"lon":80.364908,"type":"city"},{"id":"2907038171","name":"Metiyagane","lat":7.38694,"lon":80.1808545,"type":"village"},{"id":"2907079307","name":"Dambokka","lat":7.4378896,"lon":80.338129,"type":"village"},{"id":"2907471043","name":"Dambadeniya","lat":7.3681854,"lon":80.1494273,"type":"town"},{"id":"2907474966","name":"Muthugala","lat":7.3756016,"lon":80.1569911,"type":"village"},{"id":"2907667964","name":"Embilmeegama","lat":7.2650922,"lon":80.5639841,"type":"village"},{"id":"2908772560","name":"Kandy","lat":7.2931208,"lon":80.6350358,"type":"city"},{"id":"2908833857","name":"Boyawalana","lat":7.3342526,"lon":80.1766192,"type":"village"},{"id":"2908894441","name":"Kelegedara","lat":7.3772542,"lon":80.1317142,"type":"village"},{"id":"2918152805","name":"Wellabada","lat":6.2853162,"lon":80.0386486,"type":"village"},{"id":"2918221079","name":"Mallehewa","lat":7.3165036,"lon":80.1978431,"type":"village"},{"id":"2918221093","name":"Henduwawa","lat":7.3347214,"lon":80.1900755,"type":"village"},{"id":"2918221098","name":"Keppitiwalana","lat":7.3285283,"lon":80.1838527,"type":"village"},{"id":"2918222018","name":"Abhayapura","lat":7.3276983,"lon":80.1954184,"type":"village"},{"id":"2918370930","name":"Morawalapitiya","lat":7.3786509,"lon":80.2165604,"type":"village"},{"id":"2918379647","name":"Vilgamuwa","lat":7.3784593,"lon":80.2089321,"type":"village"},{"id":"2918411492","name":"Kuda Galgamuwa","lat":7.3605838,"lon":80.1954782,"type":"village"},{"id":"2918411771","name":"Othara - Bemmullaegedara","lat":7.388663,"lon":80.2336085,"type":"village"},{"id":"2918412066","name":"Nakalagamuwa","lat":7.3909824,"lon":80.2239525,"type":"village"},{"id":"2918428744","name":"Galdeniya","lat":7.3120395,"lon":80.1590001,"type":"village"},{"id":"2964705386","name":"Kandanegedara","lat":7.3994642,"lon":79.9801697,"type":"village"},{"id":"2971652999","name":"Ambalangoda","lat":6.7799063,"lon":79.9685421,"type":"village"},{"id":"2990557664","name":"Hiyare","lat":6.079597,"lon":80.2842842,"type":"village"},{"id":"3022506856","name":"Hinnarandeniya","lat":7.1855052,"lon":80.5889784,"type":"village"},{"id":"3053007006","name":"Kabalana","lat":5.97875,"lon":80.3462661,"type":"village"},{"id":"3054791534","name":"Pilana","lat":6.0356864,"lon":80.2911134,"type":"village"},{"id":"3054791535","name":"Meepe Junction","lat":6.0181551,"lon":80.2877842,"type":"village"},{"id":"3054837302","name":"Ulu Kade Junction","lat":6.038422,"lon":80.2960672,"type":"village"},{"id":"3054872285","name":"Angulugaha Junction","lat":6.0349703,"lon":80.3156035,"type":"village"},{"id":"3054872344","name":"Ginigala","lat":6.0139301,"lon":80.2874989,"type":"village"},{"id":"3066124415","name":"Katupotha","lat":7.53362,"lon":80.1875737,"type":"town"},{"id":"3066311599","name":"Weerambugedara","lat":7.4760781,"lon":80.2423238,"type":"village"},{"id":"3066364710","name":"Pallandeniya","lat":7.5224199,"lon":80.3294628,"type":"village"},{"id":"3066446268","name":"Thiththawella","lat":7.5153114,"lon":80.3358273,"type":"village"},{"id":"3070201673","name":"Maavi Ela","lat":7.5477634,"lon":80.1261604,"type":"village"},{"id":"3070267379","name":"Dematawa","lat":7.5688593,"lon":80.1150876,"type":"village"},{"id":"3078300673","name":"Uyandana","lat":7.4792842,"lon":80.4029144,"type":"village"},{"id":"3081633926","name":"Heenatigala Junction","lat":6.0154979,"lon":80.2765446,"type":"village"},{"id":"3095584802","name":"Avissawella","lat":6.9521206,"lon":80.2128586,"type":"town"},{"id":"3104885435","name":"Panawala","lat":6.8901602,"lon":80.2736342,"type":"village"},{"id":"3104885441","name":"Rangegama","lat":6.8993274,"lon":80.2606642,"type":"village"},{"id":"3104885448","name":"Yogama","lat":6.9301862,"lon":80.272903,"type":"village"},{"id":"3104886056","name":"Kambiadiya","lat":6.8990487,"lon":80.2756941,"type":"village"},{"id":"3104886079","name":"Batangala","lat":6.9132006,"lon":80.2750368,"type":"village"},{"id":"3104886470","name":"Deraniyagala","lat":6.9272729,"lon":80.3385122,"type":"town"},{"id":"3104887329","name":"Batangala","lat":6.9106104,"lon":80.2563179,"type":"village"},{"id":"3105094324","name":"Maniyamgama","lat":6.9379711,"lon":80.2407237,"type":"village"},{"id":"3116401470","name":"Muruththettuwa","lat":6.9509185,"lon":80.2681141,"type":"village"},{"id":"3116402519","name":"Algoda","lat":6.9530533,"lon":80.2744834,"type":"village"},{"id":"3118648155","name":"Galapitamada","lat":7.1399146,"lon":80.2347555,"type":"town"},{"id":"3156453858","name":"Pahala Yogama","lat":6.9189834,"lon":80.2667302,"type":"village"},{"id":"3156455584","name":"Uda yogama","lat":6.9237549,"lon":80.2887887,"type":"village"},{"id":"3156458172","name":"Maldeniya","lat":6.9349166,"lon":80.2838105,"type":"village"},{"id":"3156459207","name":"Dangampola","lat":6.9376431,"lon":80.2974147,"type":"village"},{"id":"3156467720","name":"Ihala Maniyamgama","lat":6.9336684,"lon":80.2516111,"type":"village"},{"id":"3156469978","name":"Thimbiripola","lat":6.965333,"lon":80.2512807,"type":"village"},{"id":"3156475255","name":"Thembiliyana","lat":6.9657004,"lon":80.2320761,"type":"village"},{"id":"3156475726","name":"Ihala Talduwa","lat":6.9637501,"lon":80.2293348,"type":"village"},{"id":"3156486566","name":"Debegama","lat":6.9845719,"lon":80.2338127,"type":"village"},{"id":"3156500557","name":"Kahanavita","lat":6.9667235,"lon":80.283337,"type":"village"},{"id":"3156513469","name":"Mahakanda","lat":6.962634,"lon":80.3131203,"type":"village"},{"id":"3156528036","name":"Ilukthanna","lat":6.9539248,"lon":80.3249609,"type":"village"},{"id":"3156536869","name":"Ambanawela","lat":6.9247195,"lon":80.3308014,"type":"village"},{"id":"3157920635","name":"Egodagama","lat":6.9230497,"lon":80.1943957,"type":"village"},{"id":"3157927051","name":"Madola","lat":6.930131,"lon":80.2171339,"type":"village"},{"id":"3157929236","name":"Hewainna","lat":6.8970615,"lon":80.1967989,"type":"village"},{"id":"3157929426","name":"Kaluandura","lat":6.9146655,"lon":80.2052618,"type":"village"},{"id":"3157952071","name":"Divurumpitiya","lat":6.9191521,"lon":80.221589,"type":"village"},{"id":"3157953409","name":"Kotahera","lat":6.9454267,"lon":80.2153233,"type":"village"},{"id":"3157953725","name":"Kiriwandala South","lat":6.941904,"lon":80.1984905,"type":"village"},{"id":"3158787186","name":"Anguruwella","lat":7.0601758,"lon":80.2598665,"type":"village"},{"id":"3158787345","name":"Salgala","lat":7.1092316,"lon":80.2612761,"type":"village"},{"id":"3158787346","name":"Gonagaldeniya","lat":7.0560977,"lon":80.2086947,"type":"village"},{"id":"3158789433","name":"Amithirigala","lat":7.0300214,"lon":80.186016,"type":"village"},{"id":"3158789668","name":"Nawatha","lat":7.0039502,"lon":80.3205135,"type":"village"},{"id":"3158789742","name":"Debarawewa","lat":6.2845447,"lon":81.2664771,"type":"village"},{"id":"3158789918","name":"Mahadeniya","lat":7.0109205,"lon":80.2005602,"type":"village"},{"id":"3158790009","name":"Naduwatte","lat":7.0595986,"lon":80.1642541,"type":"village"},{"id":"3158791570","name":"Parusella","lat":7.0414371,"lon":80.3139116,"type":"village"},{"id":"3158794322","name":"Digowwa","lat":6.8843365,"lon":80.3344342,"type":"village"},{"id":"3158795910","name":"Bodagama","lat":6.4286236,"lon":81.1020153,"type":"village"},{"id":"3158801353","name":"Palatupana","lat":6.2763507,"lon":81.4029885,"type":"village"},{"id":"3161361932","name":"Panaliya","lat":7.328341,"lon":80.3252393,"type":"village"},{"id":"3168348716","name":"Boyagane","lat":7.4551472,"lon":80.3458339,"type":"village"},{"id":"3168773054","name":"Bodhimaluwa","lat":6.8201507,"lon":80.2974863,"type":"village"},{"id":"3168933401","name":"Yangalmodara","lat":7.3183262,"lon":80.278081,"type":"village"},{"id":"3171690377","name":"Wanduragala","lat":7.4639667,"lon":80.3469103,"type":"village"},{"id":"3180277178","name":"Yanthampalawa","lat":7.5004959,"lon":80.3485799,"type":"village"},{"id":"3182644176","name":"Koslanda","lat":6.7435652,"lon":81.0182484,"type":"town"},{"id":"3183272903","name":"Malatawela","lat":6.7299206,"lon":81.0922822,"type":"village"},{"id":"3197994360","name":"Karasnagala","lat":7.1125884,"lon":80.1709962,"type":"village"},{"id":"3198000977","name":"Alawala","lat":7.1310061,"lon":80.2071738,"type":"village"},{"id":"3198002523","name":"Polgahakumbura","lat":7.1000043,"lon":80.2075815,"type":"village"},{"id":"3198139357","name":"Kahaduwa","lat":6.2263346,"lon":80.2163054,"type":"village"},{"id":"3198144520","name":"Elpitiya","lat":6.2918848,"lon":80.1619048,"type":"town"},{"id":"3198641644","name":"Werahera","lat":6.5153477,"lon":80.6469016,"type":"village"},{"id":"3198644041","name":"Welangapola","lat":6.5372831,"lon":80.6520908,"type":"village"},{"id":"3198646014","name":"Puranwaththa","lat":6.5440293,"lon":80.651313,"type":"village"},{"id":"3198649505","name":"Ammaduwa","lat":6.5383835,"lon":80.6608304,"type":"village"},{"id":"3198651263","name":"Galkanda","lat":6.5566915,"lon":80.6452997,"type":"village"},{"id":"3198707043","name":"Dandeniya","lat":6.5998909,"lon":80.6167944,"type":"village"},{"id":"3198712810","name":"Ematiyagoda","lat":6.5242018,"lon":80.6383286,"type":"village"},{"id":"3207175209","name":"Kiriwaula","lat":7.5150912,"lon":80.4204279,"type":"village"},{"id":"3207178766","name":"Paragahadeniya","lat":7.4177507,"lon":80.4726447,"type":"village"},{"id":"3207178999","name":"Pussella","lat":7.4403484,"lon":80.4874383,"type":"village"},{"id":"3207191568","name":"Arampola","lat":7.4584941,"lon":80.450419,"type":"village"},{"id":"3208559848","name":"Hiramadagama","lat":6.5296519,"lon":80.6160647,"type":"village"},{"id":"3213653802","name":"Keppitigala","lat":7.4396146,"lon":80.5364725,"type":"village"},{"id":"3213933155","name":"Kithulgolla","lat":7.4345652,"lon":80.5656684,"type":"village"},{"id":"3213933910","name":"Ankumbura","lat":7.4392821,"lon":80.5709587,"type":"town"},{"id":"3220027529","name":"Paragammana","lat":7.2305148,"lon":80.3508398,"type":"village"},{"id":"3220256609","name":"Karampan","lat":9.6940831,"lon":79.8601857,"type":"village"},{"id":"3220259864","name":"Saravanai","lat":9.6563471,"lon":79.8876515,"type":"village"},{"id":"3220261990","name":"Velanai","lat":9.6370312,"lon":79.9025249,"type":"town"},{"id":"3220264848","name":"Narantanai","lat":9.6799516,"lon":79.8797958,"type":"village"},{"id":"3220279773","name":"Chulipuram","lat":9.7651795,"lon":79.9424759,"type":"village"},{"id":"3220281897","name":"Pandatharippu","lat":9.7749581,"lon":79.9716751,"type":"town"},{"id":"3220283353","name":"Moolai","lat":9.7500457,"lon":79.935417,"type":"village"},{"id":"3220285970","name":"Chankanai","lat":9.7487344,"lon":79.9702939,"type":"town"},{"id":"3220289588","name":"Uduvil","lat":9.7375854,"lon":80.0098883,"type":"village"},{"id":"3220290861","name":"Manipay","lat":9.7244945,"lon":79.9960261,"type":"town"},{"id":"3224452563","name":"Hiriwadunna","lat":7.2866678,"lon":80.3844118,"type":"village"},{"id":"3224460889","name":"Ranwala","lat":7.2511361,"lon":80.3325364,"type":"village"},{"id":"3224608853","name":"Puwakdeniya","lat":7.2652615,"lon":80.3797458,"type":"village"},{"id":"3224615256","name":"Randeniya","lat":7.2733432,"lon":80.3828789,"type":"village"},{"id":"3226291259","name":"Kadugannawa","lat":7.2572795,"lon":80.5195206,"type":"town"},{"id":"3235859347","name":"Hingula","lat":7.2475051,"lon":80.4680664,"type":"village"},{"id":"3235859410","name":"Weththewa","lat":7.2386558,"lon":80.4730827,"type":"village"},{"id":"3235859448","name":"Aluthnuwara","lat":7.2268758,"lon":80.4831372,"type":"village"},{"id":"3235859514","name":"Katugahawatte","lat":7.2227316,"lon":80.470337,"type":"village"},{"id":"3236789052","name":"Dewalegama","lat":7.2844176,"lon":80.3222002,"type":"village"},{"id":"3237441620","name":"Gadaladeniya","lat":7.2582995,"lon":80.5560337,"type":"village"},{"id":"3237453503","name":"Buwelikada","lat":7.2150402,"lon":80.5717124,"type":"village"},{"id":"3237453504","name":"Embekka","lat":7.2176093,"lon":80.5681347,"type":"village"},{"id":"3237462865","name":"Gamhatha","lat":7.2012272,"lon":80.5633252,"type":"village"},{"id":"3237462927","name":"Welamboda","lat":7.1996364,"lon":80.5475055,"type":"village"},{"id":"3237466321","name":"Talawatura","lat":7.2071925,"lon":80.5810865,"type":"village"},{"id":"3247285526","name":"Vikumsihagama","lat":6.8946888,"lon":80.21886,"type":"village"},{"id":"3247286966","name":"Weragolla South","lat":6.9363973,"lon":80.204655,"type":"village"},{"id":"3247287372","name":"Kalatuwawa East","lat":6.8626041,"lon":80.2101096,"type":"village"},{"id":"3247321861","name":"Iddamalgoda","lat":6.8531493,"lon":80.2274731,"type":"village"},{"id":"3247321862","name":"Huluddawa","lat":6.8672141,"lon":80.2195948,"type":"village"},{"id":"3247321863","name":"Napawala","lat":6.8369662,"lon":80.2164868,"type":"village"},{"id":"3247532642","name":"Pinkanda","lat":6.1282757,"lon":80.1320767,"type":"village"},{"id":"3247820932","name":"Nilwella","lat":5.9650214,"lon":80.7164442,"type":"village"},{"id":"3248030104","name":"Kudawella","lat":5.9796329,"lon":80.7333273,"type":"village"},{"id":"3249089692","name":"Gonapinuwala","lat":6.1414262,"lon":80.1369452,"type":"village"},{"id":"3257849282","name":"Dodangoda","lat":6.1361398,"lon":80.1773433,"type":"village"},{"id":"3274475234","name":"Malabe","lat":6.9040723,"lon":79.9546189,"type":"town"},{"id":"3275779630","name":"Sri Jayewardenepura Kotte","lat":6.8883219,"lon":79.9187415,"type":"city"},{"id":"3283612332","name":"Yodha Kandiya","lat":6.2593119,"lon":81.3101597,"type":"village"},{"id":"3285341071","name":"Akuregoda","lat":6.8962824,"lon":79.9418242,"type":"village"},{"id":"3285348987","name":"Pirivena Junction","lat":6.8420868,"lon":79.9084117,"type":"village"},{"id":"3289447451","name":"Gampaha","lat":7.0925595,"lon":79.9951396,"type":"city"},{"id":"3289538075","name":"Kaluaggala","lat":6.9182633,"lon":80.0987674,"type":"village"},{"id":"3301689481","name":"Kalalgoda","lat":6.8683248,"lon":79.9417996,"type":"village"},{"id":"3315921296","name":"Oluvil","lat":7.2905682,"lon":81.8581828,"type":"village"},{"id":"3316122477","name":"Karaitivu","lat":7.3769486,"lon":81.8387922,"type":"town"},{"id":"3318180364","name":"Kalmunai","lat":7.4131557,"lon":81.8269327,"type":"town"},{"id":"3331565059","name":"Periyaneelavanai","lat":7.4456992,"lon":81.8122941,"type":"village"},{"id":"3333275043","name":"Periyakallar","lat":7.467938,"lon":81.8077998,"type":"village"},{"id":"3341061025","name":"Kurumunveli","lat":7.5075752,"lon":81.779815,"type":"village"},{"id":"3343528437","name":"Medawala","lat":7.357158,"lon":80.565789,"type":"town"},{"id":"3353587829","name":"Dippitiya","lat":7.1523498,"lon":80.2599603,"type":"village"},{"id":"3353606393","name":"Malmaduwa","lat":7.1359261,"lon":80.277055,"type":"village"},{"id":"3368551893","name":"Kalawella","lat":6.6309714,"lon":80.1605069,"type":"village"},{"id":"3370212786","name":"Polegoda","lat":6.58948,"lon":80.1638164,"type":"village"},{"id":"3370500512","name":"Gothatuwa","lat":6.929658,"lon":79.9060604,"type":"town"},{"id":"3372812204","name":"Dickoya","lat":6.8737751,"lon":80.6039415,"type":"town"},{"id":"3377424885","name":"Labuduwa","lat":6.0722589,"lon":80.2384486,"type":"village"},{"id":"3377424886","name":"Thotagoda","lat":6.0746334,"lon":80.240694,"type":"village"},{"id":"3379190141","name":"Kahataruppa","lat":7.0260891,"lon":81.1142307,"type":"village"},{"id":"3394903033","name":"Haragama","lat":7.2605293,"lon":80.7155791,"type":"village"},{"id":"3410002312","name":"Heanwala","lat":5.9611695,"lon":80.4636435,"type":"village"},{"id":"3410002313","name":"Kotawila","lat":5.9681472,"lon":80.477957,"type":"village"},{"id":"3416931212","name":"Thummodara","lat":6.8627142,"lon":80.1679615,"type":"village"},{"id":"3418927997","name":"Puwakpitiya","lat":6.9335104,"lon":80.1880026,"type":"village"},{"id":"3419307294","name":"Epitawala","lat":6.7430145,"lon":80.2425808,"type":"village"},{"id":"3419384219","name":"Thiththapattara","lat":6.9361211,"lon":80.0890459,"type":"village"},{"id":"3421173170","name":"Pothupitiya","lat":6.6412133,"lon":79.939359,"type":"village"},{"id":"3424715041","name":"Gonagala","lat":6.3826855,"lon":80.0332602,"type":"village"},{"id":"3470536692","name":"Uragasmanhandiya","lat":6.3431832,"lon":80.0803129,"type":"village"},{"id":"3477997946","name":"Eldeniya","lat":7.0096183,"lon":79.9653204,"type":"village"},{"id":"3478008256","name":"Veerachcholai","lat":7.3792266,"lon":81.7692281,"type":"village"},{"id":"3478019143","name":"Mavadippalli","lat":7.3716932,"lon":81.8220898,"type":"village"},{"id":"3478022892","name":"Sorikkalmunai","lat":7.3925014,"lon":81.7915277,"type":"village"},{"id":"3478023935","name":"Malwatte","lat":7.3326224,"lon":81.7433451,"type":"village"},{"id":"3478024086","name":"Majeed Puram","lat":7.3493915,"lon":81.7423838,"type":"village"},{"id":"3478028607","name":"Pahala Kottaramulla","lat":7.3834141,"lon":79.8689337,"type":"village"},{"id":"3478511244","name":"Kudinilam","lat":7.1275364,"lon":81.8302271,"type":"village"},{"id":"3478523992","name":"Malkampiddy","lat":7.3203875,"lon":81.8001024,"type":"village"},{"id":"3478527820","name":"Naina kadu","lat":7.3011972,"lon":81.7735626,"type":"village"},{"id":"3483711899","name":"Medagoda","lat":5.9502065,"lon":80.4955037,"type":"village"},{"id":"3483738670","name":"Peleana","lat":5.970522,"lon":80.4468289,"type":"village"},{"id":"3483738671","name":"Polwathumodara","lat":5.9646554,"lon":80.4562031,"type":"village"},{"id":"3483785941","name":"Denuwala","lat":5.9655215,"lon":80.3859849,"type":"village"},{"id":"3483789472","name":"Dikkumbura","lat":6.0175275,"lon":80.3779957,"type":"village"},{"id":"3483789474","name":"Kodagoda","lat":6.0233158,"lon":80.3943979,"type":"village"},{"id":"3483816670","name":"Imaduwa","lat":6.0354808,"lon":80.3888983,"type":"town"},{"id":"3483855642","name":"Paragoda","lat":6.0347116,"lon":80.3751532,"type":"village"},{"id":"3483855643","name":"Hawpe","lat":6.0338326,"lon":80.3427571,"type":"village"},{"id":"3484091476","name":"Panchaliya","lat":6.0054776,"lon":80.3812586,"type":"village"},{"id":"3484091477","name":"Ibbawala","lat":5.9987465,"lon":80.4010054,"type":"village"},{"id":"3484091478","name":"Moodugamuawa","lat":5.9936689,"lon":80.4150577,"type":"village"},{"id":"3492719090","name":"Yakkalamulla","lat":6.107667,"lon":80.3485356,"type":"town"},{"id":"3492743430","name":"Kottawa","lat":6.102764,"lon":80.3169705,"type":"village"},{"id":"3493006111","name":"Thalgampala","lat":6.0869762,"lon":80.3035978,"type":"village"},{"id":"3493140355","name":"Batemulla","lat":6.035273,"lon":80.3854917,"type":"village"},{"id":"3493140357","name":"Divelagoda","lat":6.0319579,"lon":80.4019294,"type":"village"},{"id":"3493140359","name":"Horadugoda","lat":6.0229944,"lon":80.4076797,"type":"village"},{"id":"3493140360","name":"Kananke","lat":6.0423774,"lon":80.409019,"type":"village"},{"id":"3493140361","name":"Mayakaduwa","lat":6.0511333,"lon":80.3745873,"type":"village"},{"id":"3493140362","name":"Nimalawa","lat":6.0487149,"lon":80.4413271,"type":"village"},{"id":"3493140363","name":"Pegirihena","lat":6.0366795,"lon":80.3556596,"type":"village"},{"id":"3493140364","name":"Poramba Kananke","lat":6.0450241,"lon":80.4204504,"type":"village"},{"id":"3493140365","name":"Wathawana","lat":6.0364322,"lon":80.3657139,"type":"village"},{"id":"3493245193","name":"Andugoda","lat":6.0150381,"lon":80.3906417,"type":"village"},{"id":"3493245194","name":"Borala","lat":5.9914194,"lon":80.4063002,"type":"village"},{"id":"3493245195","name":"Hettigoda","lat":6.0198747,"lon":80.3821744,"type":"village"},{"id":"3493245196","name":"Jaburagoda","lat":6.0077778,"lon":80.4139741,"type":"village"},{"id":"3493245197","name":"Kothagoda","lat":6.019019,"lon":80.416834,"type":"village"},{"id":"3493245198","name":"Pathegama","lat":5.985891,"lon":80.4037104,"type":"village"},{"id":"3493245199","name":"Waduborella","lat":5.9967347,"lon":80.4250541,"type":"village"},{"id":"3493245200","name":"Wattakgoda","lat":5.9906054,"lon":80.4277504,"type":"village"},{"id":"3493259417","name":"Arachikanda","lat":5.9844863,"lon":80.3681383,"type":"village"},{"id":"3493259418","name":"Batawala","lat":5.9808108,"lon":80.4062778,"type":"village"},{"id":"3493259419","name":"Deegoda","lat":6.03235,"lon":80.3869441,"type":"village"},{"id":"3493259420","name":"Eluketiya","lat":5.9824234,"lon":80.3660568,"type":"village"},{"id":"3493259421","name":"Gonnagaha Hean","lat":5.9998175,"lon":80.3796626,"type":"village"},{"id":"3493259422","name":"Kalugalgoda","lat":6.0247229,"lon":80.3809123,"type":"village"},{"id":"3493259423","name":"Karandugoda","lat":5.9824578,"lon":80.3624684,"type":"village"},{"id":"3493259424","name":"Kompawala","lat":5.9855767,"lon":80.3975395,"type":"village"},{"id":"3493259425","name":"Nakanda","lat":5.9917083,"lon":80.3761551,"type":"village"},{"id":"3493259426","name":"Olaganduwa","lat":5.9904845,"lon":80.3717814,"type":"village"},{"id":"3493281450","name":"Kokmaduwa","lat":6.0145281,"lon":80.4341076,"type":"village"},{"id":"3493281451","name":"Moonamalpe","lat":6.0038806,"lon":80.4527444,"type":"village"},{"id":"3493281452","name":"Welihinda","lat":5.9886507,"lon":80.4604183,"type":"village"},{"id":"3493281453","name":"Welipitiya","lat":6.0077661,"lon":80.44349,"type":"village"},{"id":"3498427104","name":"Bokundara","lat":6.8185107,"lon":79.9178891,"type":"village"},{"id":"3504275662","name":"Divulpitiya","lat":6.8514223,"lon":79.8946227,"type":"village"},{"id":"3508004632","name":"Akurugoda","lat":5.9995429,"lon":80.4935579,"type":"village"},{"id":"3508004633","name":"Malimbada","lat":6.0087573,"lon":80.516946,"type":"village"},{"id":"3508004634","name":"Nidanwela","lat":6.003514,"lon":80.4645912,"type":"village"},{"id":"3508004635","name":"Sulthanagoda","lat":5.9920722,"lon":80.4955736,"type":"village"},{"id":"3508004636","name":"Udukawa","lat":6.0168639,"lon":80.4793597,"type":"village"},{"id":"3508004637","name":"Uluwitike","lat":5.9914037,"lon":80.4664128,"type":"village"},{"id":"3508004638","name":"Warakpitiya","lat":5.9918483,"lon":80.485748,"type":"village"},{"id":"3508004639","name":"Watagedaramulla","lat":5.9957658,"lon":80.45986,"type":"village"},{"id":"3508036649","name":"Dampella","lat":6.0442996,"lon":80.5022537,"type":"village"},{"id":"3508036650","name":"Kadduwa","lat":6.0366607,"lon":80.5153465,"type":"village"},{"id":"3508036651","name":"Karagoda Uyangoda","lat":6.0443729,"lon":80.5147257,"type":"village"},{"id":"3508036652","name":"Kekunawela","lat":6.0559019,"lon":80.50331,"type":"village"},{"id":"3508036653","name":"Paraduwa","lat":6.0733357,"lon":80.481093,"type":"village"},{"id":"3508036654","name":"Phala Athuraliya","lat":6.0736454,"lon":80.5114076,"type":"village"},{"id":"3508036655","name":"Pitakatuwana","lat":6.0644517,"lon":80.5499953,"type":"village"},{"id":"3508041558","name":"Ihala Athuraliya","lat":6.0854456,"lon":80.4998482,"type":"village"},{"id":"3508041559","name":"Thibotuwawa","lat":6.0934292,"lon":80.4874399,"type":"village"},{"id":"3508044260","name":"Kamburuwana","lat":6.0943615,"lon":80.5654161,"type":"village"},{"id":"3508044261","name":"Lenabatuwa","lat":6.0809457,"lon":80.5447734,"type":"village"},{"id":"3508044262","name":"Narandeniya","lat":6.0794198,"lon":80.5765238,"type":"village"},{"id":"3508044263","name":"Sapugoda","lat":6.0824024,"lon":80.5571722,"type":"village"},{"id":"3508086586","name":"Ganegama","lat":6.0862352,"lon":80.5795413,"type":"village"},{"id":"3508086587","name":"Karaputugala","lat":6.0693332,"lon":80.6082693,"type":"village"},{"id":"3508086588","name":"Owitigamuwa","lat":6.056958,"lon":80.6157781,"type":"village"},{"id":"3508086589","name":"Ratalankawa","lat":6.0632682,"lon":80.5639962,"type":"village"},{"id":"3508086590","name":"Thumbe","lat":6.0772047,"lon":80.5933963,"type":"village"},{"id":"3508111707","name":"Henegama","lat":6.0559886,"lon":80.4634706,"type":"village"},{"id":"3508139701","name":"Hathamune","lat":6.0212761,"lon":80.5857362,"type":"village"},{"id":"3508139702","name":"Kirinda","lat":6.0523383,"lon":80.6291365,"type":"town"},{"id":"3508139703","name":"Kongala","lat":6.0689087,"lon":80.6301,"type":"village"},{"id":"3508159475","name":"Ihala Vitiyala","lat":6.0400289,"lon":80.539999,"type":"village"},{"id":"3508159476","name":"Pahala Vitiyala","lat":6.0213017,"lon":80.5467141,"type":"village"},{"id":"3508159477","name":"Urapola","lat":6.0243466,"lon":80.5578845,"type":"village"},{"id":"3508182034","name":"Hittetiya","lat":5.9598824,"lon":80.5243951,"type":"village"},{"id":"3508182035","name":"Kalatiyawala","lat":5.963814,"lon":80.5040483,"type":"village"},{"id":"3508182036","name":"Kanaththagoda","lat":5.9572799,"lon":80.5087918,"type":"village"},{"id":"3508233999","name":"Horagoda","lat":6.0415097,"lon":80.4699768,"type":"village"},{"id":"3508234000","name":"Wellana","lat":6.0356155,"lon":80.4368261,"type":"village"},{"id":"3508255918","name":"Hattiya watta","lat":5.9778289,"lon":80.4680916,"type":"village"},{"id":"3510259422","name":"Eheliyagoda","lat":6.8531322,"lon":80.2625436,"type":"town"},{"id":"3513452767","name":"Nallathanniya","lat":6.8255129,"lon":80.5225964,"type":"town"},{"id":"3516462613","name":"Indiparape","lat":7.2218215,"lon":80.1139472,"type":"village"},{"id":"3516462614","name":"Wijaya Rajadahana","lat":7.2305016,"lon":80.1177975,"type":"village"},{"id":"3516462623","name":"Welavilamulla","lat":7.1924668,"lon":80.1105473,"type":"village"},{"id":"3516462981","name":"Hirieala","lat":7.210965,"lon":80.1107173,"type":"village"},{"id":"3521295497","name":"Diyalape","lat":6.1237318,"lon":80.4623981,"type":"village"},{"id":"3521295498","name":"Eramudugoda","lat":6.1247495,"lon":80.43822,"type":"village"},{"id":"3521295499","name":"Ganhela","lat":6.1237318,"lon":80.4784617,"type":"village"},{"id":"3521295500","name":"Ketanwila","lat":6.125167,"lon":80.4267813,"type":"village"},{"id":"3521295501","name":"Neraluwa","lat":6.1199649,"lon":80.4356157,"type":"village"},{"id":"3521295502","name":"Poramba","lat":6.1124276,"lon":80.4540835,"type":"village"},{"id":"3521370237","name":"Aranwela","lat":6.0547247,"lon":80.7466978,"type":"village"},{"id":"3521370238","name":"Beranagoda","lat":6.1014623,"lon":80.3437122,"type":"village"},{"id":"3521370239","name":"Beragama","lat":6.1528563,"lon":80.550981,"type":"village"},{"id":"3521370240","name":"Dammulla","lat":6.0721628,"lon":80.734589,"type":"village"},{"id":"3521370241","name":"Dematapitiya","lat":6.0654201,"lon":80.6661126,"type":"village"},{"id":"3521370242","name":"Galthara","lat":6.091062,"lon":80.5503676,"type":"village"},{"id":"3521370243","name":"Gammedapitiya","lat":6.0801967,"lon":80.6647614,"type":"village"},{"id":"3521370244","name":"Gangodagama","lat":6.0761628,"lon":80.6760675,"type":"village"},{"id":"3521370245","name":"Getamanna","lat":6.0407431,"lon":80.6808938,"type":"village"},{"id":"3521370246","name":"Godapitiya","lat":6.1259126,"lon":80.4908843,"type":"village"},{"id":"3521370247","name":"Godawela","lat":6.0671637,"lon":80.6958642,"type":"village"},{"id":"3521370248","name":"Hanagamuwa","lat":6.0632326,"lon":80.7183368,"type":"village"},{"id":"3521370249","name":"Hettiyawala","lat":6.0574495,"lon":80.6488405,"type":"village"},{"id":"3521370250","name":"Hirimburawa","lat":6.0893518,"lon":80.370019,"type":"village"},{"id":"3521370251","name":"Howpe","lat":6.1270936,"lon":80.500217,"type":"village"},{"id":"3521370252","name":"Kahawatta","lat":6.06024,"lon":80.732833,"type":"village"},{"id":"3521370253","name":"Karagoda","lat":6.0940925,"lon":80.3839568,"type":"village"},{"id":"3521370254","name":"Karathota","lat":6.0601271,"lon":80.672264,"type":"village"},{"id":"3521370255","name":"Kitulalla","lat":6.1441079,"lon":80.5445817,"type":"village"},{"id":"3521370256","name":"Koraburuwana","lat":6.1007919,"lon":80.5548925,"type":"village"},{"id":"3521370257","name":"Magedara","lat":6.1132344,"lon":80.4221919,"type":"village"},{"id":"3521370258","name":"Manikgoda","lat":6.1099933,"lon":80.4348704,"type":"village"},{"id":"3521370259","name":"Meetiyawala","lat":6.0584835,"lon":80.6553598,"type":"village"},{"id":"3521370260","name":"Minuwandeniya","lat":6.0977115,"lon":80.3911959,"type":"village"},{"id":"3521370261","name":"Okawela","lat":6.1081734,"lon":80.7170766,"type":"village"},{"id":"3521370262","name":"Pallattara","lat":6.0864467,"lon":80.7297292,"type":"village"},{"id":"3521370263","name":"Pattiya wela","lat":6.074138,"lon":80.705706,"type":"village"},{"id":"3521370264","name":"Polpagoada","lat":6.100734,"lon":80.3754777,"type":"village"},{"id":"3521370265","name":"Ranchagoda","lat":6.1289968,"lon":80.5497012,"type":"village"},{"id":"3521370266","name":"Thalahagama","lat":6.1307885,"lon":80.5247151,"type":"village"},{"id":"3521370267","name":"Thraperiya","lat":6.0867512,"lon":80.694286,"type":"village"},{"id":"3521370268","name":"Udugalmote","lat":6.0939855,"lon":80.6907646,"type":"village"},{"id":"3521370269","name":"Udupilegoda - West","lat":6.0739272,"lon":80.6422407,"type":"village"},{"id":"3521370270","name":"Uduwella","lat":6.1006942,"lon":80.4114736,"type":"village"},{"id":"3521370271","name":"Waaharakgoda","lat":6.0536776,"lon":80.7230364,"type":"village"},{"id":"3521370272","name":"Walakanda","lat":6.028989,"lon":80.652494,"type":"village"},{"id":"3521370273","name":"Walpola","lat":6.0557309,"lon":80.4018141,"type":"village"},{"id":"3521370274","name":"Wathukola kanda","lat":6.0275969,"lon":80.6300166,"type":"village"},{"id":"3521474562","name":"Kambussawela","lat":6.0422097,"lon":80.7191485,"type":"village"},{"id":"3521474563","name":"Mahaheela","lat":6.0440377,"lon":80.7041313,"type":"village"},{"id":"3521487703","name":"Bodara kanda","lat":6.0291517,"lon":80.6845421,"type":"village"},{"id":"3521487704","name":"Dandeniya","lat":6.000322,"lon":80.6503912,"type":"village"},{"id":"3521487705","name":"Ambala North","lat":6.028982,"lon":80.7072091,"type":"village"},{"id":"3521487706","name":"Kotambure","lat":5.9853494,"lon":80.6508594,"type":"village"},{"id":"3521487707","name":"Lolanara","lat":5.9927877,"lon":80.6479397,"type":"village"},{"id":"3521487708","name":"Mawattagoda","lat":6.00168,"lon":80.6731917,"type":"village"},{"id":"3521487709","name":"Mukalan yaya","lat":6.0134624,"lon":80.6873474,"type":"village"},{"id":"3521487710","name":"Ratmale","lat":5.9745265,"lon":80.6596501,"type":"village"},{"id":"3521487711","name":"Uda Ambala","lat":6.0330588,"lon":80.7047094,"type":"village"},{"id":"3521487712","name":"Unukandeniya","lat":6.0204628,"lon":80.6862276,"type":"village"},{"id":"3521548363","name":"Dedowa","lat":6.0038623,"lon":80.5737685,"type":"village"},{"id":"3521548364","name":"Diyagaha","lat":5.9824059,"lon":80.5776604,"type":"village"},{"id":"3521548365","name":"Epitakanda","lat":5.9843671,"lon":80.6474317,"type":"village"},{"id":"3521548366","name":"Galaboda","lat":5.9998109,"lon":80.5852647,"type":"village"},{"id":"3521548367","name":"Hingurupattala","lat":6.0096137,"lon":80.6073799,"type":"village"},{"id":"3521548368","name":"Motagedara","lat":5.964255,"lon":80.5847718,"type":"village"},{"id":"3521548369","name":"Walasgoda","lat":5.9878277,"lon":80.6387927,"type":"village"},{"id":"3521617594","name":"Batuwila","lat":6.0334095,"lon":80.5756747,"type":"village"},{"id":"3521617595","name":"Kadawedduwa","lat":6.0141948,"lon":80.5947679,"type":"village"},{"id":"3521617596","name":"Kapugama","lat":5.9381171,"lon":80.6042352,"type":"village"},{"id":"3521617598","name":"Kokawala","lat":5.9868094,"lon":80.6160191,"type":"village"},{"id":"3521617599","name":"Kottawatta","lat":6.0163323,"lon":80.6048642,"type":"village"},{"id":"3521617600","name":"Nawimana","lat":5.9634637,"lon":80.5642419,"type":"village"},{"id":"3521617601","name":"Prawahera","lat":5.9777401,"lon":80.6136194,"type":"village"},{"id":"3521617602","name":"Thalpawila","lat":5.9541465,"lon":80.6005628,"type":"village"},{"id":"3521617603","name":"Wewaihalagoda","lat":5.9551835,"lon":80.5908331,"type":"village"},{"id":"3521651750","name":"Ihalagoda","lat":6.0256596,"lon":80.6648765,"type":"village"},{"id":"3521651751","name":"Kadurugasdeniya","lat":6.0139855,"lon":80.6589485,"type":"village"},{"id":"3521651752","name":"Muruthagaspitiya","lat":6.0084589,"lon":80.6541125,"type":"village"},{"id":"3521651792","name":"thalamulla","lat":6.0257789,"lon":80.6705958,"type":"village"},{"id":"3524759430","name":"Suwarapola","lat":6.7978126,"lon":79.9118795,"type":"village"},{"id":"3537884134","name":"Hokandara","lat":6.8804849,"lon":79.9599002,"type":"village"},{"id":"3542974224","name":"Sarasalai","lat":9.701754,"lon":80.1610886,"type":"village"},{"id":"3552736118","name":"Naranbedda","lat":7.3161228,"lon":80.3619381,"type":"village"},{"id":"3558209999","name":"Nayapamula","lat":6.1806154,"lon":80.1910469,"type":"village"},{"id":"3561109617","name":"Baththalangunduwa","lat":8.5044584,"lon":79.7834256,"type":"village"},{"id":"3567478522","name":"Aggona","lat":6.9165089,"lon":79.9237412,"type":"village"},