[{"id":"27564980","name":"Monrovia","lat":6.3203562,"lon":-10.8060492,"type":"city"},{"id":"321350037","name":"Nyenyen","lat":6.8006164,"lon":-10.3621364,"type":"town"},{"id":"321350077","name":"Ganta","lat":7.2334773,"lon":-8.986099,"type":"town"},{"id":"321350088","name":"Tappita City","lat":6.4918433,"lon":-8.8607395,"type":"town"},{"id":"321350099","name":"Zwedru","lat":6.068724,"lon":-8.1342735,"type":"town"},{"id":"321350140","name":"River Cess","lat":5.4597547,"lon":-9.5817149,"type":"village"},{"id":"321543658","name":"Yekepa","lat":7.5753094,"lon":-8.5419387,"type":"town"},{"id":"476511767","name":"Saclepea","lat":6.9638105,"lon":-8.8408732,"type":"town"},{"id":"476544399","name":"Pleebo","lat":4.5888482,"lon":-7.6734903,"type":"town"},{"id":"476605695","name":"Palala City","lat":7.0010073,"lon":-9.2866272,"type":"village"},{"id":"476624163","name":"Gbartala","lat":6.8834507,"lon":-9.6766257,"type":"town"},{"id":"476624464","name":"Totota","lat":6.809807,"lon":-9.94135,"type":"town"},{"id":"476644372","name":"Bopolu","lat":7.06667,"lon":-10.4875,"type":"village"},{"id":"476645658","name":"Tubmanburg","lat":6.8686923,"lon":-10.824815,"type":"town"},{"id":"476650148","name":"Bo","lat":7.01177,"lon":-11.37392,"type":"village"},{"id":"476658831","name":"Klay","lat":6.695187,"lon":-10.8736128,"type":"town"},{"id":"476660195","name":"Bong Mine Town","lat":6.8149831,"lon":-10.3506355,"type":"town"},{"id":"476717530","name":"Kongo","lat":7.3279,"lon":-11.13999,"type":"village"},{"id":"1196654474","name":"Gbarplay","lat":7.33367,"lon":-8.47853,"type":"village"},{"id":"1196655597","name":"Sarkolay","lat":7.32152,"lon":-8.47204,"type":"village"},{"id":"1207693088","name":"Duoplay","lat":7.28411,"lon":-8.42206,"type":"village"},{"id":"1207693416","name":"Kpantiaplay / Custom","lat":7.25763,"lon":-8.36636,"type":"village"},{"id":"1207693455","name":"Larpea 2","lat":7.2713606,"lon":-8.4822104,"type":"village"},{"id":"1207693605","name":"Larpea 2","lat":7.2827951,"lon":-8.4241241,"type":"village"},{"id":"1207752399","name":"Zorgowee","lat":7.3379943,"lon":-8.5793501,"type":"village"},{"id":"1253154960","name":"Bahn","lat":7.0251024,"lon":-8.720793,"type":"village"},{"id":"1345739769","name":"Glarlay","lat":6.7113855,"lon":-8.4535119,"type":"village"},{"id":"1345739773","name":"Graie Township","lat":6.70975,"lon":-8.77203,"type":"village"},{"id":"1345739783","name":"Zuatuo","lat":6.7464148,"lon":-8.7227636,"type":"village"},{"id":"1345739787","name":"Old Yourpea","lat":6.7113316,"lon":-8.5089315,"type":"village"},{"id":"1345739794","name":"Zuolay","lat":6.67533,"lon":-8.78823,"type":"village"},{"id":"1345759528","name":"Duogee","lat":6.2711076,"lon":-8.5123283,"type":"village"},{"id":"1345759532","name":"Tian","lat":6.26426,"lon":-8.48748,"type":"village"},{"id":"1345759536","name":"Toe","lat":6.4070721,"lon":-8.5570558,"type":"town"},{"id":"1345759540","name":"Zleh Town","lat":6.2266684,"lon":-8.4333606,"type":"town"},{"id":"1848494504","name":"Tiene","lat":6.96751,"lon":-11.31279,"type":"village"},{"id":"1848533186","name":"Kakata","lat":6.532326,"lon":-10.3488074,"type":"town"},{"id":"2189927054","name":"Buchanan","lat":5.88129,"lon":-10.0494002,"type":"town"},{"id":"2189929542","name":"Greenville","lat":5.01111,"lon":-9.03889,"type":"town"},{"id":"2189936799","name":"Bensonville City","lat":6.44725,"lon":-10.61428,"type":"village"},{"id":"2189951896","name":"Gbarnga","lat":6.996269,"lon":-9.470905,"type":"city"},{"id":"2189959219","name":"Voinjama","lat":8.422419,"lon":-9.7525832,"type":"town"},{"id":"2496539787","name":"Ganglota","lat":7.42275,"lon":-9.49344,"type":"village"},{"id":"2496539790","name":"Gbalatoah","lat":7.3341155,"lon":-9.5003439,"type":"village"},{"id":"2496539795","name":"Gorlu","lat":7.52012,"lon":-9.47899,"type":"village"},{"id":"2496539799","name":"Beyan","lat":7.34063,"lon":-9.49974,"type":"village"},{"id":"2496546839","name":"Salayea","lat":7.6165491,"lon":-9.4936317,"type":"village"},{"id":"2496546844","name":"Tailemai","lat":7.6642149,"lon":-9.4428116,"type":"village"},{"id":"2496546849","name":"Telemu","lat":7.56261,"lon":-9.49877,"type":"village"},{"id":"2521144734","name":"Central Gboayeela","lat":7.40566,"lon":-8.80219,"type":"village"},{"id":"2524274712","name":"Ojo","lat":6.4345409,"lon":-9.0271987,"type":"village"},{"id":"2524277076","name":"Boyee","lat":6.4595706,"lon":-9.0175093,"type":"village"},{"id":"2524412432","name":"Garraway","lat":4.4978868,"lon":-7.9327884,"type":"village"},{"id":"2528420789","name":"Ben Town","lat":5.6966882,"lon":-9.8275241,"type":"village"},{"id":"2528420790","name":"Charlesville","lat":6.2054203,"lon":-10.3762769,"type":"village"},{"id":"2528420795","name":"Hartford","lat":6.0025111,"lon":-10.0200197,"type":"village"},{"id":"2595678317","name":"Gbedin","lat":7.2754752,"lon":-8.8354895,"type":"village"},{"id":"2751192337","name":"Boyah - II","lat":8.2677476,"lon":-10.3053375,"type":"village"},{"id":"2751280318","name":"Kolahun","lat":8.28694,"lon":-10.08444,"type":"village"},{"id":"2751280750","name":"Foya City","lat":8.3586488,"lon":-10.1960454,"type":"town"},{"id":"2751290664","name":"Mendicorma","lat":8.4637441,"lon":-10.2712935,"type":"village"},{"id":"2751291539","name":"Kelima Bendu","lat":8.4577213,"lon":-10.2564719,"type":"village"},{"id":"2751338605","name":"Vahun","lat":8.2768585,"lon":-10.2811262,"type":"village"},{"id":"2751376837","name":"Mbabahun","lat":8.2903,"lon":-10.13169,"type":"village"},{"id":"2756860897","name":"Kpassagizia","lat":8.0160108,"lon":-9.4392615,"type":"village"},{"id":"2756860899","name":"Ziggida","lat":8.03726,"lon":-9.48425,"type":"village"},{"id":"2756860909","name":"Wobeyammai Town Cente","lat":8.1707536,"lon":-9.8445468,"type":"village"},{"id":"2756860924","name":"Barkedu","lat":8.2933262,"lon":-9.6340644,"type":"village"},{"id":"2756861006","name":"Marvekonnedu","lat":8.427412,"lon":-9.6706291,"type":"village"},{"id":"2756926159","name":"Betejama","lat":8.4199754,"lon":-9.8266778,"type":"village"},{"id":"2756926161","name":"Porluma","lat":8.4289388,"lon":-10.1145995,"type":"village"},{"id":"2756926169","name":"Lawalazu","lat":8.4510338,"lon":-9.8450007,"type":"village"},{"id":"2756926172","name":"Nyandemoilahun Town Centre","lat":8.4440992,"lon":-9.9600257,"type":"village"},{"id":"2756926186","name":"Tobogizizu","lat":8.4737291,"lon":-9.9216059,"type":"village"},{"id":"2756926192","name":"Kugbemai","lat":8.5074121,"lon":-9.7698099,"type":"village"},{"id":"2756926198","name":"Vonema","lat":8.5326362,"lon":-9.7573207,"type":"village"},{"id":"2757063397","name":"Fangalahun","lat":8.31297,"lon":-10.04077,"type":"village"},{"id":"2757063565","name":"Kpademai T","lat":8.2118719,"lon":-9.9079266,"type":"village"},{"id":"2757063694","name":"Maungiasu","lat":8.1500822,"lon":-10.0586113,"type":"village"},{"id":"2757063821","name":"Vezala","lat":8.3695778,"lon":-9.9032421,"type":"village"},{"id":"2757131089","name":"Selega","lat":8.4090367,"lon":-9.7174211,"type":"village"},{"id":"2757343370","name":"Bayama","lat":8.34804,"lon":-10.20649,"type":"village"},{"id":"2757343463","name":"Yengama","lat":8.170127,"lon":-10.3081865,"type":"village"},{"id":"2757343542","name":"Kamatahun","lat":8.138592,"lon":-10.2943982,"type":"village"},{"id":"2757343661","name":"Memolahun","lat":8.06448,"lon":-10.46576,"type":"village"},{"id":"2757343756","name":"Sadu Bendu","lat":8.30751,"lon":-10.28759,"type":"village"},{"id":"2757343832","name":"Kwendemba","lat":8.27925,"lon":-10.26624,"type":"village"},{"id":"2757343833","name":"Worsongar","lat":8.36175,"lon":-10.28079,"type":"village"},{"id":"2757343839","name":"Yallahun","lat":8.13044,"lon":-10.31255,"type":"village"},{"id":"2757343844","name":"Yandohun","lat":8.1054017,"lon":-10.3578735,"type":"village"},{"id":"2758160492","name":"Zorzor","lat":7.7788,"lon":-9.428166,"type":"village"},{"id":"2759476470","name":"Sehyikimpa","lat":7.3744818,"lon":-8.6826566,"type":"village"},{"id":"2769819841","name":"Galama","lat":8.4624861,"lon":-9.7893975,"type":"village"},{"id":"2772103116","name":"David Selma's","lat":8.27353,"lon":-9.76186,"type":"village"},{"id":"2772103117","name":"Kolliemai","lat":8.2905983,"lon":-9.7624463,"type":"village"},{"id":"2772103118","name":"Seekemai","lat":8.2462939,"lon":-9.7813588,"type":"village"},{"id":"2772103119","name":"Tenebu","lat":8.3095064,"lon":-9.7717735,"type":"village"},{"id":"2772143715","name":"Mamikonnedu","lat":8.3955189,"lon":-9.5941991,"type":"village"},{"id":"2772143722","name":"Nyamakamadu","lat":8.3926057,"lon":-9.6387863,"type":"village"},{"id":"2772193114","name":"Johnny's","lat":8.3612129,"lon":-9.9638213,"type":"village"},{"id":"2772193116","name":"Kortulahun 1","lat":8.3876863,"lon":-9.993557,"type":"village"},{"id":"2772193119","name":"Zawordamai","lat":8.3286369,"lon":-9.9522493,"type":"village"},{"id":"2773217947","name":"Mbalatahun","lat":8.2212861,"lon":-10.1538863,"type":"village"},{"id":"2773217964","name":"Bolahun Town","lat":8.23171,"lon":-10.16053,"type":"village"},{"id":"2773217969","name":"Fangonda Town","lat":8.22079,"lon":-10.17346,"type":"village"},{"id":"2773217985","name":"Masambolahun","lat":8.22728,"lon":-10.17303,"type":"village"},{"id":"2773217992","name":"Porlowu Town","lat":8.2171277,"lon":-10.1916422,"type":"village"},{"id":"2871456971","name":"Naama","lat":7.258913,"lon":-9.3524882,"type":"village"},{"id":"2920110694","name":"Salia","lat":6.5085077,"lon":-10.8900449,"type":"village"},{"id":"2924531712","name":"Robertsport","lat":6.7525707,"lon":-11.3669534,"type":"town"},{"id":"2924586326","name":"Taylalor","lat":6.897451,"lon":-11.4586428,"type":"village"},{"id":"2931578123","name":"Jomata","lat":8.4126271,"lon":-10.1463059,"type":"village"},{"id":"2931630244","name":"Tarma","lat":8.470921,"lon":-10.0973515,"type":"village"},{"id":"2931719787","name":"Shelloe","lat":8.3850096,"lon":-10.2011061,"type":"village"},{"id":"2931769670","name":"Foya Dundu","lat":8.32401,"lon":-10.20933,"type":"village"},{"id":"2931821997","name":"Kamatahun","lat":8.3524729,"lon":-10.1420655,"type":"village"},{"id":"2931822000","name":"Savalahun","lat":8.33395,"lon":-10.14854,"type":"village"},{"id":"2932009702","name":"Fassawolo","lat":8.39193,"lon":-10.06576,"type":"village"},{"id":"2932031726","name":"Kuruka","lat":8.4489725,"lon":-9.7202768,"type":"village"},{"id":"2932033774","name":"Bolongoidu","lat":8.48772,"lon":-9.66254,"type":"village"},{"id":"2932847341","name":"Popalahun","lat":8.1775904,"lon":-10.2302486,"type":"village"},{"id":"2932907582","name":"Gbongoma","lat":8.0803566,"lon":-10.4754413,"type":"village"},{"id":"2932907589","name":"Vahun","lat":8.0626718,"lon":-10.5043904,"type":"village"},{"id":"2934041080","name":"Konia","lat":7.96098,"lon":-9.5407,"type":"village"},{"id":"2995981033","name":"Duazon Old Town","lat":6.2289127,"lon":-10.6007152,"type":"village"},{"id":"2995981044","name":"Harbel City","lat":6.2767372,"lon":-10.344718,"type":"town"},{"id":"2995981058","name":"Marshall","lat":6.14861,"lon":-10.38361,"type":"town"},{"id":"3003644079","name":"Loboba","lat":8.3864448,"lon":-9.9055219,"type":"village"},{"id":"3004121966","name":"Thomas Community","lat":6.6875045,"lon":-10.8755716,"type":"village"},{"id":"3004122209","name":"Joyce Brown Village","lat":6.6924939,"lon":-10.8489736,"type":"village"},{"id":"3004124257","name":"Jawajeh","lat":6.7338677,"lon":-10.8870541,"type":"village"},{"id":"3004124265","name":"Browns Farm","lat":6.7339711,"lon":-10.8616563,"type":"village"},{"id":"3004331410","name":"Juajuah","lat":6.6733521,"lon":-10.756577,"type":"village"},{"id":"3004331724","name":"Zordee","lat":6.676097,"lon":-10.7829486,"type":"village"},{"id":"3004332711","name":"Jawajeh Manna","lat":6.7391199,"lon":-10.7720628,"type":"village"},{"id":"3004458804","name":"Gbao Number Two","lat":6.6833266,"lon":-10.6704826,"type":"village"},{"id":"3004458827","name":"Gbao Number One","lat":6.6860162,"lon":-10.6689315,"type":"village"},{"id":"3004596568","name":"Gbah Jakeh","lat":6.71388,"lon":-10.97102,"type":"town"},{"id":"3004596584","name":"Malema Gorblah","lat":6.66959,"lon":-10.97246,"type":"village"},{"id":"3006115561","name":"Juluken #1","lat":5.0458688,"lon":-7.9411989,"type":"village"},{"id":"3006115906","name":"Rock Town","lat":4.9436091,"lon":-7.8650234,"type":"village"},{"id":"3006714850","name":"Borkeza","lat":7.90992,"lon":-9.45756,"type":"village"},{"id":"3007197864","name":"Gbargbah","lat":6.6483313,"lon":-10.8798443,"type":"village"},{"id":"3007238065","name":"Monnoh","lat":6.6650127,"lon":-10.8122683,"type":"village"},{"id":"3007239877","name":"Sass","lat":6.58299,"lon":-10.89158,"type":"village"},{"id":"3007314129","name":"Alasala","lat":6.5833208,"lon":-10.7294716,"type":"village"},{"id":"3007624532","name":"Jallabah","lat":6.5618126,"lon":-10.6504522,"type":"village"},{"id":"3007624703","name":"Mount Coffee","lat":6.4908206,"lon":-10.6500947,"type":"village"},{"id":"3008459058","name":"Flumpa","lat":7.1090367,"lon":-8.9113803,"type":"village"},{"id":"3008459187","name":"Binda","lat":7.0734196,"lon":-8.9519015,"type":"village"},{"id":"3008459671","name":"Gipo","lat":7.1347123,"lon":-8.8998497,"type":"village"},{"id":"3008459677","name":"Sehwee","lat":7.0629485,"lon":-8.9307695,"type":"village"},{"id":"3010366259","name":"Guie Town","lat":6.7585766,"lon":-10.8500824,"type":"village"},{"id":"3010830778","name":"Gargar","lat":6.2534522,"lon":-10.1758944,"type":"village"},{"id":"3011681303","name":"Gelema","lat":7.86346,"lon":-10.13495,"type":"village"},{"id":"3012039005","name":"Goe","lat":6.5050821,"lon":-10.1092078,"type":"village"},{"id":"3012232497","name":"Jacob Lorteh/ DC","lat":6.4430689,"lon":-10.2334797,"type":"village"},{"id":"3012249278","name":"Bagoli","lat":5.8143629,"lon":-10.0030855,"type":"village"},{"id":"3012386464","name":"Gobah","lat":6.49685,"lon":-10.44097,"type":"village"},{"id":"3012386466","name":"Camenga","lat":6.5043336,"lon":-10.3304574,"type":"village"},{"id":"3012524194","name":"Belle Baloma","lat":7.5708323,"lon":-9.9738907,"type":"village"},{"id":"3012524195","name":"Belleh Yallah","lat":7.37354,"lon":-9.99543,"type":"village"},{"id":"3013438643","name":"Kawelahun Town","lat":7.4041907,"lon":-11.0269355,"type":"village"},{"id":"3013693214","name":"Goe","lat":7.02304,"lon":-11.22886,"type":"village"},{"id":"3013713204","name":"Benda","lat":7.1615,"lon":-11.24275,"type":"village"},{"id":"3013768864","name":"Camp 4","lat":7.5448145,"lon":-8.5634595,"type":"town"},{"id":"3013873875","name":"Sueh","lat":6.6179725,"lon":-10.7065984,"type":"village"},{"id":"3013875430","name":"Gbojay","lat":6.6596919,"lon":-10.6931769,"type":"village"},{"id":"3014106858","name":"Demeh","lat":6.5241944,"lon":-10.8359753,"type":"village"},{"id":"3014494145","name":"Weajue","lat":7.1593614,"lon":-10.9181722,"type":"village"},{"id":"3014573774","name":"Than Town","lat":7.10731,"lon":-10.8986,"type":"village"},{"id":"3014754644","name":"S. R. C. Camp III","lat":6.6465449,"lon":-10.1068261,"type":"village"},{"id":"3014754647","name":"John Logan Village","lat":6.3847508,"lon":-10.1080787,"type":"village"},{"id":"3015107791","name":"S.R.C. Camp I","lat":6.65791,"lon":-10.12656,"type":"village"},{"id":"3015159846","name":"Botota","lat":6.65235,"lon":-9.37289,"type":"town"},{"id":"3015159879","name":"Gboikpalah","lat":6.6478782,"lon":-9.4596842,"type":"village"},{"id":"3015159882","name":"Klehn","lat":6.56736,"lon":-9.34638,"type":"village"},{"id":"3015159890","name":"Desoe","lat":6.5183852,"lon":-9.3906102,"type":"village"},{"id":"3015159902","name":"Ceezohn","lat":6.5142699,"lon":-9.3481191,"type":"village"},{"id":"3015159904","name":"Sayewheh","lat":6.6196173,"lon":-9.2810987,"type":"village"},{"id":"3015159905","name":"Sue","lat":6.55918,"lon":-9.2116293,"type":"village"},{"id":"3015181378","name":"Kpotoloma","lat":6.9306992,"lon":-10.0166627,"type":"village"},{"id":"3015181381","name":"Gbuga Town","lat":6.6818354,"lon":-10.0515967,"type":"village"},{"id":"3015181386","name":"Fleh-la","lat":6.7655076,"lon":-10.0327529,"type":"village"},{"id":"3015181402","name":"Kpakolokoyah","lat":6.7232676,"lon":-10.1584261,"type":"village"},{"id":"3015181406","name":"Lehleh","lat":6.8556905,"lon":-9.9302661,"type":"village"},{"id":"3015181407","name":"Maimue Town","lat":6.785002,"lon":-9.9519026,"type":"village"},{"id":"3015181416","name":"Salala","lat":6.7481657,"lon":-10.106283,"type":"town"},{"id":"3015181422","name":"Sanoyea","lat":6.975746,"lon":-9.9825246,"type":"village"},{"id":"3015181430","name":"Moipa Ta (A)","lat":6.7572716,"lon":-9.9109765,"type":"village"},{"id":"3015181734","name":"Wumai","lat":7.002994,"lon":-9.8774482,"type":"village"},{"id":"3015181737","name":"Yaniquellie","lat":6.8793,"lon":-9.99266,"type":"village"},{"id":"3015229077","name":"Lofa Bridge","lat":7.06998,"lon":-10.87862,"type":"village"},{"id":"3015270295","name":"Kpayeakwelle A","lat":7.1385753,"lon":-9.987994,"type":"village"},{"id":"3015270308","name":"Degei","lat":7.09791,"lon":-10.16663,"type":"village"},{"id":"3015270315","name":"Volomeni","lat":7.0817845,"lon":-9.9426499,"type":"town"},{"id":"3015270320","name":"Gbarkagborquoita A","lat":7.27781,"lon":-10.06228,"type":"village"},{"id":"3015280242","name":"Morlorkwelle","lat":7.1923535,"lon":-10.1431756,"type":"village"},{"id":"3015346950","name":"Gbonnie","lat":7.68527,"lon":-8.61364,"type":"village"},{"id":"3015346951","name":"Bonla","lat":7.5740357,"lon":-8.6598405,"type":"village"},{"id":"3015346956","name":"Gbarpa","lat":7.4842743,"lon":-8.6116379,"type":"village"},{"id":"3015346957","name":"Gbeleyee","lat":7.6530699,"lon":-8.5575015,"type":"village"},{"id":"3015346959","name":"Sehyi-Geh","lat":7.4103564,"lon":-8.6892267,"type":"village"},{"id":"3015346962","name":"Kahnla","lat":7.5969694,"lon":-8.5709387,"type":"village"},{"id":"3015346963","name":"Kinnon","lat":7.68755,"lon":-8.57374,"type":"village"},{"id":"3015346965","name":"Lugbleh","lat":7.6103865,"lon":-8.620912,"type":"village"},{"id":"3015346966","name":"Makinto #1","lat":7.41163,"lon":-8.66199,"type":"village"},{"id":"3015346967","name":"Kpolay","lat":7.41885,"lon":-8.48615,"type":"village"},{"id":"3015346971","name":"Dulay","lat":7.4687,"lon":-8.44499,"type":"village"},{"id":"3015346973","name":"Zolowee","lat":7.43388,"lon":-8.63195,"type":"village"},{"id":"3015346974","name":"Zortapa","lat":7.37943,"lon":-8.56369,"type":"village"},{"id":"3015346975","name":"Zualay","lat":7.3936502,"lon":-8.5161519,"type":"village"},{"id":"3015376478","name":"Gondor Town","lat":7.1959746,"lon":-10.7762607,"type":"village"},{"id":"3015725750","name":"Zelemai","lat":7.8804132,"lon":-9.5109228,"type":"village"},{"id":"3015725752","name":"Zuwulor","lat":7.91058,"lon":-9.51744,"type":"village"},{"id":"3015738043","name":"Korpo Gobu","lat":7.9074667,"lon":-9.5879307,"type":"village"},{"id":"3015740344","name":"Wuomai","lat":7.76992,"lon":-9.63321,"type":"village"},{"id":"3016502328","name":"Gbudu Town","lat":6.5390933,"lon":-10.1047216,"type":"village"},{"id":"3016502332","name":"Gleegbar","lat":6.642777,"lon":-10.0224072,"type":"village"},{"id":"3016504646","name":"Paye","lat":6.6077544,"lon":-10.063962,"type":"village"},{"id":"3016504648","name":"Peter","lat":6.599694,"lon":-10.0863986,"type":"village"},{"id":"3016504654","name":"Yarnwullie","lat":6.5714532,"lon":-10.1881417,"type":"village"},{"id":"3016628171","name":"Kpayaquelleh","lat":7.46747,"lon":-9.6055,"type":"village"},{"id":"3016672708","name":"Gboyea","lat":7.50596,"lon":-9.55416,"type":"village"},{"id":"3016702202","name":"Zolowu","lat":7.65759,"lon":-9.54427,"type":"village"},{"id":"3016990457","name":"Botaveri","lat":6.0023657,"lon":-9.4029789,"type":"village"},{"id":"3016990473","name":"Kangbo Town","lat":6.2686199,"lon":-9.2052131,"type":"village"},{"id":"3016990480","name":"Wrayee","lat":6.0903436,"lon":-9.210672,"type":"village"},{"id":"3016990485","name":"Wontoe","lat":6.2124498,"lon":-9.1451946,"type":"village"},{"id":"3017031499","name":"Mandina","lat":6.71662,"lon":-11.06609,"type":"village"},{"id":"3017208990","name":"Sinje","lat":6.8166987,"lon":-11.1357254,"type":"town"},{"id":"3017287463","name":"Beafini","lat":6.860783,"lon":-10.899265,"type":"village"},{"id":"3017319519","name":"Sackie","lat":6.97808,"lon":-10.93094,"type":"village"},{"id":"3017587212","name":"Zayglay","lat":7.0511794,"lon":-8.7010361,"type":"town"},{"id":"3018434255","name":"Koibatormai","lat":8.3613827,"lon":-9.9778807,"type":"village"},{"id":"3019150649","name":"Nasadu","lat":8.404663,"lon":-9.6824994,"type":"village"},{"id":"3019185641","name":"Damballa","lat":7.1375,"lon":-11.284167,"type":"village"},{"id":"3019185646","name":"Guassay","lat":7.18605,"lon":-11.26762,"type":"village"},{"id":"3019243127","name":"Weasua","lat":7.31581,"lon":-10.50959,"type":"village"},{"id":"3019302955","name":"Balamah","lat":7.0694609,"lon":-9.5872556,"type":"village"},{"id":"3019302958","name":"Barworquelleh","lat":7.0701032,"lon":-9.6055446,"type":"village"},{"id":"3019302960","name":"Gbonota","lat":7.11264,"lon":-9.78114,"type":"village"},{"id":"3019302961","name":"Gbonyea","lat":7.11103,"lon":-9.79306,"type":"village"},{"id":"3019302966","name":"Nyain","lat":7.0849689,"lon":-9.7992625,"type":"village"},{"id":"3019315105","name":"Gou","lat":7.1840601,"lon":-9.6683273,"type":"village"},{"id":"3019315109","name":"Kpatawee","lat":7.088353,"lon":-9.6421295,"type":"village"},{"id":"3019315589","name":"Galai","lat":7.0958126,"lon":-9.5497461,"type":"village"},{"id":"3019315590","name":"Kayata","lat":7.16272,"lon":-9.5471,"type":"village"},{"id":"3019319128","name":"Melekei","lat":7.0438695,"lon":-9.5193753,"type":"village"},{"id":"3019339594","name":"Gbansue Sulonmah","lat":7.2347921,"lon":-9.6169334,"type":"village"},{"id":"3019347467","name":"Gbalatuah","lat":7.3105316,"lon":-9.511476,"type":"village"},{"id":"3019472092","name":"Galai","lat":7.0384394,"lon":-9.2862441,"type":"village"},{"id":"3019482117","name":"Baila","lat":7.06465,"lon":-9.1682,"type":"village"},{"id":"3019500636","name":"Wainsue","lat":7.1141582,"lon":-9.459233,"type":"village"},{"id":"3019514715","name":"Foequelleh","lat":7.12694,"lon":-9.22889,"type":"village"},{"id":"3020301344","name":"Yowee","lat":7.1824,"lon":-9.31095,"type":"village"},{"id":"3020336924","name":"Farvey","lat":7.2295318,"lon":-9.2848163,"type":"village"},{"id":"3020336925","name":"Gahnmue","lat":7.232866,"lon":-9.1653451,"type":"village"},{"id":"3020336927","name":"Kollie-Ta","lat":7.2455511,"lon":-9.3882575,"type":"village"},{"id":"3020336930","name":"War-Ta","lat":7.2341076,"lon":-9.3917772,"type":"village"},{"id":"3020358694","name":"Belefanai","lat":7.2611294,"lon":-9.4352077,"type":"town"},{"id":"3020361417","name":"Koyah","lat":7.2451364,"lon":-9.1486442,"type":"village"},{"id":"3020385626","name":"Gbansue - Nyankai","lat":7.2819083,"lon":-9.3108861,"type":"village"},{"id":"3020385629","name":"Paye -Ta","lat":7.2822028,"lon":-9.40044,"type":"village"},{"id":"3020422599","name":"Jowah","lat":7.3570967,"lon":-9.2322192,"type":"village"},{"id":"3020485159","name":"Morris Farm","lat":6.53166,"lon":-10.37472,"type":"village"},{"id":"3020530216","name":"Nyehn","lat":6.5493659,"lon":-10.4891873,"type":"village"},{"id":"3020551382","name":"Koon","lat":6.60271,"lon":-10.53994,"type":"village"},{"id":"3021184374","name":"Greanpea","lat":6.56654,"lon":-8.99622,"type":"village"},{"id":"3021184377","name":"Dahnpa","lat":6.5457246,"lon":-9.0621901,"type":"village"},{"id":"3021184392","name":"Kpowin","lat":6.60678,"lon":-9.06154,"type":"village"},{"id":"3021184394","name":"Kwendin","lat":6.45531,"lon":-8.95114,"type":"village"},{"id":"3021184404","name":"Sahnpa","lat":6.5399213,"lon":-9.0207596,"type":"village"},{"id":"3021184407","name":"Zeonghen","lat":6.61872,"lon":-8.81741,"type":"village"},{"id":"3021184416","name":"Vahn","lat":6.4575901,"lon":-8.9073669,"type":"village"},{"id":"3021184422","name":"Ziah Old","lat":6.6194326,"lon":-8.9496745,"type":"village"},{"id":"3021184424","name":"Zekepa","lat":6.6505785,"lon":-9.1192082,"type":"village"},{"id":"3021184426","name":"Ziah New","lat":6.6394491,"lon":-8.9289318,"type":"village"},{"id":"3021184430","name":"Volay","lat":6.6048382,"lon":-8.8105652,"type":"village"},{"id":"3021467381","name":"Kpein","lat":7.10285,"lon":-9.08249,"type":"village"},{"id":"3021605971","name":"Wuo's","lat":7.2376076,"lon":-8.9666669,"type":"village"},{"id":"3021616594","name":"Korsein","lat":7.08627,"lon":-8.80889,"type":"village"},{"id":"3021620335","name":"Karnwee","lat":7.03137,"lon":-8.84847,"type":"village"},{"id":"3021803633","name":"Baypolu","lat":6.6638094,"lon":-10.1140582,"type":"village"},{"id":"3021867387","name":"Buegbo","lat":6.0574756,"lon":-9.6917262,"type":"village"},{"id":"3021867554","name":"Zondobli","lat":6.0932571,"lon":-9.6468087,"type":"village"},{"id":"3022297566","name":"Gbesseh (B)","lat":6.93581,"lon":-11.33052,"type":"village"},{"id":"3022629426","name":"Rlekporlay","lat":7.0544336,"lon":-8.5715468,"type":"village"},{"id":"3022640571","name":"Mahdiaplay #1","lat":7.0856659,"lon":-8.45552,"type":"village"},{"id":"3022640572","name":"Mahdiaplay #2","lat":7.08308,"lon":-8.45199,"type":"village"},{"id":"3022655894","name":"Garplay","lat":7.12758,"lon":-8.46722,"type":"village"},{"id":"3022655901","name":"Senlay","lat":7.1169049,"lon":-8.5493266,"type":"village"},{"id":"3022655902","name":"Vayenglay","lat":7.1433538,"lon":-8.56171,"type":"village"},{"id":"3022803584","name":"Gbei Bonnah","lat":7.1712396,"lon":-8.4423865,"type":"village"},{"id":"3022813290","name":"Behplay","lat":7.18563,"lon":-8.4995,"type":"village"},{"id":"3022813292","name":"Geanplay","lat":7.2282453,"lon":-8.4794967,"type":"village"},{"id":"3022813293","name":"Slangonplay","lat":7.21927,"lon":-8.58602,"type":"village"},{"id":"3022813295","name":"Kpairplay","lat":7.19883,"lon":-8.5545,"type":"village"},{"id":"3022813297","name":"Souplay","lat":7.22009,"lon":-8.4435,"type":"village"},{"id":"3022824729","name":"Boaplay","lat":7.2506166,"lon":-8.5815359,"type":"village"},{"id":"3022824731","name":"Loe Lay","lat":7.24578,"lon":-8.52126,"type":"village"},{"id":"3022824732","name":"Manbor","lat":7.2431453,"lon":-8.5355911,"type":"village"},{"id":"3022835304","name":"Flowin","lat":7.2807274,"lon":-8.6004387,"type":"village"},{"id":"3022854606","name":"Nyoanplay","lat":7.30326,"lon":-8.45434,"type":"village"},{"id":"3022854614","name":"Old Peelar","lat":7.27259,"lon":-8.53419,"type":"village"},{"id":"3022854615","name":"Younlay","lat":7.34096,"lon":-8.44485,"type":"village"},{"id":"3023010372","name":"Dorwuta","lat":6.6542636,"lon":-9.54569,"type":"village"},{"id":"3023010383","name":"Garneo Town","lat":6.6280752,"lon":-9.7503298,"type":"village"},{"id":"3023010429","name":"Whankai's","lat":6.6116248,"lon":-9.6713528,"type":"village"},{"id":"3023062708","name":"Kialay","lat":7.31144,"lon":-8.5395,"type":"village"},{"id":"3023074972","name":"Sanniquellie","lat":7.36127,"lon":-8.71385,"type":"town"},{"id":"3023075170","name":"Ganaglay","lat":7.3543,"lon":-8.51703,"type":"village"},{"id":"3023075171","name":"Zorlepula","lat":7.3367577,"lon":-8.5095776,"type":"village"},{"id":"3023193827","name":"Gblah","lat":7.0087181,"lon":-8.6744268,"type":"village"},{"id":"3023243334","name":"Beadatuo","lat":6.99109,"lon":-8.5961,"type":"village"},{"id":"3023243341","name":"Lorplay","lat":6.9511893,"lon":-8.7141489,"type":"village"},{"id":"3023243343","name":"Beeplay","lat":6.98153,"lon":-8.55392,"type":"village"},{"id":"3023243345","name":"Nyarlay","lat":6.9614453,"lon":-8.4697903,"type":"village"},{"id":"3023309846","name":"Gbarplay","lat":6.9140503,"lon":-8.6727255,"type":"village"},{"id":"3023417232","name":"Toweh Town","lat":6.79556,"lon":-8.66556,"type":"village"},{"id":"3025530971","name":"Glenkomah","lat":6.6841937,"lon":-9.5929133,"type":"village"},{"id":"3025530984","name":"Janyea","lat":6.69953,"lon":-9.53005,"type":"village"},{"id":"3025530994","name":"Geayard Ta","lat":6.7932755,"lon":-9.5701287,"type":"village"},{"id":"3025530997","name":"Gbondoi","lat":6.9411298,"lon":-9.6360805,"type":"village"},{"id":"3025531005","name":"Gongore","lat":6.7275464,"lon":-9.526732,"type":"village"},{"id":"3025531006","name":"Gongobli","lat":6.8377449,"lon":-9.4934862,"type":"village"},{"id":"3025531007","name":"Gwenimah","lat":6.93569,"lon":-9.52973,"type":"village"},{"id":"3025531019","name":"Kandakai","lat":6.903895,"lon":-9.6559592,"type":"village"},{"id":"3025531024","name":"Nyan","lat":6.8417247,"lon":-9.55426,"type":"village"},{"id":"3025531031","name":"Naai I","lat":6.9500252,"lon":-9.5426425,"type":"village"},{"id":"3025531443","name":"S.G. Kollie","lat":7.0099249,"lon":-9.5651214,"type":"town"},{"id":"3025531444","name":"Suacoco","lat":6.9894564,"lon":-9.5815777,"type":"town"},{"id":"3025538409","name":"Duport","lat":6.2637566,"lon":-10.6654008,"type":"village"},{"id":"3025718866","name":"Kpaytuo","lat":6.8081009,"lon":-8.8098996,"type":"village"},{"id":"3025718867","name":"Doumpa","lat":6.8099313,"lon":-8.8818196,"type":"village"},{"id":"3025740060","name":"Loyee","lat":6.8760468,"lon":-8.8211933,"type":"village"},{"id":"3025752323","name":"Gbanquoi","lat":6.9145489,"lon":-8.8426025,"type":"village"},{"id":"3025777855","name":"Mehnpa","lat":6.9863447,"lon":-8.85435,"type":"village"},{"id":"3025777860","name":"Buanplay","lat":6.9594171,"lon":-8.7907018,"type":"village"},{"id":"3025814948","name":"Mehnla","lat":6.81763,"lon":-8.97729,"type":"village"},{"id":"3026032464","name":"Yehkehyee","lat":6.8710699,"lon":-9.0042504,"type":"village"},{"id":"3026032465","name":"Guotoin","lat":6.7458047,"lon":-9.1084543,"type":"village"},{"id":"3026032467","name":"Glehyee Zorpea","lat":6.7796427,"lon":-9.0497466,"type":"village"},{"id":"3026032468","name":"Ganwee","lat":6.74177,"lon":-8.99494,"type":"village"},{"id":"3026032470","name":"Karyee","lat":6.7010789,"lon":-9.0572786,"type":"village"},{"id":"3026283138","name":"Zannah","lat":6.7132414,"lon":-10.4113042,"type":"village"},{"id":"3026291971","name":"Lango Number Two","lat":6.6714841,"lon":-10.3526962,"type":"village"},{"id":"3027064299","name":"Gbenequelleh","lat":6.7437767,"lon":-9.4602926,"type":"village"},{"id":"3027064307","name":"Dolo","lat":6.6934834,"lon":-9.2792279,"type":"village"},{"id":"3027064315","name":"Fobbi","lat":6.831389,"lon":-9.457778,"type":"village"},{"id":"3027064316","name":"Tolomanai","lat":6.8858827,"lon":-9.37986,"type":"village"},{"id":"3027064323","name":"Gbalorkpala","lat":6.68735,"lon":-9.36246,"type":"village"},{"id":"3027064325","name":"Gbaota","lat":7.0047894,"lon":-9.3969829,"type":"village"},{"id":"3027064328","name":"Gbecohn","lat":6.6674388,"lon":-9.4323934,"type":"village"},{"id":"3027064331","name":"Getita","lat":6.998333,"lon":-9.165556,"type":"village"},{"id":"3027064332","name":"Bein Glahn","lat":6.68926,"lon":-9.14591,"type":"village"},{"id":"3027066154","name":"Leleh","lat":6.8700944,"lon":-9.3298461,"type":"village"},{"id":"3027066181","name":"Samay","lat":6.7823488,"lon":-9.4426978,"type":"village"},{"id":"3027066189","name":"Tamay","lat":6.8056659,"lon":-9.4673001,"type":"village"},{"id":"3027066210","name":"Yolota (A)","lat":6.6726975,"lon":-9.1916349,"type":"village"},{"id":"3027066217","name":"Zowieta","lat":6.8147828,"lon":-9.1892105,"type":"town"},{"id":"3029822565","name":"Kuzu","lat":6.1467926,"lon":-10.1404206,"type":"village"},{"id":"3030415511","name":"Foya Tengia","lat":8.2759696,"lon":-10.2797523,"type":"village"},{"id":"3030416735","name":"Hundonin","lat":8.33016,"lon":-10.20774,"type":"village"},{"id":"3030948878","name":"Waka","lat":6.0805272,"lon":-10.0231014,"type":"village"},{"id":"3035133768","name":"Vahn","lat":6.1170607,"lon":-10.170297,"type":"village"},{"id":"3036044885","name":"Careysburg","lat":6.4007193,"lon":-10.5514946,"type":"village"},{"id":"3037075515","name":"Crozierville","lat":6.4514686,"lon":-10.6302949,"type":"village"},{"id":"3037805125","name":"Bowein","lat":6.6077177,"lon":-10.8702174,"type":"village"},{"id":"3038113289","name":"Zargar","lat":6.130139,"lon":-10.2562768,"type":"village"},{"id":"3038140438","name":"Tuahvlankon","lat":6.1619142,"lon":-10.2802814,"type":"village"},{"id":"3039590880","name":"Kondadu","lat":8.4579288,"lon":-9.6417425,"type":"village"},{"id":"3039867311","name":"Gargama","lat":6.57218,"lon":-10.88111,"type":"village"},{"id":"3041968667","name":"Zahnzaye","lat":6.51042,"lon":-9.0926,"type":"village"},{"id":"3042308709","name":"Tempo Village","lat":5.8264589,"lon":-7.5145892,"type":"village"},{"id":"3042816964","name":"Fissibu","lat":7.82108,"lon":-9.46714,"type":"village"},{"id":"3042816968","name":"Kpayea","lat":7.7136528,"lon":-9.385534,"type":"village"},{"id":"3042816969","name":"Sucromu","lat":7.7216579,"lon":-9.4325282,"type":"village"},{"id":"3042816970","name":"Wakesu","lat":7.9825349,"lon":-9.4646366,"type":"village"},{"id":"3043329772","name":"Yarpuah","lat":7.65603,"lon":-9.42483,"type":"village"},{"id":"3043329775","name":"Gbanway","lat":7.68889,"lon":-9.42558,"type":"village"},{"id":"3049397956","name":"Dorgbor","lat":6.00197,"lon":-9.04212,"type":"village"},{"id":"3049397960","name":"Garhn","lat":6.2586508,"lon":-8.9343656,"type":"village"},{"id":"3049440922","name":"Behwalay","lat":6.6519574,"lon":-8.456714,"type":"village"},{"id":"3049440924","name":"Gblor Diallah Town","lat":6.4758531,"lon":-8.7003515,"type":"village"},{"id":"3049440932","name":"Kwipea","lat":6.5445908,"lon":-8.6907147,"type":"village"},{"id":"3049512473","name":"Blemieplay","lat":6.9324144,"lon":-8.3330081,"type":"village"},{"id":"3049512474","name":"Lontuo (Central)","lat":6.99808,"lon":-8.36933,"type":"village"},{"id":"3049512475","name":"Nanlah","lat":7.0051888,"lon":-8.4240121,"type":"village"},{"id":"3049512476","name":"Bluntuo","lat":6.88255,"lon":-8.35836,"type":"village"},{"id":"3049512478","name":"Bongarplay","lat":7.00614,"lon":-8.3080161,"type":"village"},{"id":"3049512480","name":"Buutuo","lat":6.8255347,"lon":-8.3415198,"type":"village"},{"id":"3049512481","name":"Dinplay","lat":6.78972,"lon":-8.39775,"type":"village"},{"id":"3049512484","name":"Frolay","lat":6.7632734,"lon":-8.421039,"type":"village"},{"id":"3049512486","name":"Gomahplay","lat":6.9160493,"lon":-8.3741094,"type":"village"},{"id":"3049512491","name":"Lepula","lat":6.9765974,"lon":-8.41621,"type":"village"},{"id":"3049512495","name":"Butuo","lat":6.8853014,"lon":-8.3934943,"type":"village"},{"id":"3049512497","name":"Tartuo","lat":6.96795,"lon":-8.33962,"type":"village"},{"id":"3049953767","name":"Koilahun","lat":8.4165476,"lon":-9.9798142,"type":"village"},{"id":"3049981381","name":"Kpeloe Ndama","lat":8.36921,"lon":-10.21793,"type":"village"},{"id":"3050130886","name":"Kentorkpoglay","lat":7.4472,"lon":-8.42368,"type":"village"},{"id":"3050130887","name":"Yeaplay","lat":7.36298,"lon":-8.42371,"type":"village"},{"id":"3050177830","name":"Zeanlay #1","lat":7.2576682,"lon":-8.423053,"type":"village"},{"id":"3050177831","name":"Beo-Yoolar","lat":7.0520712,"lon":-8.3201162,"type":"village"},{"id":"3050180033","name":"Ghanaglay","lat":7.0451394,"lon":-8.356076,"type":"village"},{"id":"3050180034","name":"Gbei Vonwea","lat":7.0832007,"lon":-8.4164279,"type":"village"},{"id":"3050180035","name":"Central - Gbenelay","lat":7.0263296,"lon":-8.3293969,"type":"village"},{"id":"3050180038","name":"Tiaplay","lat":7.03275,"lon":-8.43744,"type":"village"},{"id":"3050180047","name":"Yoolar","lat":7.1952845,"lon":-8.4353392,"type":"village"},{"id":"3050180050","name":"Blittuo","lat":7.107115,"lon":-8.4172773,"type":"village"},{"id":"3050270049","name":"Grand Cavalla","lat":4.3619183,"lon":-7.5898409,"type":"village"},{"id":"3051413035","name":"Barkor","lat":6.12786,"lon":-8.58036,"type":"village"},{"id":"3051413042","name":"Gaye Town","lat":6.169167,"lon":-8.474722,"type":"village"},{"id":"3051810996","name":"Gboleken","lat":6.1087917,"lon":-8.1909034,"type":"village"},{"id":"3051810998","name":"Gwein","lat":6.2052955,"lon":-8.3698782,"type":"village"},{"id":"3051811008","name":"New Solo","lat":6.1463176,"lon":-8.2411022,"type":"town"},{"id":"3051811022","name":"Tojallah","lat":6.09257,"lon":-8.31774,"type":"village"},{"id":"3051811025","name":"Tuzon","lat":6.17231,"lon":-8.25015,"type":"village"},{"id":"3051811029","name":"Zai","lat":6.19208,"lon":-8.29534,"type":"village"},{"id":"3052135244","name":"Fargo","lat":5.764722,"lon":-7.855,"type":"village"},{"id":"3054179388","name":"Jarwadee","lat":5.61736,"lon":-8.32163,"type":"village"},{"id":"3054179396","name":"Pennoken","lat":5.59904,"lon":-8.15229,"type":"village"},{"id":"3054179397","name":"Petroken","lat":5.64405,"lon":-8.14184,"type":"village"},{"id":"3054906638","name":"Barclayville","lat":4.6803743,"lon":-8.2332721,"type":"town"},{"id":"3054906644","name":"Big Suehn","lat":4.670904,"lon":-8.1657032,"type":"village"},{"id":"3054906655","name":"Gbarken","lat":4.6296518,"lon":-8.1147514,"type":"village"},{"id":"3054906658","name":"Grand Cess","lat":4.571389,"lon":-8.223056,"type":"town"},{"id":"3054906682","name":"Sasstown","lat":4.675292,"lon":-8.429129,"type":"village"},{"id":"3055126041","name":"Behwan City","lat":4.63838,"lon":-7.86959,"type":"village"},{"id":"3055126042","name":"Blebo","lat":4.72944,"lon":-7.95167,"type":"village"},{"id":"3055126056","name":"Genoyah City","lat":4.58726,"lon":-7.92626,"type":"village"},{"id":"3055126073","name":"Juduken","lat":4.6064029,"lon":-8.0399342,"type":"village"},{"id":"3055126076","name":"Karloken","lat":4.7998157,"lon":-7.7371033,"type":"village"},{"id":"3055126093","name":"Sorroken City","lat":4.72442,"lon":-7.90661,"type":"village"},{"id":"3056026041","name":"Gbon","lat":4.6903923,"lon":-7.63971,"type":"village"},{"id":"3056026045","name":"Yleaken","lat":4.5721981,"lon":-7.6401617,"type":"village"},{"id":"3056026056","name":"Kronoken City","lat":4.8741025,"lon":-7.6201222,"type":"village"},{"id":"3056952828","name":"Blayah","lat":5.8538456,"lon":-9.6961995,"type":"village"},{"id":"3056952831","name":"Duoh #1","lat":5.8147894,"lon":-9.5609861,"type":"village"},{"id":"3056955977","name":"Gblossoebli","lat":5.77512,"lon":-9.5866795,"type":"village"},{"id":"3056956364","name":"Pinyonwroh","lat":5.8458534,"lon":-9.5431186,"type":"village"},{"id":"3056956394","name":"Blamo","lat":5.75442,"lon":-9.60917,"type":"village"},{"id":"3056973320","name":"King Williams","lat":4.8202564,"lon":-8.7194764,"type":"village"},{"id":"3056976038","name":"Tournata","lat":5.1745392,"lon":-9.2860541,"type":"village"},{"id":"3057634400","name":"Panama","lat":4.99128,"lon":-8.9387,"type":"village"},{"id":"3057835232","name":"Gbaweleken","lat":5.02399,"lon":-7.65834,"type":"village"},{"id":"3057841651","name":"Sarbo Sweaken Town","lat":5.12628,"lon":-7.72813,"type":"village"},{"id":"3058008788","name":"Jarkaken","lat":5.3762999,"lon":-7.9933545,"type":"village"},{"id":"3058873477","name":"Garpu Town","lat":5.8705355,"lon":-9.4120976,"type":"village"},{"id":"3060297357","name":"Bombo Junction","lat":7.2843873,"lon":-11.0997783,"type":"village"},{"id":"3060297367","name":"Camp Number 2","lat":6.66978,"lon":-10.1352,"type":"village"},{"id":"3060297385","name":"Zaway","lat":6.28199,"lon":-8.13171,"type":"village"},{"id":"3060297391","name":"Gborkorzen","lat":7.1243355,"lon":-8.6027337,"type":"village"},{"id":"3060297402","name":"Jarwodee","lat":6.16884,"lon":-8.47189,"type":"village"},{"id":"3060297431","name":"New Yekepa","lat":7.5949194,"lon":-8.5587987,"type":"village"},{"id":"3060297701","name":"26 Gate Community","lat":6.493103,"lon":-10.3258205,"type":"village"},{"id":"3060716778","name":"Kanweaken","lat":5.2328841,"lon":-8.012263,"type":"village"},{"id":"3060725618","name":"Fish Town City","lat":5.197873,"lon":-7.8759933,"type":"town"},{"id":"3061653972","name":"Jalay","lat":5.3547,"lon":-8.81252,"type":"village"},{"id":"3061985436","name":"Kabada","lat":4.9892407,"lon":-8.8418358,"type":"village"},{"id":"3062350408","name":"Jarboken","lat":4.9177257,"lon":-8.1993948,"type":"village"},{"id":"3062478172","name":"Karquekpo","lat":4.98547,"lon":-8.64936,"type":"village"},{"id":"3093980164","name":"Bollor Quelleh","lat":6.7131621,"lon":-10.2209896,"type":"village"},{"id":"3093980533","name":"Suamana Town","lat":6.6833,"lon":-10.21826,"type":"village"},{"id":"3093980550","name":"William Town","lat":6.69837,"lon":-10.19996,"type":"town"},{"id":"3097314880","name":"Goahn","lat":6.4106544,"lon":-9.9342182,"type":"village"},{"id":"3097657829","name":"Marblee Town","lat":6.2175233,"lon":-9.9150233,"type":"village"},{"id":"3098561476","name":"Division 28 Cubic Camp","lat":6.4237892,"lon":-10.3339134,"type":"village"},{"id":"3098561481","name":"Division 37","lat":6.3910721,"lon":-10.3154979,"type":"village"},{"id":"3098561483","name":"Division 38","lat":6.3822752,"lon":-10.2782971,"type":"village"},{"id":"3098561490","name":"Division 43 Coordinate","lat":6.33433,"lon":-10.32751,"type":"village"},{"id":"3098616784","name":"Division 29 Camp 1","lat":6.4375499,"lon":-10.2810693,"type":"village"},{"id":"3098616788","name":"Division 31 Camp 2","lat":6.4885366,"lon":-10.2888266,"type":"village"},{"id":"3098820739","name":"Division 9 Old Camp","lat":6.3643718,"lon":-10.3749826,"type":"village"},{"id":"3098820740","name":"Division Nusary Camp","lat":6.3765528,"lon":-10.4711142,"type":"village"},{"id":"3098820767","name":"Mende","lat":6.4009486,"lon":-10.4388453,"type":"village"},{"id":"3098893034","name":"15 Gate Community","lat":6.4024464,"lon":-10.4848899,"type":"village"},{"id":"3098893035","name":"15 Gate Community","lat":6.4048312,"lon":-10.4817487,"type":"village"},{"id":"3099046669","name":"Freeman Reserved","lat":6.44987,"lon":-10.43556,"type":"village"},{"id":"3099046672","name":"Garzon Reccess","lat":6.4038319,"lon":-10.4262043,"type":"village"},{"id":"3099046678","name":"Grimes Farm","lat":6.47423,"lon":-10.40486,"type":"village"},{"id":"3099084100","name":"Bulu","lat":6.4882793,"lon":-10.5447708,"type":"village"},{"id":"3099598606","name":"Betto Token","lat":6.3103038,"lon":-10.2084054,"type":"village"},{"id":"3100290559","name":"Betu City","lat":4.70824,"lon":-8.47609,"type":"village"},{"id":"3100524838","name":"Todien","lat":6.6132305,"lon":-10.8986979,"type":"village"},{"id":"3101374869","name":"Joe Blow Town","lat":6.2521205,"lon":-10.3776576,"type":"village"},{"id":"3101498608","name":"Konwonkpo","lat":5.02229,"lon":-8.56426,"type":"village"},{"id":"3101498615","name":"Old Government camp-D","lat":5.03649,"lon":-8.43829,"type":"village"},{"id":"3102038151","name":"Malomkai's","lat":6.6563887,"lon":-9.6720869,"type":"village"},{"id":"3102040525","name":"Allawala City","lat":5.055382,"lon":-8.1023447,"type":"village"},{"id":"3103225261","name":"Karfah","lat":6.3133249,"lon":-10.4659725,"type":"village"},{"id":"3103489245","name":"Duazon New Town","lat":6.2215627,"lon":-10.5977252,"type":"village"},{"id":"3103489278","name":"UNMIL Based / Camp Scheiffelin","lat":6.21101,"lon":-10.57434,"type":"village"},{"id":"3105236003","name":"Dennis","lat":6.40309,"lon":-10.5611387,"type":"village"},{"id":"3105236753","name":"Govoyalah / Urey Farm","lat":6.40104,"lon":-10.56784,"type":"village"},{"id":"3105634410","name":"Goekorpa / Yeagoan","lat":6.36407,"lon":-9.05574,"type":"village"},{"id":"3107167210","name":"Married Camp","lat":6.74232,"lon":-10.94629,"type":"village"},{"id":"3107167214","name":"Nimba Point","lat":6.72697,"lon":-11.03703,"type":"village"},{"id":"3109750271","name":"Beintorwin","lat":7.651289,"lon":-8.6863514,"type":"village"},{"id":"3109750272","name":"Bololowee","lat":7.68925,"lon":-8.6757807,"type":"village"},{"id":"3110095464","name":"Zoe","lat":6.0571372,"lon":-10.1824989,"type":"village"},{"id":"3110170973","name":"Saye's","lat":6.0902903,"lon":-10.1933483,"type":"village"},{"id":"3110170982","name":"Wrakon","lat":6.0745257,"lon":-10.1608762,"type":"village"},{"id":"3110217821","name":"Yawein Tower Hill Village","lat":6.1246378,"lon":-10.1808313,"type":"village"},{"id":"3110310075","name":"Koto-ta","lat":6.8594051,"lon":-9.9615848,"type":"village"},{"id":"3110344620","name":"Gahn","lat":6.9824326,"lon":-9.8986165,"type":"village"},{"id":"3113526943","name":"Lonfay","lat":6.5828915,"lon":-10.1546677,"type":"village"},{"id":"3115682215","name":"Loma","lat":6.7112016,"lon":-10.0355978,"type":"village"},{"id":"3116431814","name":"Marshansue","lat":6.7267343,"lon":-10.1493636,"type":"village"},{"id":"3116431825","name":"Sugar Hill","lat":6.7644662,"lon":-10.0375378,"type":"village"},{"id":"3118030743","name":"Skinner Village","lat":7.08733,"lon":-11.11137,"type":"village"},{"id":"3118521955","name":"Gold Camp","lat":7.13855,"lon":-10.78387,"type":"village"},{"id":"3121134674","name":"Kpawee I","lat":6.8323163,"lon":-9.5764382,"type":"village"},{"id":"3121372739","name":"Gio Town","lat":5.79505,"lon":-9.85761,"type":"village"},{"id":"3123222307","name":"Lapianoku","lat":7.2855369,"lon":-8.4233731,"type":"village"},{"id":"3124186003","name":"Henry","lat":7.27002,"lon":-10.35086,"type":"village"},{"id":"3129501389","name":"Boundary Town Two","lat":5.88121,"lon":-7.995,"type":"village"},{"id":"3136109052","name":"Geipa","lat":7.4493679,"lon":-8.5193947,"type":"village"},{"id":"3136109056","name":"Nyantuo","lat":7.43337,"lon":-8.47299,"type":"village"},{"id":"3137143507","name":"Nyallie","lat":7.17376,"lon":-9.81797,"type":"village"},{"id":"3137239078","name":"Raymond Ta","lat":7.0839203,"lon":-9.6141669,"type":"village"},{"id":"3137239079","name":"Sammy Community","lat":7.04161,"lon":-9.53286,"type":"village"},{"id":"3145564981","name":"Doe's Village","lat":5.6143774,"lon":-9.3218189,"type":"village"},{"id":"3145820402","name":"Wrakpa / Zinc Camp","lat":6.2583989,"lon":-9.2764662,"type":"village"},{"id":"3157226379","name":"Joezon","lat":6.3062871,"lon":-8.6882651,"type":"village"},{"id":"3157226382","name":"Whayee","lat":6.25227,"lon":-8.71487,"type":"village"},{"id":"3158102607","name":"Kpakamai","lat":8.2970655,"lon":-9.8756903,"type":"village"},{"id":"3158729086","name":"Dean Town / Gold Camp","lat":6.6510994,"lon":-9.2748388,"type":"village"},{"id":"3159520178","name":"Kpasembedu","lat":8.38427,"lon":-10.20539,"type":"village"},{"id":"3159520195","name":"Poluma Pumbor","lat":8.35857,"lon":-10.23675,"type":"village"},{"id":"3159698903","name":"Camp A","lat":5.61949,"lon":-8.97656,"type":"village"},{"id":"3160863167","name":"Danies Village","lat":7.1718646,"lon":-9.0344303,"type":"village"},{"id":"3163967662","name":"Marlay","lat":6.707084,"lon":-8.6574728,"type":"village"},{"id":"3164181287","name":"Tubmanville Mission","lat":4.9970891,"lon":-8.8931002,"type":"village"},{"id":"3164991206","name":"Baylehglay","lat":7.12464,"lon":-8.60228,"type":"village"},{"id":"3165276129","name":"Yorgborsu Community","lat":8.414119,"lon":-9.7712132,"type":"village"},{"id":"3165284669","name":"Kollita","lat":8.44427,"lon":-9.64685,"type":"village"},{"id":"3165744124","name":"Gbobayee #2","lat":7.36121,"lon":-8.61036,"type":"village"},{"id":"3198605239","name":"River Cess","lat":5.4521894,"lon":-9.5817265,"type":"town"},{"id":"4529337830","name":"Bo Waterside","lat":7.0121225,"lon":-11.3744745,"type":"town"},{"id":"4529342557","name":"Carboy Village","lat":7.1709434,"lon":-9.1656904,"type":"village"},{"id":"4529342559","name":"Taryor Village","lat":7.1548924,"lon":-9.0335249,"type":"village"},{"id":"4529342560","name":"Amina","lat":7.0760707,"lon":-11.2695071,"type":"village"},{"id":"4529342561","name":"Foequelleh","lat":7.1271819,"lon":-9.2275739,"type":"village"},{"id":"4529343053","name":"Mckay Town","lat":7.2082534,"lon":-9.2016197,"type":"village"},{"id":"4529347926","name":"Wuo's Town","lat":7.227891,"lon":-8.9394405,"type":"village"},{"id":"4529349196","name":"Gbesseh Fahnbulleh","lat":6.9359701,"lon":-11.3309204,"type":"town"},{"id":"4529353994","name":"Boba Junction","lat":7.1946004,"lon":-11.1898303,"type":"village"},{"id":"4529385892","name":"Hard time village","lat":7.087145,"lon":-9.0556945,"type":"village"},{"id":"4529385893","name":"Wynn farm","lat":7.1061126,"lon":-9.0965394,"type":"village"},{"id":"4529385894","name":"Sembeghun","lat":7.1431854,"lon":-11.3093906,"type":"village"},{"id":"4529393399","name":"Boway town","lat":7.1471929,"lon":-9.161936,"type":"village"},{"id":"4529394647","name":"Yaqui Farm","lat":7.2050838,"lon":-8.9136402,"type":"village"},{"id":"6343101064","name":"Harper","lat":4.3789381,"lon":-7.7060988,"type":"town"},{"id":"6423879118","name":"Kollita Wolah","lat":7.0010282,"lon":-9.4295956,"type":"village"},{"id":"11100647760","name":"ITI","lat":5.6151907,"lon":-9.3201468,"type":"village"}]