[{"id":"30103479","name":"Marche-en-Famenne","lat":50.2270943,"lon":5.3419568,"type":"town"},{"id":"34020481","name":"Martelange","lat":49.8313323,"lon":5.7376366,"type":"village"},{"id":"52932305","name":"Ettelbruck","lat":49.8470016,"lon":6.0984659,"type":"town"},{"id":"52938674","name":"Diekirch","lat":49.8690898,"lon":6.1600549,"type":"town"},{"id":"52939406","name":"Hosingen","lat":50.0143519,"lon":6.0910943,"type":"village"},{"id":"52942189","name":"Schieren","lat":49.8300396,"lon":6.096622,"type":"village"},{"id":"52943358","name":"Luxembourg","lat":49.6112768,"lon":6.129799,"type":"city"},{"id":"60844393","name":"Senningerberg","lat":49.649554,"lon":6.2262751,"type":"village"},{"id":"60844424","name":"Senningen","lat":49.6461134,"lon":6.239363,"type":"village"},{"id":"60844493","name":"Niederanven","lat":49.6512224,"lon":6.2552342,"type":"village"},{"id":"60844619","name":"Oberanven","lat":49.6573221,"lon":6.2447955,"type":"village"},{"id":"60844650","name":"Hostert","lat":49.6580055,"lon":6.2333394,"type":"village"},{"id":"60844675","name":"Rameldange","lat":49.6640315,"lon":6.2305663,"type":"village"},{"id":"60844733","name":"Ernster","lat":49.6803532,"lon":6.2468762,"type":"village"},{"id":"61101176","name":"Sandweiler","lat":49.616081,"lon":6.2173651,"type":"village"},{"id":"61753841","name":"Mersch","lat":49.7506746,"lon":6.1066591,"type":"village"},{"id":"63068708","name":"Walferdange","lat":49.6584806,"lon":6.1306387,"type":"village"},{"id":"63111399","name":"Arlon","lat":49.6834601,"lon":5.8167711,"type":"town"},{"id":"64616759","name":"Bouillon","lat":49.7949836,"lon":5.0672528,"type":"town"},{"id":"64622737","name":"Chiny","lat":49.7382516,"lon":5.3407019,"type":"village"},{"id":"64802907","name":"Bridel","lat":49.6571427,"lon":6.0811313,"type":"village"},{"id":"64803663","name":"Florenville","lat":49.6993182,"lon":5.3100518,"type":"town"},{"id":"64835034","name":"Houffalize","lat":50.1323761,"lon":5.7886928,"type":"town"},{"id":"69621992","name":"Itzig","lat":49.5869326,"lon":6.1723065,"type":"village"},{"id":"69622002","name":"Howald","lat":49.582147,"lon":6.1443593,"type":"village"},{"id":"71644004","name":"Strassen","lat":49.6196726,"lon":6.0721393,"type":"village"},{"id":"73801208","name":"Junglinster","lat":49.7118482,"lon":6.2522878,"type":"village"},{"id":"73802549","name":"Larochette","lat":49.7869673,"lon":6.2189134,"type":"village"},{"id":"77798748","name":"La Roche-en-Ardenne","lat":50.1815604,"lon":5.5759476,"type":"town"},{"id":"79367863","name":"Neufchâteau","lat":49.8404652,"lon":5.4355333,"type":"town"},{"id":"79437044","name":"Saint-Hubert","lat":50.0251428,"lon":5.3738561,"type":"town"},{"id":"79452949","name":"Virton","lat":49.5677263,"lon":5.5329559,"type":"town"},{"id":"88914744","name":"Schengen","lat":49.4716,"lon":6.3659008,"type":"village"},{"id":"95782558","name":"Wasserbillig","lat":49.7143407,"lon":6.5013499,"type":"village"},{"id":"108353083","name":"Mamer","lat":49.6266028,"lon":6.0229288,"type":"village"},{"id":"130103746","name":"Rombach-Martelange","lat":49.8341173,"lon":5.7419097,"type":"village"},{"id":"130933138","name":"Steinsel","lat":49.677469,"lon":6.1244736,"type":"village"},{"id":"132015841","name":"Echternach","lat":49.8120961,"lon":6.4214859,"type":"town"},{"id":"180650109","name":"Wiltz","lat":49.9666914,"lon":5.9321021,"type":"town"},{"id":"181298684","name":"Neuhaeusgen","lat":49.6235312,"lon":6.2396728,"type":"village"},{"id":"181301843","name":"Munsbach","lat":49.6319031,"lon":6.2672692,"type":"village"},{"id":"181302419","name":"Contern","lat":49.5858294,"lon":6.2262883,"type":"village"},{"id":"181549758","name":"Ermsdorf","lat":49.8288206,"lon":6.2214025,"type":"village"},{"id":"203125341","name":"Bettembourg","lat":49.516899,"lon":6.1054552,"type":"town"},{"id":"203133645","name":"Dudelange","lat":49.4786477,"lon":6.0847792,"type":"town"},{"id":"203135674","name":"Peppange","lat":49.524866,"lon":6.1324772,"type":"village"},{"id":"203136349","name":"Livange","lat":49.5307092,"lon":6.1206081,"type":"village"},{"id":"203138318","name":"Hellange","lat":49.509256,"lon":6.1479566,"type":"village"},{"id":"207144830","name":"Morhet","lat":49.9621505,"lon":5.5842091,"type":"village"},{"id":"207144939","name":"Sibret","lat":49.968275,"lon":5.6352461,"type":"village"},{"id":"207145049","name":"Villeroux","lat":49.9786622,"lon":5.654758,"type":"village"},{"id":"207429027","name":"Libramont-Chevigny","lat":49.9156327,"lon":5.3762007,"type":"town"},{"id":"211666375","name":"Senonchamps","lat":50.0000932,"lon":5.6567442,"type":"village"},{"id":"211666376","name":"Chenogne","lat":49.9910259,"lon":5.6195843,"type":"village"},{"id":"211666377","name":"Poisson-Moulin","lat":49.9757598,"lon":5.609944,"type":"village"},{"id":"218155675","name":"Assenois","lat":49.9665098,"lon":5.6815827,"type":"village"},{"id":"245781315","name":"Landscheid","lat":49.9245457,"lon":6.1274064,"type":"village"},{"id":"246771849","name":"Munshausen","lat":50.0330344,"lon":6.0373049,"type":"village"},{"id":"246771873","name":"Drauffelt","lat":50.0169268,"lon":6.0057723,"type":"village"},{"id":"246771917","name":"Bockholtz","lat":50.0118077,"lon":6.0513055,"type":"village"},{"id":"246772275","name":"Siebenaler","lat":50.010087,"lon":6.0261269,"type":"village"},{"id":"247183179","name":"Stegen","lat":49.8294011,"lon":6.1704715,"type":"village"},{"id":"247368754","name":"Schifflange","lat":49.5062732,"lon":6.0118175,"type":"town"},{"id":"247748812","name":"Heinerscheid","lat":50.0943633,"lon":6.087004,"type":"village"},{"id":"247748935","name":"Fischbach","lat":50.0739703,"lon":6.0671393,"type":"village"},{"id":"247749078","name":"Marnach","lat":50.0535944,"lon":6.0621006,"type":"village"},{"id":"247989176","name":"Remich","lat":49.5442267,"lon":6.3676062,"type":"town"},{"id":"247995541","name":"Mondorf-les-Bains","lat":49.5071747,"lon":6.2814238,"type":"village"},{"id":"248198719","name":"Fauvillers","lat":49.8509306,"lon":5.665031,"type":"village"},{"id":"248200361","name":"Bodange","lat":49.8536113,"lon":5.6980437,"type":"village"},{"id":"248200370","name":"Wisembach","lat":49.8440576,"lon":5.7061102,"type":"village"},{"id":"251707435","name":"Vielsalm","lat":50.2842154,"lon":5.9162783,"type":"village"},{"id":"253126803","name":"Steinheim","lat":49.8182577,"lon":6.4756659,"type":"village"},{"id":"256680135","name":"Roodt-sur-Syre","lat":49.6655564,"lon":6.3020341,"type":"village"},{"id":"258414816","name":"Bofferdange","lat":49.6885664,"lon":6.140782,"type":"village"},{"id":"258544208","name":"Tohogne","lat":50.3810361,"lon":5.481405,"type":"village"},{"id":"258546732","name":"Bomal","lat":50.3761975,"lon":5.5229647,"type":"village"},{"id":"258547919","name":"Aisne","lat":50.3558378,"lon":5.5660557,"type":"village"},{"id":"258548511","name":"Mormont","lat":50.3263332,"lon":5.5924651,"type":"village"},{"id":"258560886","name":"Petit-Han","lat":50.3360631,"lon":5.4345873,"type":"village"},{"id":"258561800","name":"Heyd","lat":50.346445,"lon":5.562158,"type":"village"},{"id":"258590211","name":"Barvaux","lat":50.350609,"lon":5.4932843,"type":"village"},{"id":"258591194","name":"Durbuy","lat":50.3524116,"lon":5.456248,"type":"town"},{"id":"258683049","name":"Lintgen","lat":49.7223176,"lon":6.1278945,"type":"village"},{"id":"258694922","name":"Gosseldange","lat":49.7241218,"lon":6.1154456,"type":"village"},{"id":"258705861","name":"Prettingen","lat":49.7170162,"lon":6.1195552,"type":"village"},{"id":"258714607","name":"Greisch","lat":49.7101093,"lon":5.9882445,"type":"village"},{"id":"258725534","name":"Bour","lat":49.7002782,"lon":6.0172013,"type":"village"},{"id":"258726262","name":"Roodt-sur-Eisch","lat":49.6926363,"lon":6.0015455,"type":"village"},{"id":"258748158","name":"Ansembourg","lat":49.7019441,"lon":6.0397258,"type":"village"},{"id":"258802376","name":"Septfontaines","lat":49.7007895,"lon":5.9665551,"type":"village"},{"id":"258806958","name":"Dondelange","lat":49.6888582,"lon":6.0310397,"type":"village"},{"id":"259023029","name":"Schoenfels","lat":49.7185866,"lon":6.0904384,"type":"village"},{"id":"259033249","name":"Keispelt","lat":49.6943078,"lon":6.0683638,"type":"village"},{"id":"259033261","name":"Meispelt","lat":49.6905684,"lon":6.0553641,"type":"village"},{"id":"259041507","name":"Kopstal","lat":49.6645077,"lon":6.0731924,"type":"village"},{"id":"259411644","name":"Kehlen","lat":49.6675477,"lon":6.0357089,"type":"village"},{"id":"259681000","name":"Holzem","lat":49.615754,"lon":5.9911426,"type":"village"},{"id":"259777251","name":"Blaschette","lat":49.7019674,"lon":6.1677816,"type":"village"},{"id":"259777322","name":"Lorentzweiler","lat":49.7011902,"lon":6.1440065,"type":"village"},{"id":"260071248","name":"Tenneville","lat":50.0912605,"lon":5.5240928,"type":"village"},{"id":"260396055","name":"Hunsdorf","lat":49.696364,"lon":6.1303632,"type":"village"},{"id":"260619954","name":"Radelange","lat":49.8425181,"lon":5.7209604,"type":"village"},{"id":"262401352","name":"Reckange","lat":49.7489257,"lon":6.0810682,"type":"village"},{"id":"262406578","name":"Warken","lat":49.8594777,"lon":6.0901686,"type":"village"},{"id":"262443233","name":"Mabompré","lat":50.0988767,"lon":5.7383327,"type":"village"},{"id":"262443234","name":"Bertogne","lat":50.0843345,"lon":5.6676137,"type":"village"},{"id":"262443235","name":"Gives","lat":50.0704698,"lon":5.6380281,"type":"village"},{"id":"262443236","name":"Givroulle","lat":50.0610101,"lon":5.6146467,"type":"village"},{"id":"264252024","name":"Remerschen","lat":49.4885953,"lon":6.3518205,"type":"village"},{"id":"264502271","name":"Hoesdorf","lat":49.8825932,"lon":6.2567988,"type":"village"},{"id":"264505611","name":"Bettel","lat":49.917164,"lon":6.2265645,"type":"village"},{"id":"264599556","name":"Ellange","lat":49.5210112,"lon":6.2977065,"type":"village"},{"id":"264599638","name":"Elvange","lat":49.505652,"lon":6.3155651,"type":"village"},{"id":"264599652","name":"Burmerange","lat":49.4855145,"lon":6.3209572,"type":"village"},{"id":"264599713","name":"Wintrange","lat":49.5014547,"lon":6.3512706,"type":"village"},{"id":"264599742","name":"Schwebsange","lat":49.5108072,"lon":6.3561931,"type":"village"},{"id":"264599761","name":"Filsdorf","lat":49.5346286,"lon":6.2475073,"type":"village"},{"id":"264599762","name":"Bous","lat":49.5557996,"lon":6.3312468,"type":"village"},{"id":"264599763","name":"Assel","lat":49.5546656,"lon":6.3140326,"type":"village"},{"id":"264599775","name":"Dalheim","lat":49.5433592,"lon":6.2601063,"type":"village"},{"id":"264599777","name":"Aspelt","lat":49.5219947,"lon":6.2251304,"type":"village"},{"id":"264599789","name":"Oetrange","lat":49.6000724,"lon":6.2600198,"type":"village"},{"id":"264599809","name":"Moutfort","lat":49.5860644,"lon":6.2597756,"type":"village"},{"id":"264697181","name":"Untereisenbach","lat":50.000321,"lon":6.1449799,"type":"village"},{"id":"264697183","name":"Obereisenbach","lat":50.0088299,"lon":6.1420426,"type":"village"},{"id":"265466889","name":"Differdange","lat":49.5208469,"lon":5.889242,"type":"town"},{"id":"265721067","name":"Pétange","lat":49.5566918,"lon":5.8776052,"type":"town"},{"id":"265721093","name":"Linger","lat":49.5648801,"lon":5.8858425,"type":"village"},{"id":"265721999","name":"Bascharage","lat":49.5712686,"lon":5.912845,"type":"village"},{"id":"266012269","name":"Belvaux","lat":49.5128101,"lon":5.9354153,"type":"village"},{"id":"266012929","name":"Lasauvage","lat":49.5221314,"lon":5.8358283,"type":"village"},{"id":"266014538","name":"Sanem","lat":49.5476008,"lon":5.9272714,"type":"village"},{"id":"266178028","name":"Clemency","lat":49.5977737,"lon":5.8749722,"type":"village"},{"id":"266178144","name":"Sélange","lat":49.6081105,"lon":5.848409,"type":"village"},{"id":"266200751","name":"Soleuvre","lat":49.5207381,"lon":5.9410195,"type":"village"},{"id":"266201026","name":"Boulaide","lat":49.8869853,"lon":5.8151538,"type":"village"},{"id":"266201034","name":"Bigonville","lat":49.8498408,"lon":5.7923719,"type":"village"},{"id":"266201601","name":"Rodange","lat":49.5446067,"lon":5.839409,"type":"village"},{"id":"266201994","name":"Heiderscheid","lat":49.886851,"lon":5.9774229,"type":"village"},{"id":"266202111","name":"Eschdorf","lat":49.884479,"lon":5.9348124,"type":"village"},{"id":"266202167","name":"Lultzhausen","lat":49.9087765,"lon":5.8898706,"type":"village"},{"id":"266202219","name":"Bonnal","lat":49.902328,"lon":5.8883753,"type":"village"},{"id":"266202239","name":"Insenborn","lat":49.8993724,"lon":5.8837911,"type":"village"},{"id":"266202246","name":"Liefrange","lat":49.9101126,"lon":5.8763585,"type":"village"},{"id":"266202968","name":"Grass","lat":49.6306221,"lon":5.8923953,"type":"village"},{"id":"266203232","name":"Koetschette","lat":49.8384624,"lon":5.839242,"type":"village"},{"id":"266203665","name":"Holtz","lat":49.8062237,"lon":5.7903298,"type":"village"},{"id":"266203688","name":"Perlé","lat":49.8092862,"lon":5.7651071,"type":"village"},{"id":"266203943","name":"Rambrouch","lat":49.8298505,"lon":5.8494252,"type":"village"},{"id":"266204016","name":"Hostert","lat":49.8101761,"lon":5.8657938,"type":"village"},{"id":"266204157","name":"Bissen","lat":49.7891516,"lon":6.0662981,"type":"village"},{"id":"266206805","name":"Calmus","lat":49.724936,"lon":5.9634329,"type":"village"},{"id":"266207294","name":"Schweich","lat":49.7229383,"lon":5.9266907,"type":"village"},{"id":"266207838","name":"Elvange","lat":49.7247398,"lon":5.917439,"type":"village"},{"id":"266207854","name":"Tontelange","lat":49.7266352,"lon":5.8099377,"type":"village"},{"id":"266207857","name":"Oberpallen","lat":49.7311188,"lon":5.8408299,"type":"village"},{"id":"266208348","name":"Colpach-Bas","lat":49.7575046,"lon":5.8257055,"type":"village"},{"id":"266208508","name":"Beckerich","lat":49.7307067,"lon":5.8830092,"type":"village"},{"id":"266209187","name":"Hovelange","lat":49.7217004,"lon":5.9065268,"type":"village"},{"id":"266212024","name":"Ehlerange","lat":49.5233302,"lon":5.9645461,"type":"village"},{"id":"266212134","name":"Mondercange","lat":49.5320813,"lon":5.9870253,"type":"village"},{"id":"266212169","name":"Limpach","lat":49.5581701,"lon":5.980019,"type":"village"},{"id":"266325416","name":"Arsdorf","lat":49.8602932,"lon":5.8427926,"type":"village"},{"id":"266325463","name":"Redange","lat":49.7650714,"lon":5.8914033,"type":"village"},{"id":"266325464","name":"Ospern","lat":49.7832892,"lon":5.9029086,"type":"village"},{"id":"266325492","name":"Ell","lat":49.7628457,"lon":5.854027,"type":"village"},{"id":"266325516","name":"Noerdange","lat":49.7418119,"lon":5.9241757,"type":"village"},{"id":"266325569","name":"Bettborn","lat":49.7949702,"lon":5.9393932,"type":"village"},{"id":"266325570","name":"Rippweiler","lat":49.7504327,"lon":5.9556113,"type":"village"},{"id":"266325597","name":"Saeul","lat":49.7277779,"lon":5.9854867,"type":"village"},{"id":"266325614","name":"Niederpallen","lat":49.7544254,"lon":5.9116659,"type":"village"},{"id":"266325696","name":"Attert","lat":49.7514982,"lon":5.7872217,"type":"village"},{"id":"266325847","name":"Nothomb","lat":49.7717529,"lon":5.7861375,"type":"village"},{"id":"266396217","name":"Kahler","lat":49.6315445,"lon":5.917651,"type":"village"},{"id":"266397969","name":"Abweiler","lat":49.532978,"lon":6.080064,"type":"village"},{"id":"266570549","name":"Dippach","lat":49.587507,"lon":5.9814794,"type":"village"},{"id":"266582815","name":"Ehnen","lat":49.6020397,"lon":6.3866958,"type":"village"},{"id":"266582830","name":"Canach","lat":49.6078937,"lon":6.3215061,"type":"village"},{"id":"266681785","name":"Leudelange","lat":49.5660842,"lon":6.0673211,"type":"village"},{"id":"266689158","name":"Pontpierre","lat":49.5344949,"lon":6.0294737,"type":"village"},{"id":"266689161","name":"Bergem","lat":49.5266724,"lon":6.0402541,"type":"village"},{"id":"266689162","name":"Huncherange","lat":49.5169484,"lon":6.0633888,"type":"village"},{"id":"266689163","name":"Noertzange","lat":49.5086667,"lon":6.0531258,"type":"village"},{"id":"266689422","name":"Wickrange","lat":49.5423438,"lon":6.0198557,"type":"village"},{"id":"266689457","name":"Reckange-sur-Mess","lat":49.5611874,"lon":6.0093091,"type":"village"},{"id":"266689736","name":"Bettange-sur-Mess","lat":49.5750478,"lon":5.9842427,"type":"village"},{"id":"266689774","name":"Sprinkange","lat":49.5798472,"lon":5.9649706,"type":"village"},{"id":"266689775","name":"Schouweiler","lat":49.5807667,"lon":5.9573114,"type":"village"},{"id":"266689777","name":"Hautcharage","lat":49.5758993,"lon":5.9098031,"type":"village"},{"id":"266689780","name":"Dahlem","lat":49.5978119,"lon":5.9461806,"type":"village"},{"id":"266689784","name":"Hivange","lat":49.60564,"lon":5.9299356,"type":"village"},{"id":"266689786","name":"Fingig","lat":49.602859,"lon":5.900194,"type":"village"},{"id":"266689790","name":"Garnich","lat":49.6141671,"lon":5.9506057,"type":"village"},{"id":"266690049","name":"Kleinbettingen","lat":49.6446539,"lon":5.9154984,"type":"village"},{"id":"266690146","name":"Hagen","lat":49.6491861,"lon":5.9310772,"type":"village"},{"id":"266690162","name":"Steinfort","lat":49.6598008,"lon":5.9142778,"type":"village"},{"id":"266690312","name":"Koerich","lat":49.6697542,"lon":5.949443,"type":"village"},{"id":"266690451","name":"Goeblange","lat":49.6696674,"lon":5.9644045,"type":"village"},{"id":"266690587","name":"Goetzingen","lat":49.6598447,"lon":5.9812219,"type":"village"},{"id":"266690737","name":"Olm","lat":49.6570286,"lon":5.9993613,"type":"village"},{"id":"266691257","name":"Eischen","lat":49.6831417,"lon":5.8767201,"type":"village"},{"id":"267038552","name":"Colpach-Haut","lat":49.7673876,"lon":5.8197833,"type":"village"},{"id":"267038555","name":"Petit-Nobressart","lat":49.7791588,"lon":5.8104519,"type":"village"},{"id":"267550059","name":"Helmdange","lat":49.6926081,"lon":6.1416258,"type":"village"},{"id":"267550150","name":"Heisdorf","lat":49.6689165,"lon":6.1409392,"type":"village"},{"id":"267741768","name":"Lamadelaine","lat":49.5484042,"lon":5.8550303,"type":"village"},{"id":"267742365","name":"Foetz","lat":49.5219642,"lon":6.0118671,"type":"village"},{"id":"267742953","name":"Roedgen","lat":49.5741994,"lon":6.034698,"type":"village"},{"id":"268010912","name":"Ehlange","lat":49.5481467,"lon":6.0156718,"type":"village"},{"id":"268012630","name":"Kayl","lat":49.4861302,"lon":6.041472,"type":"village"},{"id":"268102894","name":"Reichlange","lat":49.7730254,"lon":5.9269974,"type":"village"},{"id":"268302531","name":"Dippach-Gare","lat":49.5728826,"lon":5.9959098,"type":"village"},{"id":"268621544","name":"Wellenstein","lat":49.5248352,"lon":6.342525,"type":"village"},{"id":"268621605","name":"Stadtbredimus","lat":49.5650843,"lon":6.3634808,"type":"village"},{"id":"268621704","name":"Greiveldange","lat":49.5860848,"lon":6.3595781,"type":"village"},{"id":"268622467","name":"Ahn","lat":49.6275608,"lon":6.421059,"type":"village"},{"id":"268622484","name":"Niederdonven","lat":49.6334648,"lon":6.4025808,"type":"village"},{"id":"268622740","name":"Machtum","lat":49.6590681,"lon":6.4353938,"type":"village"},{"id":"268622788","name":"Grevenmacher","lat":49.679313,"lon":6.4430979,"type":"town"},{"id":"268622853","name":"Biwer","lat":49.7058978,"lon":6.3729847,"type":"village"},{"id":"268622887","name":"Manternach","lat":49.7071605,"lon":6.4243373,"type":"village"},{"id":"268622929","name":"Münschecker","lat":49.699166,"lon":6.4414163,"type":"village"},{"id":"268623453","name":"Lellig","lat":49.7205332,"lon":6.4347807,"type":"village"},{"id":"268623460","name":"Berbourg","lat":49.7342731,"lon":6.3930416,"type":"village"},{"id":"268623562","name":"Mertert","lat":49.7002005,"lon":6.4815968,"type":"village"},{"id":"268623740","name":"Herborn","lat":49.7475118,"lon":6.4280311,"type":"village"},{"id":"268623771","name":"Consdorf","lat":49.7798323,"lon":6.3382466,"type":"village"},{"id":"268623828","name":"Scheidgen","lat":49.7805908,"lon":6.3602739,"type":"village"},{"id":"268623832","name":"Osweiler","lat":49.7857994,"lon":6.440125,"type":"village"},{"id":"268623847","name":"Dickweiler","lat":49.7837121,"lon":6.4721211,"type":"village"},{"id":"268625028","name":"Pissange","lat":49.5484564,"lon":6.0002642,"type":"village"},{"id":"268808354","name":"Kehmen","lat":49.9000432,"lon":6.036158,"type":"village"},{"id":"268808386","name":"Scheidel","lat":49.8929057,"lon":6.0439392,"type":"village"},{"id":"268808486","name":"Tadler","lat":49.9106016,"lon":5.9935001,"type":"village"},{"id":"268808487","name":"Ringel","lat":49.9158523,"lon":6.0105804,"type":"village"},{"id":"268808529","name":"Dirbach","lat":49.9202735,"lon":6.0362438,"type":"village"},{"id":"268808550","name":"Schlindermanderscheid","lat":49.9323297,"lon":6.0614598,"type":"village"},{"id":"268808700","name":"Lipperscheid","lat":49.9172892,"lon":6.0852531,"type":"village"},{"id":"268808882","name":"Welscheid","lat":49.8869484,"lon":6.0655768,"type":"village"},{"id":"268808937","name":"Burden","lat":49.8822678,"lon":6.0974931,"type":"village"},{"id":"268809076","name":"Niederfeulen","lat":49.8554676,"lon":6.0457528,"type":"village"},{"id":"268809151","name":"Mertzig","lat":49.8309168,"lon":6.0041083,"type":"village"},{"id":"268809152","name":"Buschrodt","lat":49.8260698,"lon":5.9341053,"type":"village"},{"id":"268809195","name":"Grosbous","lat":49.8275648,"lon":5.9644035,"type":"village"},{"id":"268809202","name":"Wahl","lat":49.8356744,"lon":5.9054353,"type":"village"},{"id":"268809354","name":"Grevels","lat":49.8514998,"lon":5.9136079,"type":"village"},{"id":"268809360","name":"Heispelt","lat":49.8564149,"lon":5.8790841,"type":"village"},{"id":"268809415","name":"Brattert","lat":49.8548857,"lon":5.9020286,"type":"village"},{"id":"268809426","name":"Rindschleiden","lat":49.8493729,"lon":5.8997753,"type":"village"},{"id":"268809505","name":"Kuborn","lat":49.8695713,"lon":5.900803,"type":"village"},{"id":"268809541","name":"Neunhausen","lat":49.8765964,"lon":5.8862118,"type":"village"},{"id":"268809580","name":"Dellen","lat":49.8582292,"lon":5.9598545,"type":"village"},{"id":"268809620","name":"Merscheid","lat":49.8711374,"lon":5.9716901,"type":"village"},{"id":"268809654","name":"Eschette","lat":49.8228029,"lon":5.8872417,"type":"village"},{"id":"268809655","name":"Folschette","lat":49.8137761,"lon":5.8735947,"type":"village"},{"id":"268809944","name":"Pratz","lat":49.8023544,"lon":5.9371695,"type":"village"},{"id":"268810064","name":"Michelbouch","lat":49.8186815,"lon":6.0190477,"type":"village"},{"id":"268975514","name":"Baschleiden","lat":49.8994395,"lon":5.8187084,"type":"village"},{"id":"268975519","name":"Surré","lat":49.9020779,"lon":5.7789604,"type":"village"},{"id":"268975551","name":"Harlange","lat":49.9313844,"lon":5.7876377,"type":"village"},{"id":"268975599","name":"Bavigne","lat":49.9210375,"lon":5.8480567,"type":"village"},{"id":"268975875","name":"Watrange","lat":49.943722,"lon":5.7865338,"type":"village"},{"id":"268976669","name":"Tarchamps","lat":49.9502968,"lon":5.7947753,"type":"village"},{"id":"268976738","name":"Kaundorf","lat":49.9201383,"lon":5.9012876,"type":"village"},{"id":"268976833","name":"Mecher","lat":49.9229571,"lon":5.8725301,"type":"village"},{"id":"268976989","name":"Nothum","lat":49.9404562,"lon":5.882023,"type":"village"},{"id":"268977017","name":"Berlé","lat":49.9521537,"lon":5.8569906,"type":"village"},{"id":"268977035","name":"Roullingen","lat":49.9547712,"lon":5.923396,"type":"village"},{"id":"268977134","name":"Büderscheid","lat":49.9345,"lon":5.9366771,"type":"village"},{"id":"268977209","name":"Dahl","lat":49.9350122,"lon":5.974212,"type":"village"},{"id":"268977287","name":"Goesdorf","lat":49.9206113,"lon":5.9668241,"type":"village"},{"id":"268977296","name":"Bockholtz","lat":49.9230106,"lon":5.9961209,"type":"village"},{"id":"268977303","name":"Nocher","lat":49.9462442,"lon":5.9785252,"type":"village"},{"id":"268977402","name":"Kautenbach","lat":49.9528348,"lon":6.0180937,"type":"village"},{"id":"269127500","name":"Fentange","lat":49.5673921,"lon":6.1516345,"type":"village"},{"id":"269168427","name":"Gonderange","lat":49.692659,"lon":6.2443508,"type":"village"},{"id":"269238148","name":"Grendel","lat":49.7546351,"lon":5.8066036,"type":"village"},{"id":"269243288","name":"Frisange","lat":49.5144142,"lon":6.1903089,"type":"village"},{"id":"269338298","name":"Graulinster","lat":49.7400083,"lon":6.287662,"type":"village"},{"id":"269465252","name":"Longchamps","lat":50.0535428,"lon":5.6892466,"type":"village"},{"id":"269465256","name":"Foy","lat":50.0444655,"lon":5.750571,"type":"village"},{"id":"270154612","name":"Roodt","lat":49.7942406,"lon":5.8217518,"type":"village"},{"id":"270154625","name":"Lannen","lat":49.788523,"lon":5.8381975,"type":"village"},{"id":"270154648","name":"Nagem","lat":49.7866325,"lon":5.8561339,"type":"village"},{"id":"270157403","name":"Reimberg","lat":49.7959582,"lon":5.9520428,"type":"village"},{"id":"270157535","name":"Platen","lat":49.7932083,"lon":5.935136,"type":"village"},{"id":"270157581","name":"Schandel","lat":49.7919689,"lon":5.9748723,"type":"village"},{"id":"270157920","name":"Vichten","lat":49.8025509,"lon":5.9963314,"type":"village"},{"id":"270158950","name":"Everlange","lat":49.7748444,"lon":5.954446,"type":"village"},{"id":"270158951","name":"Useldange","lat":49.7696681,"lon":5.9815427,"type":"village"},{"id":"270160416","name":"Kapweiler","lat":49.7397514,"lon":5.9705857,"type":"village"},{"id":"270558512","name":"Rumelange","lat":49.461113,"lon":6.0307171,"type":"village"},{"id":"270558572","name":"Tétange","lat":49.4728607,"lon":6.0401965,"type":"village"},{"id":"270789821","name":"Bonnert","lat":49.7107729,"lon":5.8190143,"type":"village"},{"id":"270789861","name":"Frassem","lat":49.6994665,"lon":5.8287856,"type":"village"},{"id":"270790610","name":"Guirsch","lat":49.7193575,"lon":5.853381,"type":"village"},{"id":"270793728","name":"Levelange","lat":49.7388886,"lon":5.8556572,"type":"village"},{"id":"270793738","name":"Huttange","lat":49.7357544,"lon":5.8977509,"type":"village"},{"id":"270798269","name":"Gaichel","lat":49.6941207,"lon":5.868994,"type":"village"},{"id":"270800099","name":"Athus","lat":49.5615482,"lon":5.8306932,"type":"village"},{"id":"270800544","name":"Messancy","lat":49.5949862,"lon":5.8145736,"type":"village"},{"id":"271326034","name":"Berchem","lat":49.5398315,"lon":6.1295194,"type":"village"},{"id":"271326052","name":"Bivange","lat":49.5455084,"lon":6.1335439,"type":"village"},{"id":"271326069","name":"Roeser","lat":49.5423193,"lon":6.1471163,"type":"village"},{"id":"271326114","name":"Crauthem","lat":49.536796,"lon":6.1456556,"type":"village"},{"id":"271326180","name":"Weiler-la-Tour","lat":49.5416974,"lon":6.1995573,"type":"village"},{"id":"271326241","name":"Hassel","lat":49.5515468,"lon":6.2065685,"type":"village"},{"id":"271915556","name":"Bourglinster","lat":49.7031723,"lon":6.2175255,"type":"village"},{"id":"271916344","name":"Imbringen","lat":49.7000235,"lon":6.1931571,"type":"village"},{"id":"271917848","name":"Eisenborn","lat":49.6912214,"lon":6.1845239,"type":"village"},{"id":"272479479","name":"Fennange","lat":49.5187583,"lon":6.0771412,"type":"village"},{"id":"272481192","name":"Altwies","lat":49.5106707,"lon":6.2564471,"type":"village"},{"id":"272482217","name":"Émerange","lat":49.4866576,"lon":6.2907534,"type":"village"},{"id":"272739354","name":"Altrier","lat":49.7510661,"lon":6.3275859,"type":"village"},{"id":"272739570","name":"Rippig","lat":49.739953,"lon":6.3183782,"type":"village"},{"id":"272739941","name":"Colbette","lat":49.7676517,"lon":6.3005843,"type":"village"},{"id":"272740121","name":"Beidweiler","lat":49.7282221,"lon":6.3021683,"type":"village"},{"id":"272740251","name":"Hemstal","lat":49.7398122,"lon":6.3348459,"type":"village"},{"id":"272740326","name":"Zittig","lat":49.745113,"lon":6.3439722,"type":"village"},{"id":"272740525","name":"Bech","lat":49.7520112,"lon":6.3626568,"type":"village"},{"id":"272740647","name":"Brouch","lat":49.7283208,"lon":6.3402616,"type":"village"},{"id":"272741061","name":"Boudler","lat":49.7225215,"lon":6.3542075,"type":"village"},{"id":"273182047","name":"Berdorf","lat":49.822329,"lon":6.35096,"type":"village"},{"id":"273184819","name":"Grundhof","lat":49.8352307,"lon":6.3304612,"type":"village"},{"id":"273185824","name":"Waldbillig","lat":49.7952998,"lon":6.2865589,"type":"village"},{"id":"273185844","name":"Christnach","lat":49.7890058,"lon":6.2739808,"type":"village"},{"id":"275607660","name":"Capellen","lat":49.6453476,"lon":5.9876235,"type":"village"},{"id":"275701010","name":"Cruchten","lat":49.7996586,"lon":6.1312383,"type":"village"},{"id":"275703355","name":"Schrondweiler","lat":49.805821,"lon":6.1556417,"type":"village"},{"id":"275806259","name":"Wilwerwiltz","lat":49.9876952,"lon":6.0002581,"type":"village"},{"id":"276033178","name":"Alzingen","lat":49.5677751,"lon":6.1650753,"type":"village"},{"id":"276120172","name":"Bertrange","lat":49.6106029,"lon":6.0501598,"type":"village"},{"id":"277797516","name":"Châtillon","lat":49.6255848,"lon":5.6983633,"type":"village"},{"id":"277797645","name":"Meix-le-Tige","lat":49.6151951,"lon":5.7187012,"type":"village"},{"id":"277797720","name":"Saint-Léger","lat":49.6134362,"lon":5.6569569,"type":"village"},{"id":"278183261","name":"Mussy-la-Ville","lat":49.5714143,"lon":5.6617004,"type":"village"},{"id":"278183264","name":"Signeulx","lat":49.5528606,"lon":5.6403955,"type":"village"},{"id":"279550179","name":"Neidhausen","lat":50.0285451,"lon":6.0655924,"type":"village"},{"id":"279603699","name":"Willancourt","lat":49.5791317,"lon":5.699712,"type":"village"},{"id":"279606585","name":"Bleid","lat":49.5680419,"lon":5.6272894,"type":"village"},{"id":"279750811","name":"Musson","lat":49.5580794,"lon":5.705881,"type":"village"},{"id":"279765751","name":"Halanzy","lat":49.5590364,"lon":5.7422467,"type":"village"},{"id":"279765817","name":"Aix-sur-Cloie","lat":49.5753506,"lon":5.7818844,"type":"village"},{"id":"279776518","name":"Battincourt","lat":49.5817759,"lon":5.7594599,"type":"village"},{"id":"279884470","name":"Rachecourt","lat":49.5903125,"lon":5.7248143,"type":"village"},{"id":"279893767","name":"Aubange","lat":49.5671953,"lon":5.8044993,"type":"town"},{"id":"279895589","name":"Wolwelange","lat":49.8278112,"lon":5.7638754,"type":"village"},{"id":"280241846","name":"Tavigny","lat":50.1082104,"lon":5.8378504,"type":"village"},{"id":"280535356","name":"Fouches","lat":49.688035,"lon":5.7099392,"type":"village"},{"id":"280535357","name":"Sampont","lat":49.684592,"lon":5.6991893,"type":"village"},{"id":"280535358","name":"Vance","lat":49.6704824,"lon":5.6660138,"type":"village"},{"id":"280535380","name":"Étalle","lat":49.6729093,"lon":5.59844,"type":"village"},{"id":"280666677","name":"Altlinster","lat":49.721522,"lon":6.216248,"type":"village"},{"id":"280815799","name":"Wolkrange","lat":49.6349978,"lon":5.7982447,"type":"village"},{"id":"280815832","name":"Udange","lat":49.6375041,"lon":5.7726354,"type":"village"},{"id":"281240901","name":"Sainte-Marie","lat":49.6732168,"lon":5.5644887,"type":"village"},{"id":"281240916","name":"Tintigny","lat":49.6820986,"lon":5.5185152,"type":"village"},{"id":"281240952","name":"Frenois","lat":49.6927261,"lon":5.4496327,"type":"village"},{"id":"281240986","name":"Jamoigne","lat":49.6958089,"lon":5.420477,"type":"village"},{"id":"281266055","name":"Valansart","lat":49.6847401,"lon":5.41452,"type":"village"},{"id":"281266077","name":"Bellefontaine","lat":49.6649541,"lon":5.4979103,"type":"village"},{"id":"281266100","name":"Gérouville","lat":49.6184295,"lon":5.4287902,"type":"village"},{"id":"281266357","name":"Meix-devant-Virton","lat":49.6055933,"lon":5.4816156,"type":"village"},{"id":"281266399","name":"Houdrigny","lat":49.5765207,"lon":5.4948585,"type":"village"},{"id":"281276011","name":"Dampicourt","lat":49.5553011,"lon":5.4979579,"type":"village"},{"id":"281276102","name":"Gomery","lat":49.5642295,"lon":5.593888,"type":"village"},{"id":"281276104","name":"Ruette","lat":49.5376723,"lon":5.5937884,"type":"village"},{"id":"282935061","name":"Freylange","lat":49.6983033,"lon":5.7669857,"type":"village"},{"id":"282935065","name":"Viville","lat":49.6988163,"lon":5.7933791,"type":"village"},{"id":"282935103","name":"Heinsch","lat":49.7007526,"lon":5.7464566,"type":"village"},{"id":"282947258","name":"Chantemelle","lat":49.6535106,"lon":5.6551334,"type":"village"},{"id":"282953887","name":"Ethe","lat":49.5818622,"lon":5.5797776,"type":"village"},{"id":"283050915","name":"Saint-Mard","lat":49.555757,"lon":5.529887,"type":"village"},{"id":"283050920","name":"Latour","lat":49.5581925,"lon":5.5704642,"type":"village"},{"id":"283327783","name":"Forrières","lat":50.1324941,"lon":5.2842239,"type":"village"},{"id":"283404790","name":"Sommethonne","lat":49.5764582,"lon":5.4456876,"type":"village"},{"id":"283404792","name":"Villers-la-Loue","lat":49.5745145,"lon":5.4812201,"type":"village"},{"id":"286851457","name":"Gilsdorf","lat":49.8664616,"lon":6.1823104,"type":"village"},{"id":"286855018","name":"Bettendorf","lat":49.8756671,"lon":6.2171675,"type":"village"},{"id":"286855291","name":"Reisdorf","lat":49.8673199,"lon":6.2658927,"type":"village"},{"id":"286856408","name":"Eppeldorf","lat":49.8457757,"lon":6.2478059,"type":"village"},{"id":"286859109","name":"Haller","lat":49.8197535,"lon":6.2827266,"type":"village"},{"id":"287049808","name":"Blumenthal","lat":49.7445728,"lon":6.2661051,"type":"village"},{"id":"287049854","name":"Reuland","lat":49.7525547,"lon":6.2615784,"type":"village"},{"id":"287050451","name":"Godbrange","lat":49.7348105,"lon":6.2305532,"type":"village"},{"id":"287963077","name":"Nospelt","lat":49.6745371,"lon":6.0079507,"type":"village"},{"id":"289117916","name":"Bérismenil","lat":50.1788508,"lon":5.6652294,"type":"village"},{"id":"289117917","name":"Samrée","lat":50.209256,"lon":5.6394828,"type":"village"},{"id":"289118441","name":"Nadrin","lat":50.1608117,"lon":5.6809237,"type":"village"},{"id":"289182356","name":"Rodenbourg","lat":49.6868765,"lon":6.2904101,"type":"village"},{"id":"289185602","name":"Bigelbach","lat":49.8603403,"lon":6.2867287,"type":"village"},{"id":"289374984","name":"Lellingen","lat":49.9831719,"lon":6.0137961,"type":"village"},{"id":"289375762","name":"Pintsch","lat":49.9936497,"lon":6.011206,"type":"village"},{"id":"289378126","name":"Wahlhausen","lat":49.9848271,"lon":6.1253081,"type":"village"},{"id":"289379217","name":"Brandenbourg","lat":49.9111152,"lon":6.1389134,"type":"village"},{"id":"289379578","name":"Longsdorf","lat":49.8969614,"lon":6.2061514,"type":"village"},{"id":"289379933","name":"Walsdorf","lat":49.925288,"lon":6.1725916,"type":"village"},{"id":"289379989","name":"Fouhren","lat":49.9137955,"lon":6.1951192,"type":"village"},{"id":"289380672","name":"Tandel","lat":49.8974652,"lon":6.1824934,"type":"village"},{"id":"289669426","name":"Welfrange","lat":49.5399853,"lon":6.285526,"type":"village"},{"id":"289669929","name":"Waldbredimus","lat":49.5572304,"lon":6.287091,"type":"village"},{"id":"289852568","name":"Syren","lat":49.563559,"lon":6.2195943,"type":"village"},{"id":"289857087","name":"Moesdorf","lat":49.7685931,"lon":6.1148399,"type":"village"},{"id":"289857091","name":"Pettingen","lat":49.7703854,"lon":6.1071883,"type":"village"},{"id":"289857854","name":"Medernach","lat":49.8090012,"lon":6.2147878,"type":"village"},{"id":"289858179","name":"Heffingen","lat":49.7707883,"lon":6.2405201,"type":"village"},{"id":"289929073","name":"Eselborn","lat":50.0624375,"lon":6.0015233,"type":"village"},{"id":"290076529","name":"Rolling","lat":49.5503714,"lon":6.3167592,"type":"village"},{"id":"290076703","name":"Erpeldange","lat":49.5455492,"lon":6.3273928,"type":"village"},{"id":"290495084","name":"Toernich","lat":49.6512359,"lon":5.7795299,"type":"village"},{"id":"290495239","name":"Habergy","lat":49.6153377,"lon":5.7608307,"type":"village"},{"id":"290595707","name":"Winseler","lat":49.9669968,"lon":5.8899696,"type":"village"},{"id":"290595992","name":"Merkholtz","lat":49.9622044,"lon":5.9803842,"type":"village"},{"id":"290596154","name":"Consthum","lat":49.9739101,"lon":6.0525454,"type":"village"},{"id":"290637349","name":"Rouvroy","lat":49.539075,"lon":5.48971,"type":"village"},{"id":"290637351","name":"Harnoncourt","lat":49.534288,"lon":5.4996797,"type":"village"},{"id":"290961902","name":"Enscherange","lat":49.9989181,"lon":5.9895173,"type":"village"},{"id":"291280714","name":"Stolzembourg","lat":49.9657021,"lon":6.1674898,"type":"village"},{"id":"291286417","name":"Putscheid","lat":49.9593737,"lon":6.1412236,"type":"village"},{"id":"291287941","name":"Nachtmanderscheid","lat":49.9476946,"lon":6.1282738,"type":"village"},{"id":"291568753","name":"Holzthum","lat":49.9850142,"lon":6.0734226,"type":"village"},{"id":"291588999","name":"Roder","lat":50.0554624,"lon":6.0827797,"type":"village"},{"id":"291685768","name":"Weicherdange","lat":50.0379777,"lon":5.9875001,"type":"village"},{"id":"291686270","name":"Mecher","lat":50.0403174,"lon":6.0159035,"type":"village"},{"id":"291686556","name":"Dorscheid","lat":50.036388,"lon":6.0730046,"type":"village"},{"id":"292129645","name":"Habay-la-Neuve","lat":49.730978,"lon":5.6528207,"type":"village"},{"id":"292129723","name":"Habay-la-Vieille","lat":49.7228424,"lon":5.6225107,"type":"village"},{"id":"292129725","name":"Houdemont","lat":49.7189016,"lon":5.5843337,"type":"village"},{"id":"292353272","name":"Buzenol","lat":49.6462297,"lon":5.5964178,"type":"village"},{"id":"292660179","name":"Hotton","lat":50.2688011,"lon":5.4463304,"type":"village"},{"id":"292671869","name":"Manhay","lat":50.29305,"lon":5.6761462,"type":"village"},{"id":"292879793","name":"Drinklange","lat":50.1331371,"lon":6.0173885,"type":"village"},{"id":"292879794","name":"Wilwerdange","lat":50.1394707,"lon":6.0227585,"type":"village"},{"id":"292879795","name":"Huldange","lat":50.1637143,"lon":6.014087,"type":"village"},{"id":"292879796","name":"Basbellain","lat":50.1451768,"lon":5.9844215,"type":"village"},{"id":"292879797","name":"Hautbellain","lat":50.1559422,"lon":5.9773143,"type":"village"},{"id":"292879798","name":"Goedange","lat":50.148149,"lon":6.0125711,"type":"village"},{"id":"293597630","name":"Alscheid","lat":49.9699596,"lon":6.0071631,"type":"village"},{"id":"293602051","name":"Gralingen","lat":49.9364665,"lon":6.0997258,"type":"village"},{"id":"294235834","name":"Ottré","lat":50.2485503,"lon":5.8365336,"type":"village"},{"id":"294261624","name":"Salmchâteau","lat":50.2655068,"lon":5.9058848,"type":"village"},{"id":"294590659","name":"Chenois","lat":49.5576903,"lon":5.5489041,"type":"village"},{"id":"294934496","name":"Angelsberg","lat":49.7648732,"lon":6.1620138,"type":"village"},{"id":"294935849","name":"Beringen","lat":49.7604285,"lon":6.1162028,"type":"village"},{"id":"294936324","name":"Schoos","lat":49.7506504,"lon":6.1690343,"type":"village"},{"id":"294936623","name":"Ernzen","lat":49.7719523,"lon":6.221686,"type":"village"},{"id":"295245064","name":"Hupperdange","lat":50.0959489,"lon":6.0568365,"type":"village"},{"id":"295943063","name":"Helmsange","lat":49.6626463,"lon":6.1370064,"type":"village"},{"id":"298332914","name":"Hersberg","lat":49.7571514,"lon":6.3282435,"type":"village"},{"id":"299001482","name":"Maboge","lat":50.1686557,"lon":5.6279098,"type":"village"},{"id":"299101099","name":"Mensdorf","lat":49.6550468,"lon":6.3028809,"type":"village"},{"id":"299416383","name":"Wincrange","lat":50.0534989,"lon":5.9146753,"type":"village"},{"id":"299416629","name":"Hamiville","lat":50.0457411,"lon":5.9025332,"type":"village"},{"id":"299536016","name":"Derenbach","lat":50.0138393,"lon":5.887628,"type":"village"},{"id":"301317280","name":"Halma","lat":50.0754135,"lon":5.1374206,"type":"village"},{"id":"303255349","name":"Troisvierges","lat":50.1212652,"lon":6.0020737,"type":"town"},{"id":"303359125","name":"Wellin","lat":50.0822967,"lon":5.1146708,"type":"village"},{"id":"303761325","name":"Lamouline","lat":49.8954292,"lon":5.3871037,"type":"village"},{"id":"303761326","name":"Saint-Pierre","lat":49.9047868,"lon":5.386433,"type":"village"},{"id":"303761330","name":"Hamipré","lat":49.8359615,"lon":5.4564462,"type":"village"},{"id":"303765015","name":"Bernimont","lat":49.810564,"lon":5.4811649,"type":"village"},{"id":"303765016","name":"Assenois","lat":49.8029977,"lon":5.4625426,"type":"village"},{"id":"303765060","name":"Rossignol","lat":49.718767,"lon":5.4851582,"type":"village"},{"id":"303765070","name":"Breuvanne","lat":49.6932239,"lon":5.4913264,"type":"village"},{"id":"304013874","name":"Schwebach","lat":49.7457142,"lon":5.9718663,"type":"village"},{"id":"304062731","name":"Transinne","lat":50.0004466,"lon":5.2026639,"type":"village"},{"id":"304062741","name":"Libin","lat":49.9809464,"lon":5.2569017,"type":"village"},{"id":"305954075","name":"Biwisch","lat":50.1176471,"lon":5.9780272,"type":"village"},{"id":"306247527","name":"Wolper","lat":49.7642229,"lon":6.353606,"type":"village"},{"id":"306394375","name":"Binsfeld","lat":50.1172636,"lon":6.0372194,"type":"village"},{"id":"306487193","name":"Beaufort","lat":49.8350416,"lon":6.2898933,"type":"village"},{"id":"307148166","name":"Olingen","lat":49.6807764,"lon":6.3158164,"type":"village"},{"id":"307451466","name":"Eschweiler","lat":49.7164002,"lon":6.3099919,"type":"village"},{"id":"307623887","name":"Metzert","lat":49.7233501,"lon":5.7909155,"type":"village"},{"id":"307625079","name":"Waltzing","lat":49.6826328,"lon":5.8360625,"type":"village"},{"id":"307626061","name":"Autelbas-Barnich","lat":49.6499559,"lon":5.8675666,"type":"village"},{"id":"308830736","name":"Moersdorf","lat":49.7450372,"lon":6.5012604,"type":"village"},{"id":"308832831","name":"Givenich","lat":49.7475613,"lon":6.4791126,"type":"village"},{"id":"308837128","name":"Hinkel","lat":49.7834439,"lon":6.5149128,"type":"village"},{"id":"308837132","name":"Girst","lat":49.7736506,"lon":6.4988273,"type":"village"},{"id":"308841241","name":"Rosport","lat":49.8047635,"lon":6.5014359,"type":"village"},{"id":"310224139","name":"Lieler","lat":50.1249085,"lon":6.1090378,"type":"village"},{"id":"310224434","name":"Kalborn","lat":50.1026695,"lon":6.1121588,"type":"village"},{"id":"310990249","name":"Urspelt","lat":50.0750761,"lon":6.0463143,"type":"village"},{"id":"311138672","name":"Doncols","lat":49.9734048,"lon":5.8427834,"type":"village"},{"id":"311141705","name":"Niederwampach","lat":50.0098866,"lon":5.8408837,"type":"village"},{"id":"311528456","name":"Hoscheid","lat":49.9492448,"lon":6.0813652,"type":"village"},{"id":"312942499","name":"Breidfeld","lat":50.1233975,"lon":6.0621855,"type":"village"},{"id":"312949024","name":"Beiler","lat":50.1627588,"lon":6.0889894,"type":"village"},{"id":"312949026","name":"Weiswampach","lat":50.139719,"lon":6.0753153,"type":"village"},{"id":"313117723","name":"Oberwampach","lat":50.0147471,"lon":5.8600036,"type":"village"},{"id":"313117843","name":"Allerborn","lat":50.0356425,"lon":5.8701521,"type":"village"},{"id":"313117981","name":"Boxhorn","lat":50.0824172,"lon":5.9913797,"type":"village"},{"id":"313118095","name":"Lullange","lat":50.0582011,"lon":5.9410604,"type":"village"},{"id":"313118096","name":"Doennange","lat":50.0614381,"lon":5.9549219,"type":"village"},{"id":"313118271","name":"Selscheid","lat":50.0175305,"lon":5.9471163,"type":"village"},{"id":"313120629","name":"Weiler","lat":50.1032718,"lon":5.9442009,"type":"village"},{"id":"313120681","name":"Hoffelt","lat":50.099203,"lon":5.9213755,"type":"village"},{"id":"313201420","name":"Boevange","lat":50.048016,"lon":5.929826,"type":"village"},{"id":"314282990","name":"Limerlé","lat":50.156952,"lon":5.9238041,"type":"village"},{"id":"314916379","name":"Betzdorf","lat":49.68738,"lon":6.3507938,"type":"village"},{"id":"315038263","name":"Bivels","lat":49.9587943,"lon":6.1915901,"type":"village"},{"id":"315226656","name":"Boursdorf","lat":49.764649,"lon":6.4779772,"type":"village"},{"id":"315554575","name":"Geyershof","lat":49.7657889,"lon":6.3867954,"type":"village"},{"id":"315616694","name":"Erpeldange-sur-Sûre","lat":49.8628748,"lon":6.114372,"type":"village"},{"id":"315977321","name":"Wallendorf-Pont","lat":49.8742048,"lon":6.2903665,"type":"village"},{"id":"322770753","name":"Wéris","lat":50.3266395,"lon":5.5307553,"type":"village"},{"id":"325629808","name":"Hesperange","lat":49.5729552,"lon":6.1615727,"type":"village"},{"id":"325837209","name":"Tellin","lat":50.081019,"lon":5.216837,"type":"village"},{"id":"325845437","name":"Redu","lat":50.0077873,"lon":5.1601828,"type":"village"},{"id":"326847707","name":"Seltz","lat":49.8800933,"lon":6.1888331,"type":"village"},{"id":"333076959","name":"Pommerloch","lat":49.959534,"lon":5.8606531,"type":"village"},{"id":"334795814","name":"Hachiville","lat":50.107473,"lon":5.9231694,"type":"village"},{"id":"335117824","name":"Stockem","lat":50.0781566,"lon":5.9568503,"type":"village"},{"id":"335118372","name":"Asselborn","lat":50.0974663,"lon":5.9721893,"type":"village"},{"id":"335645792","name":"Brachtenbach","lat":50.0203164,"lon":5.9107547,"type":"village"},{"id":"335673579","name":"Eschweiler","lat":49.9965829,"lon":5.9482244,"type":"village"},{"id":"339849704","name":"Schockville","lat":49.7625307,"lon":5.7642863,"type":"village"},{"id":"348429591","name":"Parette","lat":49.7855014,"lon":5.77259,"type":"village"},{"id":"348643605","name":"Dillingen","lat":49.8529402,"lon":6.3196036,"type":"village"},{"id":"349155604","name":"Izel","lat":49.693986,"lon":5.3747807,"type":"village"},{"id":"349155609","name":"Pin","lat":49.6861569,"lon":5.3702426,"type":"village"},{"id":"369957190","name":"Vissoule","lat":50.1124791,"lon":5.8123607,"type":"village"},{"id":"369957191","name":"Buret","lat":50.0976057,"lon":5.8688292,"type":"village"},{"id":"369957204","name":"Troine","lat":50.0638245,"lon":5.882146,"type":"village"},{"id":"370767266","name":"Michelau","lat":49.8995874,"lon":6.0903111,"type":"village"},{"id":"370767993","name":"Bourscheid","lat":49.9099274,"lon":6.0645251,"type":"village"},{"id":"375661441","name":"Opont","lat":49.9351026,"lon":5.1199106,"type":"village"},{"id":"392030979","name":"Humain","lat":50.2053202,"lon":5.2552435,"type":"village"},{"id":"392108333","name":"Aye","lat":50.2213931,"lon":5.291624,"type":"village"},{"id":"393949744","name":"Crendal","lat":50.0568945,"lon":5.8974779,"type":"village"},{"id":"393951602","name":"Mageret","lat":50.0143614,"lon":5.7850329,"type":"village"},{"id":"393951972","name":"Neffe","lat":50.0054276,"lon":5.7623176,"type":"village"},{"id":"393952216","name":"Benonchamps","lat":50.0044302,"lon":5.8086833,"type":"village"},{"id":"393952251","name":"Wardin","lat":49.9901889,"lon":5.7857251,"type":"village"},{"id":"393952326","name":"Marvie","lat":49.9845005,"lon":5.744017,"type":"village"},{"id":"393952594","name":"Arloncourt","lat":50.0276258,"lon":5.8045059,"type":"village"},{"id":"393952742","name":"Mîchamps","lat":50.0417194,"lon":5.8038348,"type":"village"},{"id":"393953201","name":"Longvilly","lat":50.0249524,"lon":5.8368151,"type":"village"},{"id":"393953415","name":"Bourcy","lat":50.0587047,"lon":5.8084541,"type":"village"},{"id":"393953566","name":"Moinet","lat":50.0445421,"lon":5.8442921,"type":"village"},{"id":"412120465","name":"Rollingen","lat":49.7412519,"lon":6.1136685,"type":"village"},{"id":"412120573","name":"Berschbach","lat":49.746911,"lon":6.1116983,"type":"village"},{"id":"412121200","name":"Essingen","lat":49.7788958,"lon":6.1156809,"type":"village"},{"id":"416323008","name":"Paliseul","lat":49.9035269,"lon":5.1349041,"type":"village"},{"id":"416323136","name":"Merny","lat":49.9012846,"lon":5.0995982,"type":"village"},{"id":"416323675","name":"Carlsbourg","lat":49.8947611,"lon":5.0830529,"type":"village"},{"id":"416343063","name":"Torgny","lat":49.5085018,"lon":5.4735035,"type":"village"},{"id":"448174457","name":"Oberdonven","lat":49.6505368,"lon":6.3999397,"type":"village"},{"id":"451584847","name":"Gostingen","lat":49.6213981,"lon":6.3540451,"type":"village"},{"id":"465612813","name":"Oberkorn","lat":49.5135907,"lon":5.8947993,"type":"village"},{"id":"466169828","name":"Niederkorn","lat":49.5366182,"lon":5.8899436,"type":"village"},{"id":"469953326","name":"Arville","lat":50.0323986,"lon":5.3166577,"type":"village"},{"id":"472318728","name":"Noertrange","lat":49.979292,"lon":5.9094527,"type":"village"},{"id":"477418381","name":"Givry","lat":50.0564004,"lon":5.6421625,"type":"village"},{"id":"477418382","name":"Hemroulle","lat":50.0239554,"lon":5.6856137,"type":"village"},{"id":"477418383","name":"Mande-Saint-Étienne","lat":50.0195454,"lon":5.6388974,"type":"village"},{"id":"477433507","name":"Troismonts","lat":50.0537379,"lon":5.603673,"type":"village"},{"id":"477433508","name":"Compogne","lat":50.0863135,"lon":5.7095208,"type":"village"},{"id":"477433509","name":"Flamisoul","lat":50.0326239,"lon":5.6292526,"type":"village"},{"id":"477433511","name":"Flamierge","lat":50.0337769,"lon":5.6044699,"type":"village"},{"id":"477433512","name":"Tronle","lat":50.0403282,"lon":5.5969452,"type":"village"},{"id":"477433517","name":"Frenet","lat":50.0488361,"lon":5.6279003,"type":"village"},{"id":"477433519","name":"Wigny","lat":50.0830871,"lon":5.6178998,"type":"village"},{"id":"477433520","name":"Salle","lat":50.0540574,"lon":5.5964815,"type":"village"},{"id":"477433522","name":"Champs","lat":50.0389461,"lon":5.6694891,"type":"village"},{"id":"485966748","name":"Robelmont","lat":49.595344,"lon":5.5071291,"type":"village"},{"id":"491571125","name":"Mont","lat":50.0028253,"lon":5.7439271,"type":"village"},{"id":"491571144","name":"Rachamps","lat":50.0830823,"lon":5.7873574,"type":"village"},{"id":"491571150","name":"Hardigny","lat":50.0835733,"lon":5.8000932,"type":"village"},{"id":"491571158","name":"Boeur","lat":50.0885896,"lon":5.8390275,"type":"village"},{"id":"491571193","name":"Lavacherie","lat":50.052317,"lon":5.5136455,"type":"village"},{"id":"491571199","name":"Laneuville-au-Bois","lat":50.0790072,"lon":5.470448,"type":"village"},{"id":"491571235","name":"Gérimont","lat":50.0012458,"lon":5.5440321,"type":"village"},{"id":"491571255","name":"Hubermont","lat":50.0128903,"lon":5.5811204,"type":"village"},{"id":"491571278","name":"Houmont","lat":49.995984,"lon":5.5865137,"type":"village"},{"id":"491571349","name":"Wyompont","lat":50.085836,"lon":5.5705491,"type":"village"},{"id":"491571353","name":"Roumont","lat":50.0714049,"lon":5.5595628,"type":"village"},{"id":"491571386","name":"Amberloup","lat":50.0292955,"lon":5.5272931,"type":"village"},{"id":"491571397","name":"Tillet","lat":50.0097939,"lon":5.5297763,"type":"village"},{"id":"491571433","name":"Vellereux","lat":50.0952918,"lon":5.7232721,"type":"village"},{"id":"491571440","name":"Noville","lat":50.064332,"lon":5.761994,"type":"village"},{"id":"491571450","name":"Vaux","lat":50.0753605,"lon":5.7528341,"type":"village"},{"id":"491571458","name":"Wicourt","lat":50.0937373,"lon":5.775619,"type":"village"},{"id":"491571525","name":"Béthomont","lat":50.0900214,"lon":5.6520882,"type":"village"},{"id":"492814955","name":"Lutremange","lat":49.9413212,"lon":5.7608117,"type":"village"},{"id":"492814959","name":"Lutrebois","lat":49.9589536,"lon":5.7341815,"type":"village"},{"id":"492814962","name":"Salvacourt","lat":49.9535991,"lon":5.6937883,"type":"village"},{"id":"492814964","name":"Hompré","lat":49.9437838,"lon":5.6866728,"type":"village"},{"id":"492814969","name":"Sainlez","lat":49.9212111,"lon":5.7095721,"type":"village"},{"id":"492814972","name":"Honville","lat":49.909043,"lon":5.728942,"type":"village"},{"id":"492814976","name":"Livarchamps","lat":49.9186565,"lon":5.7345049,"type":"village"},{"id":"492814990","name":"Villers-la-Bonne-Eau","lat":49.9345566,"lon":5.7477792,"type":"village"},{"id":"492815026","name":"Remichampagne","lat":49.9348435,"lon":5.6408834,"type":"village"},{"id":"492815044","name":"Remoiville","lat":49.9169157,"lon":5.6376463,"type":"village"},{"id":"492815054","name":"Hollange","lat":49.9064531,"lon":5.6881541,"type":"village"},{"id":"492815073","name":"Vaux-sur-Sûre","lat":49.9104994,"lon":5.5663094,"type":"village"},{"id":"492815137","name":"Nives","lat":49.9121387,"lon":5.602746,"type":"village"},{"id":"492815153","name":"Cobreville","lat":49.9123239,"lon":5.6118539,"type":"village"},{"id":"492815181","name":"Laneuville","lat":49.9343031,"lon":5.4958859,"type":"village"},{"id":"492815202","name":"Wideumont","lat":49.9258493,"lon":5.4861996,"type":"village"},{"id":"492815229","name":"Bercheux","lat":49.9020838,"lon":5.5365589,"type":"village"},{"id":"492815278","name":"Magerotte","lat":49.9745608,"lon":5.5753544,"type":"village"},{"id":"492819092","name":"Tintange","lat":49.878638,"lon":5.7518438,"type":"village"},{"id":"492819096","name":"Bras","lat":49.9837982,"lon":5.8203771,"type":"village"},{"id":"492819100","name":"Luzery","lat":50.0169681,"lon":5.7295776,"type":"village"},{"id":"492819108","name":"Savy","lat":50.0193433,"lon":5.7054824,"type":"village"},{"id":"492828860","name":"Lomré","lat":50.202713,"lon":5.8333991,"type":"village"},{"id":"492828861","name":"Montleban","lat":50.1890272,"lon":5.8363526,"type":"village"},{"id":"492831351","name":"Mousny","lat":50.1032254,"lon":5.6131199,"type":"village"},{"id":"492831357","name":"Ortho","lat":50.12492,"lon":5.6140263,"type":"village"},{"id":"492831363","name":"Warempage","lat":50.1201825,"lon":5.6403155,"type":"village"},{"id":"492831371","name":"Nisramont","lat":50.1353549,"lon":5.6471185,"type":"village"},{"id":"494374298","name":"Vlessart","lat":49.7944792,"lon":5.6474245,"type":"village"},{"id":"494374324","name":"Louftémont","lat":49.7892076,"lon":5.6273408,"type":"village"},{"id":"494381205","name":"Post","lat":49.7506692,"lon":5.7684551,"type":"village"},{"id":"496388800","name":"Remagne","lat":49.9761389,"lon":5.4938631,"type":"village"},{"id":"496388801","name":"Bougnimont","lat":49.9443373,"lon":5.4679783,"type":"village"},{"id":"496388804","name":"Séviscourt","lat":49.9561214,"lon":5.4134069,"type":"village"},{"id":"496400423","name":"Ourt","lat":49.9220151,"lon":5.4241482,"type":"village"},{"id":"496400437","name":"Bernimont","lat":49.9115262,"lon":5.4622738,"type":"village"},{"id":"496400453","name":"Sainte-Marie-Chevigny","lat":49.9235741,"lon":5.4578106,"type":"village"},{"id":"496400468","name":"Renaumont","lat":49.9295417,"lon":5.4481976,"type":"village"},{"id":"496400496","name":"Ochamps","lat":49.9244612,"lon":5.2781878,"type":"village"},{"id":"496400507","name":"Verlaine","lat":49.8814871,"lon":5.4054823,"type":"village"},{"id":"496400517","name":"Recogne","lat":49.9112853,"lon":5.3607943,"type":"village"},{"id":"496400530","name":"Neuvillers","lat":49.9012882,"lon":5.3540089,"type":"village"},{"id":"496400563","name":"Tronquoy","lat":49.8873109,"lon":5.4524891,"type":"village"},{"id":"496400572","name":"Respelt","lat":49.8838493,"lon":5.4711533,"type":"village"},{"id":"496400579","name":"Sberchamps","lat":49.9008287,"lon":5.4186936,"type":"village"},{"id":"496400589","name":"Flohimont","lat":49.9065515,"lon":5.4052823,"type":"village"},{"id":"496412176","name":"Porcheresse","lat":49.978801,"lon":5.0866787,"type":"village"},{"id":"496412184","name":"Our","lat":49.9601328,"lon":5.1238515,"type":"village"},{"id":"496412188","name":"Gembes","lat":49.997198,"lon":5.063233,"type":"village"},{"id":"496412198","name":"Acremont","lat":49.8977062,"lon":5.2118199,"type":"village"},{"id":"496412212","name":"Glaireuse","lat":49.9590308,"lon":5.2472279,"type":"village"},{"id":"496412216","name":"Maissin","lat":49.9651106,"lon":5.1805775,"type":"village"},{"id":"496412222","name":"Villance","lat":49.9709626,"lon":5.2221196,"type":"village"},{"id":"496412228","name":"Jehonville","lat":49.9065624,"lon":5.2009584,"type":"village"},{"id":"496427615","name":"Molinfaing","lat":49.8785409,"lon":5.4957624,"type":"village"},{"id":"496427635","name":"Lahérie","lat":49.8647827,"lon":5.4826412,"type":"village"},{"id":"496427655","name":"Marbay","lat":49.828844,"lon":5.4921483,"type":"village"},{"id":"496427679","name":"Namoussart","lat":49.8354707,"lon":5.4994938,"type":"village"},{"id":"496427694","name":"Longlier","lat":49.8562222,"lon":5.4609005,"type":"village"},{"id":"496427766","name":"Hotte","lat":49.8760283,"lon":5.662946,"type":"village"},{"id":"496427791","name":"Menufontaine","lat":49.8806467,"lon":5.6590997,"type":"village"},{"id":"496427817","name":"Strainchamps","lat":49.8800246,"lon":5.68538,"type":"village"},{"id":"496427838","name":"Burnon","lat":49.8904186,"lon":5.6612277,"type":"village"},{"id":"496427856","name":"Massul","lat":49.8739866,"lon":5.509597,"type":"village"},{"id":"496427891","name":"Chêne","lat":49.8624742,"lon":5.5612336,"type":"village"},{"id":"496427907","name":"Lescheret","lat":49.8760601,"lon":5.5666098,"type":"village"},{"id":"496427964","name":"Volaiville","lat":49.8724882,"lon":5.6143658,"type":"village"},{"id":"496428047","name":"Witry","lat":49.8589203,"lon":5.6138516,"type":"village"},{"id":"496428060","name":"Traimont","lat":49.8546313,"lon":5.5930986,"type":"village"},{"id":"496428073","name":"Ebly","lat":49.8528769,"lon":5.5407851,"type":"village"},{"id":"496428133","name":"Framont","lat":49.9185629,"lon":5.1601932,"type":"village"},{"id":"496428151","name":"Warnach","lat":49.8653632,"lon":5.7263337,"type":"village"},{"id":"496428171","name":"Grumelange","lat":49.8455966,"lon":5.7551281,"type":"village"},{"id":"497182776","name":"Léglise","lat":49.800094,"lon":5.5381753,"type":"village"},{"id":"497182791","name":"Les Fossés","lat":49.7809718,"lon":5.4785601,"type":"village"},{"id":"497230181","name":"Vesqueville","lat":50.0058391,"lon":5.3968709,"type":"village"},{"id":"497230196","name":"Hatrival","lat":50.0052874,"lon":5.348119,"type":"village"},{"id":"497230204","name":"Smuid","lat":50.0188027,"lon":5.2662483,"type":"village"},{"id":"497242105","name":"Suxy","lat":49.7635175,"lon":5.4010492,"type":"village"},{"id":"498465563","name":"Baclain","lat":50.1949842,"lon":5.8658322,"type":"village"},{"id":"498465565","name":"Cherain","lat":50.1806741,"lon":5.8646609,"type":"village"},{"id":"501564151","name":"Gribomont","lat":49.8221557,"lon":5.322857,"type":"village"},{"id":"501564152","name":"Saint-Médard","lat":49.8158829,"lon":5.3277128,"type":"village"},{"id":"501564153","name":"Straimont","lat":49.7961667,"lon":5.3811714,"type":"village"},{"id":"501564154","name":"Martilly","lat":49.8041891,"lon":5.3600282,"type":"village"},{"id":"501564156","name":"Tournay","lat":49.8543387,"lon":5.3969928,"type":"village"},{"id":"501564157","name":"Rossart","lat":49.8478343,"lon":5.3375198,"type":"village"},{"id":"501564158","name":"Nevraumont","lat":49.8330849,"lon":5.3412952,"type":"village"},{"id":"501564159","name":"Biourge","lat":49.8407532,"lon":5.3250781,"type":"village"},{"id":"501564161","name":"Orgeo","lat":49.8343079,"lon":5.3022804,"type":"village"},{"id":"501564162","name":"Nolinfaing","lat":49.81491,"lon":5.4318013,"type":"village"},{"id":"501564163","name":"Grapfontaine","lat":49.8215033,"lon":5.4076005,"type":"village"},{"id":"501564164","name":"Warmifontaine","lat":49.8310863,"lon":5.3913055,"type":"village"},{"id":"501564165","name":"Petitvoir","lat":49.844612,"lon":5.3775541,"type":"village"},{"id":"501564166","name":"Grandvoir","lat":49.8576034,"lon":5.3717959,"type":"village"},{"id":"501570285","name":"Hébronval","lat":50.255766,"lon":5.8139385,"type":"village"},{"id":"501570289","name":"Provedroux","lat":50.2512938,"lon":5.8968138,"type":"village"},{"id":"501570290","name":"Chabrehez","lat":50.2260673,"lon":5.7210032,"type":"village"},{"id":"501570291","name":"Odeigne","lat":50.2563686,"lon":5.682551,"type":"village"},{"id":"501570292","name":"Malempré","lat":50.2816159,"lon":5.7155249,"type":"village"},{"id":"501570295","name":"Langlire","lat":50.2299937,"lon":5.8436075,"type":"village"},{"id":"501570296","name":"Bihain","lat":50.2390245,"lon":5.8082072,"type":"village"},{"id":"501570297","name":"Regné","lat":50.2536137,"lon":5.789185,"type":"village"},{"id":"501570298","name":"Fraiture","lat":50.2577612,"lon":5.7525339,"type":"village"},{"id":"501570299","name":"Tailles","lat":50.2272012,"lon":5.7447558,"type":"village"},{"id":"501570329","name":"Bovigny","lat":50.2244199,"lon":5.9182421,"type":"village"},{"id":"501572232","name":"Gênes","lat":50.1778762,"lon":5.4802021,"type":"village"},{"id":"506262765","name":"Bertrix","lat":49.8546564,"lon":5.2529266,"type":"village"},{"id":"506288668","name":"Bonnerue","lat":50.1184028,"lon":5.7236012,"type":"village"},{"id":"506292636","name":"Wittimont","lat":49.8140546,"lon":5.5393553,"type":"village"},{"id":"506292637","name":"Gennevaux","lat":49.8117506,"lon":5.5543436,"type":"village"},{"id":"534286151","name":"Gouvy","lat":50.1857409,"lon":5.9428,"type":"village"},{"id":"536762236","name":"Brisy","lat":50.1585595,"lon":5.8522313,"type":"village"},{"id":"536772985","name":"Rettigny","lat":50.1678509,"lon":5.8801729,"type":"village"},{"id":"537985240","name":"Achouffe","lat":50.1501741,"lon":5.745452,"type":"village"},{"id":"574565200","name":"Guerlange","lat":49.5818797,"lon":5.8543877,"type":"village"},{"id":"595669705","name":"Sterpigny","lat":50.1839436,"lon":5.8830645,"type":"village"},{"id":"595669707","name":"Courtil","lat":50.2139972,"lon":5.9126563,"type":"village"},{"id":"595669708","name":"Ourthe","lat":50.1883815,"lon":5.9814715,"type":"village"},{"id":"595669710","name":"Beho","lat":50.2203076,"lon":5.9972509,"type":"village"},{"id":"600481085","name":"Herbeumont","lat":49.7815364,"lon":5.2377736,"type":"village"},{"id":"600958674","name":"Daverdisse","lat":50.0214939,"lon":5.1183374,"type":"village"},{"id":"601719386","name":"Mortehan","lat":49.7995404,"lon":5.2118395,"type":"village"},{"id":"601995375","name":"Waharday","lat":50.2313358,"lon":5.4648581,"type":"village"},{"id":"603151840","name":"Harre","lat":50.3514715,"lon":5.6585312,"type":"village"},{"id":"607128314","name":"Sensenruth","lat":49.8254037,"lon":5.0738804,"type":"village"},{"id":"607128324","name":"Ucimont","lat":49.8314004,"lon":5.0573896,"type":"village"},{"id":"607128337","name":"Sainte-Cécile","lat":49.7290971,"lon":5.2435618,"type":"village"},{"id":"607128344","name":"Chassepierre","lat":49.7076905,"lon":5.2621817,"type":"village"},{"id":"607128357","name":"Dohan","lat":49.7973741,"lon":5.1418578,"type":"village"},{"id":"607128369","name":"Noirefontaine","lat":49.8200186,"lon":5.0917547,"type":"village"},{"id":"610590711","name":"Fays","lat":50.3612117,"lon":5.6314211,"type":"village"},{"id":"613180688","name":"Mont","lat":50.1534847,"lon":5.7688691,"type":"village"},{"id":"613180692","name":"Fontenaille","lat":50.1582831,"lon":5.7881877,"type":"village"},{"id":"613181679","name":"Taverneux","lat":50.1453096,"lon":5.7957815,"type":"village"},{"id":"613181694","name":"Dinez","lat":50.1712006,"lon":5.7739819,"type":"village"},{"id":"613181707","name":"Wilogne","lat":50.1688069,"lon":5.7642555,"type":"village"},{"id":"613185237","name":"Freyneux","lat":50.2568746,"lon":5.6505886,"type":"village"},{"id":"613185243","name":"Lamorménil","lat":50.2542118,"lon":5.6378252,"type":"village"},{"id":"613185249","name":"La Fosse","lat":50.2737527,"lon":5.6433219,"type":"village"},{"id":"613185252","name":"Oster","lat":50.2735198,"lon":5.6566429,"type":"village"},{"id":"613185253","name":"Grandmenil","lat":50.2923724,"lon":5.6624969,"type":"village"},{"id":"613185261","name":"Dochamps","lat":50.2341724,"lon":5.6233067,"type":"village"},{"id":"613189115","name":"Grand-Halleux","lat":50.3262753,"lon":5.9072517,"type":"village"},{"id":"613189129","name":"Mont","lat":50.3216143,"lon":5.8942563,"type":"village"},{"id":"613189138","name":"Goronne","lat":50.2888731,"lon":5.8658677,"type":"village"},{"id":"613189188","name":"Ennal","lat":50.327802,"lon":5.9262163,"type":"village"},{"id":"613189210","name":"Dairomont","lat":50.3421603,"lon":5.8629173,"type":"village"},{"id":"613189262","name":"Vaux-Chavanne","lat":50.3021991,"lon":5.6971681,"type":"village"},{"id":"613189271","name":"Chêne-al'Pierre","lat":50.3326236,"lon":5.6805689,"type":"village"},{"id":"615965112","name":"Buisson","lat":50.1449305,"lon":5.6026516,"type":"village"},{"id":"615965113","name":"Roupage","lat":50.1432115,"lon":5.607104,"type":"village"},{"id":"615965115","name":"Hubermont","lat":50.1400567,"lon":5.6250915,"type":"village"},{"id":"615965117","name":"Mièrchamps","lat":50.1394297,"lon":5.5346742,"type":"village"},{"id":"615965118","name":"Ronchamps","lat":50.1525639,"lon":5.5167466,"type":"village"},{"id":"615965119","name":"Vecmont","lat":50.1503727,"lon":5.5209049,"type":"village"},{"id":"615965121","name":"Beausaint","lat":50.1702978,"lon":5.5531772,"type":"village"},{"id":"615965122","name":"Cens","lat":50.1068506,"lon":5.5762757,"type":"village"},{"id":"615965125","name":"Hives","lat":50.1506704,"lon":5.5783344,"type":"village"},{"id":"615965128","name":"Erneuville","lat":50.1140795,"lon":5.5512123,"type":"village"},{"id":"615965130","name":"Wembay","lat":50.0980162,"lon":5.5545654,"type":"village"},{"id":"615965131","name":"Trèsfontaines","lat":50.0987045,"lon":5.5681481,"type":"village"},{"id":"615965134","name":"Champlon","lat":50.1077503,"lon":5.5034047,"type":"village"},{"id":"615965136","name":"Journal","lat":50.1180909,"lon":5.5060789,"type":"village"},{"id":"615966542","name":"Warisy","lat":50.1997934,"lon":5.5235162,"type":"village"},{"id":"615966544","name":"Marcourt","lat":50.2145396,"lon":5.5268173,"type":"village"},{"id":"615966545","name":"Marcouray","lat":50.2126303,"lon":5.5470695,"type":"village"},{"id":"615966546","name":"Filly","lat":50.1457005,"lon":5.6938043,"type":"village"},{"id":"615966547","name":"Mormont","lat":50.1458065,"lon":5.7189108,"type":"village"},{"id":"615966548","name":"Wibrin","lat":50.1661182,"lon":5.7156009,"type":"village"},{"id":"618312516","name":"Devantave","lat":50.2399885,"lon":5.5581995,"type":"village"},{"id":"618312531","name":"Amonines","lat":50.2655197,"lon":5.5571509,"type":"village"},{"id":"618314692","name":"Magoster","lat":50.2525277,"lon":5.5310998,"type":"village"},{"id":"625838655","name":"Mirwart","lat":50.0569945,"lon":5.2653304,"type":"village"},{"id":"638916478","name":"Sainte-Ode","lat":50.0362888,"lon":5.5245094,"type":"village"},{"id":"649193911","name":"Moircy","lat":49.9894846,"lon":5.468077,"type":"village"},{"id":"649200646","name":"Freux","lat":49.9708428,"lon":5.4497307,"type":"village"},{"id":"659936383","name":"Stockem","lat":49.6875265,"lon":5.7697236,"type":"village"},{"id":"664041632","name":"Lamorteau","lat":49.5262083,"lon":5.4795124,"type":"village"},{"id":"664601489","name":"Lesterny","lat":50.1112207,"lon":5.2801838,"type":"village"},{"id":"664601490","name":"Masbourg","lat":50.1143521,"lon":5.3136921,"type":"village"},{"id":"664601492","name":"Ambly","lat":50.1441815,"lon":5.3142288,"type":"village"},{"id":"664601494","name":"Harsin","lat":50.173788,"lon":5.3475606,"type":"village"},{"id":"664601495","name":"Grune","lat":50.1549918,"lon":5.3828952,"type":"village"},{"id":"676227397","name":"Oberglabach","lat":49.7848259,"lon":6.1492319,"type":"village"},{"id":"677080156","name":"Villers-Sainte-Gertrude","lat":50.3619168,"lon":5.5764092,"type":"village"},{"id":"677080158","name":"Ozo","lat":50.3733317,"lon":5.5557777,"type":"village"},{"id":"677080162","name":"Izier","lat":50.3848936,"lon":5.5793252,"type":"village"},{"id":"690568755","name":"Hondelange","lat":49.6351714,"lon":5.8350151,"type":"village"},{"id":"691161217","name":"Saint-Vincent","lat":49.6774116,"lon":5.475602,"type":"village"},{"id":"691165245","name":"Villers-sur-Semois","lat":49.6987456,"lon":5.5614663,"type":"village"},{"id":"691214187","name":"Corbion","lat":49.7974564,"lon":5.0087055,"type":"village"},{"id":"691214188","name":"Poupehan","lat":49.8115586,"lon":5.0035785,"type":"village"},{"id":"691214189","name":"Rochehaut","lat":49.8404522,"lon":5.0070138,"type":"village"},{"id":"691214190","name":"Vivy","lat":49.8675973,"lon":5.0388784,"type":"village"},{"id":"691214192","name":"Les Hayons","lat":49.8133379,"lon":5.1456628,"type":"village"},{"id":"691214193","name":"Bellevaux","lat":49.8402245,"lon":5.1102147,"type":"village"},{"id":"691383308","name":"Muno","lat":49.717679,"lon":5.1759524,"type":"village"},{"id":"691383309","name":"Fontenoille","lat":49.71508,"lon":5.234469,"type":"village"},{"id":"691383310","name":"Lacuisine","lat":49.7170106,"lon":5.318262,"type":"village"},{"id":"691414812","name":"Les Bulles","lat":49.7031011,"lon":5.4263273,"type":"village"},{"id":"691414815","name":"Termes","lat":49.7071328,"lon":5.4579753,"type":"village"},{"id":"691414831","name":"Marbehan","lat":49.7255479,"lon":5.536235,"type":"village"},{"id":"693002417","name":"Thiaumont","lat":49.7159959,"lon":5.7291343,"type":"village"},{"id":"693002418","name":"Nobressart","lat":49.7399333,"lon":5.7187077,"type":"village"},{"id":"693023792","name":"Rulles","lat":49.7181041,"lon":5.558116,"type":"village"},{"id":"693023797","name":"Anlier","lat":49.7727467,"lon":5.6216717,"type":"village"},{"id":"693023801","name":"Hachy","lat":49.7015507,"lon":5.6805003,"type":"village"},{"id":"693395633","name":"Fays-les-Veneurs","lat":49.8662058,"lon":5.1607144,"type":"village"},{"id":"693395635","name":"Nollevaux","lat":49.8710591,"lon":5.1220764,"type":"village"},{"id":"693395638","name":"Offagne","lat":49.8855714,"lon":5.175013,"type":"village"},{"id":"694337212","name":"Haut-Fays","lat":50.0011711,"lon":5.0169148,"type":"village"},{"id":"695056318","name":"Sohier","lat":50.0685885,"lon":5.0702515,"type":"village"},{"id":"695056319","name":"Lomprez","lat":50.0762474,"lon":5.092143,"type":"village"},{"id":"695056320","name":"Chanly","lat":50.0786533,"lon":5.1559991,"type":"village"},{"id":"695056321","name":"Resteigne","lat":50.0828516,"lon":5.1778089,"type":"village"},{"id":"695056322","name":"Bure","lat":50.0885262,"lon":5.261162,"type":"village"},{"id":"695056323","name":"Grupont","lat":50.0923432,"lon":5.2798077,"type":"village"},{"id":"695466277","name":"Auby-sur-Semois","lat":49.8157644,"lon":5.1816711,"type":"village"},{"id":"695466280","name":"Cugnon","lat":49.8020427,"lon":5.2033082,"type":"village"},{"id":"696281712","name":"Mellier","lat":49.7671531,"lon":5.5209461,"type":"village"},{"id":"697212572","name":"Grandhan","lat":50.3299795,"lon":5.4086678,"type":"village"},{"id":"697212573","name":"Septon","lat":50.3571648,"lon":5.4228133,"type":"village"},{"id":"697212574","name":"Borlon","lat":50.3785078,"lon":5.4048871,"type":"village"},{"id":"697212575","name":"Bende","lat":50.4176261,"lon":5.4142387,"type":"village"},{"id":"697214208","name":"Marenne","lat":50.2418351,"lon":5.4165812,"type":"village"},{"id":"697214209","name":"Menil-Favay","lat":50.2497755,"lon":5.4407742,"type":"village"},{"id":"697214210","name":"Hampteau","lat":50.2579039,"lon":5.4729019,"type":"village"},{"id":"697214212","name":"Fronville","lat":50.2943293,"lon":5.4221284,"type":"village"},{"id":"697214213","name":"Melreux","lat":50.2795044,"lon":5.4390246,"type":"village"},{"id":"697214214","name":"Ny","lat":50.2856114,"lon":5.4815277,"type":"village"},{"id":"697215379","name":"Soy","lat":50.285577,"lon":5.5100929,"type":"village"},{"id":"697215752","name":"Hodister","lat":50.2006652,"lon":5.4954367,"type":"village"},{"id":"697215753","name":"Rendeux","lat":50.2332679,"lon":5.5040212,"type":"village"},{"id":"697223536","name":"Halleux","lat":50.1717133,"lon":5.5020384,"type":"village"},{"id":"697225180","name":"Hargimont","lat":50.1825974,"lon":5.3084685,"type":"village"},{"id":"697225181","name":"Marloie","lat":50.2004218,"lon":5.3160252,"type":"village"},{"id":"697225182","name":"Waha","lat":50.2119666,"lon":5.3441742,"type":"village"},{"id":"697225183","name":"Roy","lat":50.1876853,"lon":5.4099106,"type":"village"},{"id":"697343735","name":"Petit-Thier","lat":50.3081766,"lon":5.9679438,"type":"village"},{"id":"698741845","name":"Awenne","lat":50.074242,"lon":5.306188,"type":"village"},{"id":"698788360","name":"Bras","lat":49.9760182,"lon":5.3877654,"type":"village"},{"id":"701434814","name":"Harzy","lat":49.9933146,"lon":5.7956262,"type":"village"},{"id":"722356980","name":"Rogery","lat":50.2421876,"lon":5.9502533,"type":"village"},{"id":"739279265","name":"Anloy","lat":49.9499043,"lon":5.2215609,"type":"village"},{"id":"746727646","name":"Behême","lat":49.7841366,"lon":5.6010719,"type":"village"},{"id":"791649853","name":"Grimbiémont","lat":50.2051759,"lon":5.4261532,"type":"village"},{"id":"791667397","name":"Chéoux","lat":50.2167072,"lon":5.472438,"type":"village"},{"id":"791680424","name":"Ronzon","lat":50.2277036,"lon":5.5172509,"type":"village"},{"id":"792279330","name":"Rendeux-Bas","lat":50.2423147,"lon":5.4983975,"type":"village"},{"id":"798821722","name":"Cielle","lat":50.1943373,"lon":5.5600959,"type":"village"},{"id":"803425268","name":"Flaxweiler","lat":49.6663359,"lon":6.341955,"type":"village"},{"id":"803425277","name":"Beyren","lat":49.6306673,"lon":6.3358677,"type":"village"},{"id":"804737264","name":"Hoscheid-Dickt","lat":49.9719134,"lon":6.0905533,"type":"village"},{"id":"804815918","name":"Deiffelt","lat":50.0650166,"lon":5.9626492,"type":"village"},{"id":"804815920","name":"Lentzweiler","lat":50.0694924,"lon":5.9752596,"type":"village"},{"id":"804852086","name":"Esch-sur-Sûre","lat":49.9112543,"lon":5.9351159,"type":"village"},{"id":"861478763","name":"Bech-Kleinmacher","lat":49.5317776,"lon":6.3541214,"type":"village"},{"id":"870803526","name":"Holler","lat":50.1226686,"lon":6.0474938,"type":"village"},{"id":"907982696","name":"Lahage","lat":49.6476654,"lon":5.500033,"type":"village"},{"id":"908075917","name":"Prouvy","lat":49.6834052,"lon":5.4376498,"type":"village"},{"id":"908585185","name":"Villers-devant-Orval","lat":49.6185771,"lon":5.331466,"type":"village"},{"id":"908585190","name":"Limes","lat":49.616723,"lon":5.4044689,"type":"village"},{"id":"928461852","name":"Guelff","lat":49.6068424,"lon":5.7597171,"type":"village"},{"id":"931522124","name":"Fratin","lat":49.6597925,"lon":5.5714939,"type":"village"},{"id":"970216783","name":"Autelhaut","lat":49.6518319,"lon":5.8413027,"type":"village"},{"id":"970217309","name":"Bébange","lat":49.6093287,"lon":5.7826182,"type":"village"},{"id":"970217362","name":"Buvange","lat":49.6239096,"lon":5.8005809,"type":"village"},{"id":"970217543","name":"Weyler","lat":49.6569158,"lon":5.8221403,"type":"village"},{"id":"970217627","name":"Sterpenich","lat":49.6479672,"lon":5.8908958,"type":"village"},{"id":"970728193","name":"Romponcelle","lat":49.6902027,"lon":5.4229283,"type":"village"},{"id":"974457933","name":"Fisenne","lat":50.2909634,"lon":5.5355083,"type":"village"},{"id":"987736588","name":"Laiche","lat":49.7101068,"lon":5.2791207,"type":"village"},{"id":"987736936","name":"Lambermont","lat":49.7051899,"lon":5.191001,"type":"village"},{"id":"997480147","name":"Montquintin","lat":49.5444711,"lon":5.472787,"type":"village"},{"id":"997480151","name":"Couvreux","lat":49.552797,"lon":5.465388,"type":"village"},{"id":"1020104496","name":"Recogne","lat":50.0519037,"lon":5.736818,"type":"village"},{"id":"1037865416","name":"Nassogne","lat":50.1287359,"lon":5.3418985,"type":"village"},{"id":"1039313860","name":"Born","lat":49.7596482,"lon":6.5127637,"type":"village"},{"id":"1067335350","name":"Nommern","lat":49.7938754,"lon":6.1737271,"type":"village"},{"id":"1069755603","name":"Rumlange","lat":50.0797473,"lon":5.9737823,"type":"village"},{"id":"1069839501","name":"Reuler","lat":50.0586563,"lon":6.0362606,"type":"village"},{"id":"1073974504","name":"Knaphoscheid","lat":50.0119363,"lon":5.9629051,"type":"village"},{"id":"1157630813","name":"Curfoz","lat":49.8137122,"lon":5.0845239,"type":"village"},{"id":"1194112847","name":"Fays-Famenne","lat":50.0433405,"lon":5.0710367,"type":"village"},{"id":"1217847345","name":"Bastogne","lat":50.0023102,"lon":5.7173386,"type":"town"},{"id":"1226404192","name":"Heinstert","lat":49.7579629,"lon":5.7283721,"type":"village"},{"id":"1262276641","name":"Moestroff","lat":49.8677927,"lon":6.2377274,"type":"village"},{"id":"1286740487","name":"Lignières","lat":50.1909702,"lon":5.4373182,"type":"village"},{"id":"1307514869","name":"Martué","lat":49.7115411,"lon":5.3045853,"type":"village"},{"id":"1340972761","name":"Turpange","lat":49.6121326,"lon":5.8179788,"type":"village"},{"id":"1352178511","name":"Thibessart","lat":49.7819144,"lon":5.5526642,"type":"village"},{"id":"1353922114","name":"Fischbach","lat":49.7462374,"lon":6.1866614,"type":"village"},{"id":"1365541777","name":"Charneux","lat":50.1824282,"lon":5.3773003,"type":"village"},{"id":"1370433369","name":"Cobru","lat":50.0613853,"lon":5.7506145,"type":"village"},{"id":"1373181475","name":"Mullendorf","lat":49.6812881,"lon":6.12554,"type":"village"},{"id":"1386292185","name":"Bonnerue","lat":50.0114635,"lon":5.4776707,"type":"village"},{"id":"1392080848","name":"Sassel","lat":50.0996616,"lon":5.9949473,"type":"village"},{"id":"1392086277","name":"Roedt","lat":49.5699,"lon":6.2847078,"type":"village"},{"id":"1392086671","name":"Trintange","lat":49.5714197,"lon":6.280436,"type":"village"},{"id":"1392087151","name":"Ersange","lat":49.5763872,"lon":6.2756939,"type":"village"},{"id":"1397912911","name":"Schrassig","lat":49.6107061,"lon":6.2558038,"type":"village"},{"id":"1397912912","name":"Schuttrange","lat":49.6226683,"lon":6.2714312,"type":"village"},{"id":"1397912914","name":"Uebersyren","lat":49.6318394,"lon":6.2770155,"type":"village"},{"id":"1398696333","name":"Medingen","lat":49.5750028,"lon":6.2486902,"type":"village"},{"id":"1398805446","name":"Clerheid","lat":50.2962622,"lon":5.5937533,"type":"village"},{"id":"1400923528","name":"Sonlez","lat":49.9642414,"lon":5.8236598,"type":"village"},{"id":"1401393745","name":"Grümelscheid","lat":49.9852827,"lon":5.8723935,"type":"village"},{"id":"1409887794","name":"Lottert","lat":49.7083924,"lon":5.724028,"type":"village"},{"id":"1558376579","name":"Rondu","lat":49.9593729,"lon":5.5083282,"type":"village"},{"id":"1563706949","name":"Assenois","lat":49.8786391,"lon":5.2112597,"type":"village"},{"id":"1569147752","name":"Ingeldorf","lat":49.8532419,"lon":6.1340641,"type":"village"},{"id":"1583124458","name":"Buschdorf","lat":49.7509296,"lon":6.0065355,"type":"village"},{"id":"1583666963","name":"Clervaux","lat":50.0547912,"lon":6.0275511,"type":"town"},{"id":"1588770106","name":"Boevange-sur-Attert","lat":49.7757093,"lon":6.0127253,"type":"village"},{"id":"1614807043","name":"Bastendorf","lat":49.8907959,"lon":6.1642081,"type":"village"},{"id":"1614814315","name":"Vianden","lat":49.9336976,"lon":6.2066715,"type":"town"},{"id":"1614838325","name":"Merscheid","lat":49.954078,"lon":6.1051045,"type":"village"},{"id":"1614838543","name":"Weiler","lat":49.9624908,"lon":6.1231458,"type":"village"},{"id":"1615314820","name":"Tuntange","lat":49.7156626,"lon":6.0137438,"type":"village"},{"id":"1615318346","name":"Hollenfels","lat":49.7128161,"lon":6.0483652,"type":"village"},{"id":"1623975416","name":"Grandcourt","lat":49.5260913,"lon":5.604452,"type":"village"},{"id":"1623975417","name":"Saint-Remy","lat":49.5411063,"lon":5.622868,"type":"village"},{"id":"1628731564","name":"Esch-sur-Alzette","lat":49.4959628,"lon":5.9850306,"type":"town"},{"id":"1637695914","name":"Bande","lat":50.1665822,"lon":5.4154822,"type":"village"},{"id":"1640346607","name":"Lesse","lat":49.9917179,"lon":5.1573379,"type":"village"},{"id":"1651881999","name":"Beffe","lat":50.245425,"lon":5.5230608,"type":"village"},{"id":"1660673617","name":"Brouch","lat":49.7353096,"lon":6.0210028,"type":"village"},{"id":"1679621149","name":"Flebour","lat":49.8983476,"lon":5.8117781,"type":"village"},{"id":"1744771750","name":"Gondelange","lat":49.5512336,"lon":6.2786975,"type":"village"},{"id":"1804763844","name":"Ansart","lat":49.6931611,"lon":5.5219205,"type":"village"},{"id":"1835696918","name":"Fanzel","lat":50.3225375,"lon":5.5738355,"type":"village"},{"id":"1844385020","name":"Werpin","lat":50.2612773,"lon":5.4855179,"type":"village"},{"id":"1908717318","name":"Palenge","lat":50.3632007,"lon":5.4372713,"type":"village"},{"id":"1908717319","name":"Warre","lat":50.3648892,"lon":5.465252,"type":"village"},{"id":"1915835979","name":"Mortinsart","lat":49.7059423,"lon":5.5875438,"type":"village"},{"id":"2000506807","name":"Wormeldange-Haut","lat":49.6097402,"lon":6.4007367,"type":"village"},{"id":"2054734247","name":"Verdenne","lat":50.2341134,"lon":5.3982781,"type":"village"},{"id":"2081501391","name":"Petit-Halleux","lat":50.1761911,"lon":5.5238241,"type":"village"},{"id":"2122794266","name":"Engreux","lat":50.1216056,"lon":5.7018922,"type":"village"},{"id":"2191208289","name":"Grande Enneille","lat":50.321743,"lon":5.3760132,"type":"village"},{"id":"2283298991","name":"Ville-du-Bois","lat":50.2926793,"lon":5.9369576,"type":"village"},{"id":"2293366850","name":"Moyen","lat":49.6990227,"lon":5.3798966,"type":"village"},{"id":"2323501115","name":"Bilsdorf","lat":49.8565541,"lon":5.8246298,"type":"village"},{"id":"2325133889","name":"Cierreux","lat":50.2446382,"lon":5.928367,"type":"village"},{"id":"2376906989","name":"Savelborn","lat":49.8117915,"lon":6.2535045,"type":"village"},{"id":"2378280049","name":"Hierheck","lat":49.8721473,"lon":5.9294678,"type":"village"},{"id":"2397066480","name":"Neuville","lat":50.280085,"lon":5.933468,"type":"village"},{"id":"2397518688","name":"On","lat":50.1714237,"lon":5.2860041,"type":"village"},{"id":"2469204002","name":"Berg","lat":49.6826832,"lon":6.3586902,"type":"village"},{"id":"2539578268","name":"Leithum","lat":50.1604741,"lon":6.1083913,"type":"village"},{"id":"2598100299","name":"Lenningen","lat":49.602187,"lon":6.3667908,"type":"village"},{"id":"2615906491","name":"Harinsart","lat":49.7072387,"lon":5.5361624,"type":"village"},{"id":"2684194207","name":"Steinbach","lat":50.1449613,"lon":5.9022323,"type":"village"},{"id":"2747550642","name":"Schadeck","lat":49.745932,"lon":5.7766543,"type":"village"},{"id":"2798741072","name":"Colmar","lat":49.8116881,"lon":6.0947858,"type":"village"},{"id":"2799198224","name":"Grevenknapp","lat":49.7623596,"lon":6.0327059,"type":"village"},{"id":"2805917163","name":"Roost","lat":49.7868872,"lon":6.0960274,"type":"village"},{"id":"2805943924","name":"Hëttermillen","lat":49.5872804,"lon":6.3713317,"type":"village"},{"id":"2823208872","name":"Biron","lat":50.3085581,"lon":5.4827896,"type":"village"},{"id":"2907661401","name":"Wandhaff","lat":49.6471021,"lon":5.9578187,"type":"village"},{"id":"2907852926","name":"Berg","lat":49.812769,"lon":6.0872652,"type":"village"},{"id":"2985674511","name":"Schoppach","lat":49.6748725,"lon":5.79116,"type":"village"},{"id":"2987361622","name":"Lischert","lat":49.7216857,"lon":5.7586312,"type":"village"},{"id":"2987361623","name":"Tattert","lat":49.7130875,"lon":5.7372339,"type":"village"},{"id":"2989074773","name":"Longeau","lat":49.5784982,"lon":5.8337277,"type":"village"},{"id":"2995783579","name":"Baranzy","lat":49.5570226,"lon":5.6873902,"type":"village"},{"id":"3003516571","name":"Jenneret","lat":50.4128498,"lon":5.4455785,"type":"village"},{"id":"3020106932","name":"Honvelez","lat":50.2352461,"lon":5.9169143,"type":"village"},{"id":"3020147853","name":"Rencheux","lat":50.2873626,"lon":5.9045463,"type":"village"},{"id":"3022832108","name":"Juseret","lat":49.8805074,"lon":5.549439,"type":"village"},{"id":"3078907843","name":"Bizory","lat":50.0195654,"lon":5.7643243,"type":"village"},{"id":"3163422939","name":"Nivelet","lat":49.7976066,"lon":5.5125018,"type":"village"},{"id":"3194083982","name":"Orsinfaing","lat":49.7145121,"lon":5.5212865,"type":"village"},{"id":"3203721645","name":"Verlaine-sur-Ourthe","lat":50.4003678,"lon":5.5104331,"type":"village"},{"id":"3300221255","name":"Bereldange","lat":49.6552606,"lon":6.1215966,"type":"village"},{"id":"3330536032","name":"Renuamont","lat":50.0183046,"lon":5.5891244,"type":"village"},{"id":"3356220994","name":"Commanster","lat":50.2526744,"lon":6.001649,"type":"village"},{"id":"3384065419","name":"Bêche","lat":50.263403,"lon":5.9175316,"type":"village"},{"id":"3425202622","name":"Hobscheid","lat":49.687813,"lon":5.9139276,"type":"village"},{"id":"3717421936","name":"Rechrival","lat":50.0073254,"lon":5.5789291,"type":"village"},{"id":"3968307540","name":"Champlon-Famenne","lat":50.2165601,"lon":5.379299,"type":"village"},{"id":"4049093002","name":"Érezée","lat":50.2930558,"lon":5.5597642,"type":"village"},{"id":"4073729937","name":"Bohon","lat":50.3570153,"lon":5.4752962,"type":"village"},{"id":"4502343519","name":"Mogimont","lat":49.8505667,"lon":5.0690859,"type":"village"},{"id":"4513626006","name":"Offaing","lat":49.8352948,"lon":5.4769667,"type":"village"},{"id":"4529513472","name":"Belmont","lat":49.5819725,"lon":5.5695542,"type":"village"},{"id":"4590545979","name":"Monville","lat":50.2865252,"lon":5.430718,"type":"village"},{"id":"5090487164","name":"Hagelsdorf","lat":49.6925865,"lon":6.3642576,"type":"village"},{"id":"5226188582","name":"Findel","lat":49.6262974,"lon":6.1976957,"type":"village"},{"id":"5226744169","name":"Schimpach","lat":50.0096768,"lon":5.848252,"type":"village"},{"id":"5509570914","name":"Weidingen","lat":49.9718117,"lon":5.940063,"type":"village"},{"id":"6076161263","name":"Wecker","lat":49.6956944,"lon":6.3878176,"type":"village"},{"id":"6173360081","name":"Erpeldange","lat":49.9781688,"lon":5.9477465,"type":"village"},{"id":"6188424521","name":"Rosières","lat":49.920357,"lon":5.5787401,"type":"village"},{"id":"7215296701","name":"Heiderscheidergrund","lat":49.9059946,"lon":5.9605894,"type":"village"},{"id":"7215296702","name":"Eltz","lat":49.7780867,"lon":5.8933745,"type":"village"},{"id":"7215296709","name":"Oberfeulen","lat":49.8477461,"lon":6.0337063,"type":"village"},{"id":"7215296710","name":"Eisenbach","lat":50.0049255,"lon":6.146208,"type":"village"},{"id":"7215296711","name":"Colmar-Berg","lat":49.811143,"lon":6.0910235,"type":"village"},{"id":"8478190564","name":"Morville","lat":50.3377441,"lon":5.5349414,"type":"village"},{"id":"8740262348","name":"Cherapont","lat":50.1751057,"lon":5.9274204,"type":"village"},{"id":"8909925971","name":"Ancienne caserne Léopold","lat":49.684904,"lon":5.8191992,"type":"city_block"},{"id":"10688012159","name":"Mompach","lat":49.7520823,"lon":6.4644926,"type":"village"},{"id":"11816224557","name":"Wormeldange","lat":49.6120221,"lon":6.4059607,"type":"village"},{"id":"12473345577","name":"Petit-Somme","lat":50.3497201,"lon":5.4017547,"type":"village"}]