[{"id":"129991407","name":"Chișinău","lat":47.0245117,"lon":28.8322923,"type":"city"},{"id":"261076253","name":"Ungheni","lat":47.2059965,"lon":27.798917,"type":"city"},{"id":"261997752","name":"Valea Mare","lat":47.1330495,"lon":27.8613843,"type":"village"},{"id":"262054858","name":"Codru","lat":46.9689261,"lon":28.8276657,"type":"town"},{"id":"262054911","name":"Băcioi","lat":46.9160385,"lon":28.8920635,"type":"village"},{"id":"262349117","name":"Rădenii Vechi","lat":47.2973103,"lon":28.0004402,"type":"village"},{"id":"262632905","name":"Cricova","lat":47.1369462,"lon":28.8618053,"type":"town"},{"id":"262632916","name":"Stăuceni","lat":47.0957801,"lon":28.8683681,"type":"town"},{"id":"262632936","name":"Grătiești","lat":47.0994368,"lon":28.8245467,"type":"village"},{"id":"262633672","name":"Rezina","lat":47.2165574,"lon":27.8770248,"type":"village"},{"id":"262633869","name":"Novaia Nicolaevca","lat":47.2698079,"lon":27.8441706,"type":"village"},{"id":"262633925","name":"Pîrlița","lat":47.3218213,"lon":27.883416,"type":"village"},{"id":"262634106","name":"Agronomovca","lat":47.3479768,"lon":27.8923103,"type":"village"},{"id":"262634126","name":"Hristoforovca","lat":47.3565848,"lon":27.9180847,"type":"village"},{"id":"262634434","name":"Bumbăta","lat":47.3409459,"lon":27.9688729,"type":"village"},{"id":"262634472","name":"Romanovca","lat":47.3754656,"lon":27.9712657,"type":"village"},{"id":"262634522","name":"Cornești","lat":47.3564908,"lon":28.0091608,"type":"village"},{"id":"262635245","name":"Leordoaia","lat":47.3376657,"lon":28.1389016,"type":"village"},{"id":"262635287","name":"Călărași","lat":47.2519272,"lon":28.3177979,"type":"town"},{"id":"262635301","name":"Strășeni","lat":47.1474401,"lon":28.6150196,"type":"city"},{"id":"262781628","name":"Zagarancea","lat":47.2436521,"lon":27.7676554,"type":"village"},{"id":"263017815","name":"Alexeevca","lat":47.2674722,"lon":27.9324452,"type":"village"},{"id":"263020443","name":"Buzduganii de Jos","lat":47.1421278,"lon":27.8257825,"type":"village"},{"id":"263020444","name":"Buzduganii de Sus","lat":47.1593277,"lon":27.862977,"type":"village"},{"id":"263020445","name":"Morenii Vechi","lat":47.1270968,"lon":27.8839669,"type":"village"},{"id":"263024844","name":"Morenii Noi","lat":47.127794,"lon":27.9191162,"type":"village"},{"id":"263024846","name":"Frăsinești","lat":47.0359526,"lon":28.0048492,"type":"village"},{"id":"263024847","name":"Măcărești","lat":47.0501591,"lon":27.9729947,"type":"village"},{"id":"263025388","name":"Costuleni","lat":47.080304,"lon":27.9133157,"type":"village"},{"id":"263025389","name":"Șicovăț","lat":47.1057355,"lon":27.9075613,"type":"village"},{"id":"263025390","name":"Florițoaia Nouă","lat":47.1709427,"lon":27.9217027,"type":"village"},{"id":"263025391","name":"Grozasca","lat":47.1738865,"lon":27.9011736,"type":"village"},{"id":"263027090","name":"Florițoaia Veche","lat":47.2018048,"lon":27.9025044,"type":"village"},{"id":"263027211","name":"Cetireni","lat":47.2157558,"lon":27.9141556,"type":"village"},{"id":"263027212","name":"Unțești","lat":47.2314075,"lon":27.9071127,"type":"village"},{"id":"263027213","name":"Săghieni","lat":47.2458897,"lon":27.9724793,"type":"village"},{"id":"263027554","name":"Vulpești","lat":47.2399998,"lon":27.881723,"type":"village"},{"id":"263027793","name":"Lidovca","lat":47.2747183,"lon":27.9027567,"type":"village"},{"id":"263027986","name":"Mănoilești","lat":47.2307761,"lon":27.8809801,"type":"village"},{"id":"263029104","name":"Elizavetovca","lat":47.2438404,"lon":27.8268024,"type":"village"},{"id":"263029108","name":"Semeni","lat":47.2707311,"lon":27.7547618,"type":"village"},{"id":"263029110","name":"Todirești","lat":47.3175088,"lon":27.8195418,"type":"village"},{"id":"264476981","name":"Petrești","lat":47.3088205,"lon":27.7451063,"type":"village"},{"id":"264478013","name":"Petrești (localitate-stație de cale ferată)","lat":47.2890903,"lon":27.7432913,"type":"village"},{"id":"264478014","name":"Blindești","lat":47.3129217,"lon":27.6713785,"type":"village"},{"id":"264478018","name":"Floreni","lat":47.3461397,"lon":27.6626548,"type":"village"},{"id":"264478019","name":"Sculeni","lat":47.3275116,"lon":27.6263803,"type":"village"},{"id":"264478020","name":"Gherman","lat":47.3605972,"lon":27.6046158,"type":"village"},{"id":"264479942","name":"Buciumeni","lat":47.3715519,"lon":27.7133175,"type":"village"},{"id":"264479944","name":"Florești","lat":47.3844505,"lon":27.7157273,"type":"village"},{"id":"264479947","name":"Cioropcani","lat":47.3976474,"lon":27.6967674,"type":"village"},{"id":"264479949","name":"Stolniceni","lat":47.4114482,"lon":27.7127648,"type":"village"},{"id":"264479950","name":"Bulhac","lat":47.4273826,"lon":27.7399769,"type":"village"},{"id":"264479952","name":"Chirileni","lat":47.3805074,"lon":27.77611,"type":"village"},{"id":"264479954","name":"Bușila","lat":47.388893,"lon":27.8101531,"type":"village"},{"id":"264479956","name":"Grăseni","lat":47.3518005,"lon":27.8350782,"type":"village"},{"id":"264479957","name":"Zăzulenii Noi","lat":47.3841931,"lon":27.8742121,"type":"village"},{"id":"264479959","name":"Negurenii Noi","lat":47.3971653,"lon":27.8886494,"type":"village"},{"id":"264479961","name":"Negurenii Vechi","lat":47.4108981,"lon":27.8800816,"type":"village"},{"id":"264479962","name":"Zăzulenii Vechi","lat":47.4107993,"lon":27.8563049,"type":"village"},{"id":"264479975","name":"Teșcureni","lat":47.4092002,"lon":27.944685,"type":"village"},{"id":"264481303","name":"Coșeni","lat":47.4400003,"lon":27.9230833,"type":"village"},{"id":"264481305","name":"Țîghira","lat":47.4461081,"lon":27.9009841,"type":"village"},{"id":"264481306","name":"Măgurele","lat":47.4610334,"lon":27.9680547,"type":"village"},{"id":"264481307","name":"Izvoreni","lat":47.4306456,"lon":27.9759918,"type":"village"},{"id":"264481308","name":"Boghenii Noi","lat":47.4251189,"lon":28.0107531,"type":"village"},{"id":"264481310","name":"Drujba","lat":47.4337826,"lon":28.0770826,"type":"village"},{"id":"264481312","name":"Poiana","lat":47.3891595,"lon":28.0006139,"type":"village"},{"id":"264481314","name":"Boghenii Vechi","lat":47.3975724,"lon":28.0270217,"type":"village"},{"id":"264481315","name":"Sinești","lat":47.3969869,"lon":28.0483441,"type":"village"},{"id":"264481316","name":"Mînzătești","lat":47.3943238,"lon":28.0657537,"type":"village"},{"id":"264481317","name":"Hîrcești","lat":47.3955748,"lon":28.0850735,"type":"village"},{"id":"264481319","name":"Curtoaia","lat":47.3923879,"lon":28.1017361,"type":"village"},{"id":"264481320","name":"Condrătești","lat":47.4146475,"lon":28.1069877,"type":"village"},{"id":"264481321","name":"Năpădeni","lat":47.4030919,"lon":28.1511888,"type":"village"},{"id":"264481323","name":"Cornova","lat":47.397143,"lon":28.173043,"type":"village"},{"id":"265099144","name":"Briceni","lat":48.3613276,"lon":27.0849008,"type":"town"},{"id":"265099146","name":"Dondușeni","lat":48.2374994,"lon":27.610869,"type":"town"},{"id":"265099147","name":"Edineț","lat":48.1684275,"lon":27.2984813,"type":"city"},{"id":"265099148","name":"Soroca","lat":48.1571286,"lon":28.2996052,"type":"city"},{"id":"265099149","name":"Drochia","lat":48.0318141,"lon":27.8157233,"type":"town"},{"id":"265099150","name":"Rîșcani","lat":47.9535987,"lon":27.5514453,"type":"town"},{"id":"265099152","name":"Glodeni","lat":47.7744001,"lon":27.50441,"type":"town"},{"id":"265099153","name":"Șoldănești","lat":47.8135624,"lon":28.793231,"type":"town"},{"id":"265099156","name":"Sîngerei","lat":47.636085,"lon":28.1455434,"type":"town"},{"id":"265099157","name":"Fălești","lat":47.5735141,"lon":27.7068016,"type":"town"},{"id":"265099158","name":"Telenești","lat":47.5030998,"lon":28.3638314,"type":"town"},{"id":"265099159","name":"Orhei","lat":47.3782288,"lon":28.8246754,"type":"city"},{"id":"265099162","name":"Nisporeni","lat":47.07758,"lon":28.177842,"type":"town"},{"id":"265099163","name":"Ialoveni","lat":46.94376,"lon":28.7767232,"type":"town"},{"id":"265099164","name":"Anenii Noi","lat":46.8788495,"lon":29.229104,"type":"town"},{"id":"265099165","name":"Бендеры","lat":46.8218177,"lon":29.4819196,"type":"city"},{"id":"265099168","name":"Căușeni","lat":46.6495405,"lon":29.4067719,"type":"town"},{"id":"265099169","name":"Ștefan Vodă","lat":46.5156075,"lon":29.6621136,"type":"town"},{"id":"265099170","name":"Cimișlia","lat":46.5214777,"lon":28.7832993,"type":"town"},{"id":"265099171","name":"Leova","lat":46.480626,"lon":28.256329,"type":"town"},{"id":"265099173","name":"Basarabeasca","lat":46.3324912,"lon":28.9760937,"type":"town"},{"id":"265099174","name":"Comrat","lat":46.301119,"lon":28.6558805,"type":"city"},{"id":"265099175","name":"Cantemir","lat":46.277497,"lon":28.2004972,"type":"town"},{"id":"265099177","name":"Cahul","lat":45.9044087,"lon":28.1946583,"type":"city"},{"id":"265099180","name":"Taraclia","lat":45.8979764,"lon":28.6687069,"type":"town"},{"id":"265593192","name":"Bahmut","lat":47.3224854,"lon":28.1130382,"type":"village"},{"id":"266133153","name":"Cotihana","lat":45.9371352,"lon":28.241819,"type":"village"},{"id":"266134421","name":"Ivancea","lat":47.2853992,"lon":28.8560466,"type":"village"},{"id":"266140221","name":"Durlești","lat":47.0228298,"lon":28.764173,"type":"town"},{"id":"266185307","name":"Bălți","lat":47.7623952,"lon":27.9286022,"type":"city"},{"id":"266185322","name":"Elizaveta","lat":47.7824005,"lon":28.0154767,"type":"village"},{"id":"266185371","name":"Sadovoe","lat":47.7784726,"lon":27.7958168,"type":"village"},{"id":"266203081","name":"Milești","lat":47.2193434,"lon":28.041667,"type":"village"},{"id":"266203082","name":"Bălănești","lat":47.2049755,"lon":28.0653476,"type":"village"},{"id":"266203083","name":"Găureni","lat":47.1997679,"lon":28.086866,"type":"village"},{"id":"266203084","name":"Vînători","lat":47.1871106,"lon":28.1036554,"type":"village"},{"id":"266203085","name":"Ciutești","lat":47.1752797,"lon":28.1220231,"type":"village"},{"id":"266203087","name":"Seliște","lat":47.1637534,"lon":28.1326202,"type":"village"},{"id":"266203089","name":"Valea Nîrnovei","lat":47.1550123,"lon":28.099367,"type":"village"},{"id":"266203090","name":"Cîrnești","lat":47.172299,"lon":27.9991621,"type":"village"},{"id":"266203091","name":"Ciorești","lat":47.1666667,"lon":28.2229812,"type":"village"},{"id":"266203092","name":"Vulcănești","lat":47.1535853,"lon":28.1906705,"type":"village"},{"id":"266203093","name":"Păruceni","lat":47.1503619,"lon":28.1021264,"type":"village"},{"id":"266203094","name":"Boldurești","lat":47.1323344,"lon":28.0534013,"type":"village"},{"id":"266203095","name":"Brătuleni","lat":47.137422,"lon":27.9745594,"type":"village"},{"id":"266203096","name":"Chilișoaia","lat":47.1121403,"lon":28.029934,"type":"village"},{"id":"266203097","name":"Șendreni","lat":47.1227365,"lon":28.1871078,"type":"village"},{"id":"266203098","name":"Vărzărești","lat":47.1050845,"lon":28.1831951,"type":"village"},{"id":"266203099","name":"Bursuc","lat":47.0965299,"lon":28.3000979,"type":"village"},{"id":"266203100","name":"Băcșeni","lat":47.0858979,"lon":28.016873,"type":"village"},{"id":"266203101","name":"Luminița","lat":47.0835743,"lon":28.0760158,"type":"village"},{"id":"266203102","name":"Isăicani","lat":47.0658233,"lon":28.0249106,"type":"village"},{"id":"266203103","name":"Valea-Trestieni","lat":47.0715841,"lon":28.0711567,"type":"village"},{"id":"266203104","name":"Selișteni","lat":47.0619943,"lon":28.0687106,"type":"village"},{"id":"266203105","name":"Odobești","lat":47.0519306,"lon":28.071078,"type":"village"},{"id":"266203106","name":"Soltănești","lat":47.059697,"lon":28.1100841,"type":"village"},{"id":"266203107","name":"Bărboieni","lat":47.0199532,"lon":28.0604009,"type":"village"},{"id":"266203108","name":"Grozești","lat":46.9989102,"lon":28.0788483,"type":"village"},{"id":"266203109","name":"Zberoaia","lat":46.9705351,"lon":28.1066065,"type":"village"},{"id":"266203110","name":"Iurceni","lat":47.0789204,"lon":28.2601693,"type":"village"},{"id":"266203111","name":"Cristești","lat":47.0563794,"lon":28.2846669,"type":"village"},{"id":"266203112","name":"Mîrzoaia","lat":47.0325362,"lon":28.2642232,"type":"village"},{"id":"266203113","name":"Bolțun","lat":47.0253674,"lon":28.2881694,"type":"village"},{"id":"266203114","name":"Odaia","lat":47.0087251,"lon":28.2004912,"type":"village"},{"id":"266203115","name":"Marinici","lat":46.9687574,"lon":28.1644996,"type":"village"},{"id":"266203116","name":"Heleșteni","lat":46.9607805,"lon":28.1862448,"type":"village"},{"id":"266203117","name":"Șișcani","lat":46.9717192,"lon":28.2092783,"type":"village"},{"id":"266203120","name":"Bălăurești","lat":46.9399201,"lon":28.136174,"type":"village"},{"id":"266203122","name":"Călimănești","lat":46.9442201,"lon":28.18961,"type":"village"},{"id":"266203125","name":"Drojdieni","lat":46.9383805,"lon":28.2238938,"type":"village"},{"id":"267474164","name":"Delacău","lat":47.0985224,"lon":29.3033988,"type":"village"},{"id":"267482447","name":"Puhăceni","lat":47.0881566,"lon":29.3459196,"type":"village"},{"id":"267482448","name":"Șerpeni","lat":47.0210638,"lon":29.348927,"type":"village"},{"id":"267482449","name":"Speia","lat":47.0078826,"lon":29.2954097,"type":"village"},{"id":"267482451","name":"Maximovca","lat":47.01018,"lon":29.0155918,"type":"village"},{"id":"267482452","name":"Mereni","lat":46.9634494,"lon":29.0556623,"type":"village"},{"id":"267482453","name":"Floreni","lat":46.9365502,"lon":28.9923068,"type":"village"},{"id":"267482454","name":"Telița Nouă","lat":46.9800321,"lon":29.2864592,"type":"village"},{"id":"267482455","name":"Telița","lat":46.9572065,"lon":29.3054954,"type":"village"},{"id":"267482653","name":"Salcia","lat":46.9437717,"lon":29.1701621,"type":"village"},{"id":"267482654","name":"Cobusca Nouă","lat":46.9329843,"lon":29.2071108,"type":"village"},{"id":"267482655","name":"Calfa Nouă","lat":46.9140783,"lon":29.3581936,"type":"village"},{"id":"267482656","name":"Calfa","lat":46.9048125,"lon":29.3769402,"type":"village"},{"id":"267482657","name":"Gura Bîcului","lat":46.9308557,"lon":29.4591546,"type":"village"},{"id":"267482658","name":"Varnița","lat":46.865138,"lon":29.4758529,"type":"village"},{"id":"267492696","name":"Botnărești","lat":46.9309588,"lon":29.1612553,"type":"village"},{"id":"267492697","name":"Merenii Noi","lat":46.9261588,"lon":29.064336,"type":"village"},{"id":"267492698","name":"Chirca","lat":46.9174341,"lon":29.1146962,"type":"village"},{"id":"267492699","name":"Chetrosu","lat":46.9146343,"lon":29.0487751,"type":"village"},{"id":"267492700","name":"Todirești","lat":46.9062419,"lon":29.087316,"type":"village"},{"id":"267492701","name":"Botnăreștii Noi","lat":46.9101898,"lon":29.1587931,"type":"village"},{"id":"267494394","name":"Țînțăreni","lat":46.9012501,"lon":29.138455,"type":"village"},{"id":"267494395","name":"Socoleni","lat":46.9073789,"lon":29.1882502,"type":"village"},{"id":"267494396","name":"Albinița","lat":46.8915313,"lon":29.1838803,"type":"village"},{"id":"267494397","name":"Ruseni","lat":46.8854187,"lon":29.2025762,"type":"village"},{"id":"267494398","name":"Roșcani","lat":46.9003782,"lon":29.3196611,"type":"village"},{"id":"267494399","name":"Bulboaca","lat":46.8911966,"lon":29.3026176,"type":"village"},{"id":"267494400","name":"Crețoaia","lat":46.8666005,"lon":29.134802,"type":"village"},{"id":"267494401","name":"Beriozchi","lat":46.8711196,"lon":29.2670308,"type":"village"},{"id":"267494402","name":"Ciobanovca","lat":46.8138102,"lon":29.1952582,"type":"village"},{"id":"267494403","name":"Geamăna","lat":46.8217522,"lon":29.1381197,"type":"village"},{"id":"267494404","name":"Hîrbovăț","lat":46.8410561,"lon":29.3592037,"type":"village"},{"id":"267494405","name":"Hîrbovățul Nou","lat":46.8321005,"lon":29.2794015,"type":"village"},{"id":"267494406","name":"Mirnoe","lat":46.8036028,"lon":29.2275662,"type":"village"},{"id":"267495475","name":"Balmaz","lat":46.7977263,"lon":29.2837585,"type":"village"},{"id":"267495476","name":"Troița Nouă","lat":46.783082,"lon":29.2573211,"type":"village"},{"id":"267495477","name":"Batîc","lat":46.7957307,"lon":29.1911412,"type":"village"},{"id":"267495491","name":"Nicolaevca","lat":46.7643974,"lon":29.2095293,"type":"village"},{"id":"267495492","name":"Ochiul Roș","lat":46.7676827,"lon":29.1114548,"type":"village"},{"id":"267495493","name":"Picus","lat":46.7514653,"lon":29.0936603,"type":"village"},{"id":"267495494","name":"Larga","lat":46.7594086,"lon":29.1627508,"type":"village"},{"id":"267495495","name":"Zolotievca","lat":46.7362598,"lon":29.1905593,"type":"village"},{"id":"269660176","name":"Saharna","lat":47.6913327,"lon":28.9743557,"type":"village"},{"id":"270795402","name":"Onițcani","lat":47.1454421,"lon":29.0689408,"type":"village"},{"id":"270795403","name":"Coșernița","lat":47.1192231,"lon":29.0454678,"type":"village"},{"id":"270795404","name":"Boșcana","lat":47.1264221,"lon":29.0027062,"type":"village"},{"id":"270795405","name":"Slobozia-Dușca","lat":47.1654185,"lon":29.1205615,"type":"village"},{"id":"270795406","name":"Hrușova","lat":47.136318,"lon":28.9505492,"type":"village"},{"id":"270795407","name":"Goian","lat":47.1335144,"lon":28.9074677,"type":"village"},{"id":"270795408","name":"Ciorescu","lat":47.1288983,"lon":28.888646,"type":"village"},{"id":"270795409","name":"Goianul Nou","lat":47.1177253,"lon":28.8997665,"type":"village"},{"id":"270795410","name":"Budești","lat":47.0662032,"lon":28.99606,"type":"village"},{"id":"270799824","name":"Stohnaia","lat":47.732924,"lon":28.9655683,"type":"village"},{"id":"270799825","name":"Ciorna","lat":47.7688453,"lon":28.9763837,"type":"village"},{"id":"270799826","name":"Boșernița","lat":47.7870542,"lon":28.9825957,"type":"village"},{"id":"270799827","name":"Solonceni","lat":47.8284161,"lon":29.0038921,"type":"village"},{"id":"270799828","name":"Mateuți","lat":47.8092977,"lon":28.9299844,"type":"village"},{"id":"270799829","name":"Păpăuți","lat":47.7957521,"lon":28.9243098,"type":"village"},{"id":"270799830","name":"Tarasova","lat":47.8777531,"lon":28.9570877,"type":"village"},{"id":"270799831","name":"Țareuca","lat":47.7489132,"lon":28.8836384,"type":"village"},{"id":"270799832","name":"Țahnăuți","lat":47.7402709,"lon":28.8638661,"type":"village"},{"id":"270799833","name":"Saharna Nouă","lat":47.6759283,"lon":28.9565459,"type":"village"},{"id":"270799834","name":"Echimăuți","lat":47.6944645,"lon":28.9006501,"type":"village"},{"id":"270799835","name":"Cinișeuți","lat":47.695724,"lon":28.856884,"type":"village"},{"id":"273129248","name":"Ohrincea","lat":47.2207478,"lon":29.0598753,"type":"village"},{"id":"273129362","name":"Izbiște","lat":47.2221279,"lon":28.9991799,"type":"village"},{"id":"273129410","name":"Cruglic","lat":47.2200417,"lon":29.0276691,"type":"village"},{"id":"273129425","name":"Criuleni","lat":47.2132673,"lon":29.1599485,"type":"town"},{"id":"273134345","name":"Ustia","lat":47.2556673,"lon":29.1236138,"type":"village"},{"id":"273136891","name":"Cocieri","lat":47.3050543,"lon":29.1121616,"type":"village"},{"id":"273137033","name":"Holercani","lat":47.3115872,"lon":29.0682608,"type":"village"},{"id":"273143142","name":"Михайловка","lat":47.4862333,"lon":29.1190329,"type":"village"},{"id":"273148834","name":"Гидирим","lat":47.7179499,"lon":28.9739951,"type":"village"},{"id":"273151706","name":"Воронково","lat":47.7020382,"lon":29.1201669,"type":"village"},{"id":"273165118","name":"Rogojeni, loc. st. c. f.","lat":47.8332659,"lon":28.4431316,"type":"village"},{"id":"273166036","name":"Cotiujenii Mari","lat":47.8463145,"lon":28.5551479,"type":"village"},{"id":"273179169","name":"Cimișeni","lat":47.0119899,"lon":29.1283484,"type":"village"},{"id":"273184231","name":"Chițcani / Кицканы","lat":46.7817895,"lon":29.6106106,"type":"village"},{"id":"273185694","name":"Карагаш","lat":46.785888,"lon":29.684114,"type":"village"},{"id":"273185788","name":"Слободзея","lat":46.7276351,"lon":29.7087054,"type":"town"},{"id":"273185822","name":"Чобручи","lat":46.6802239,"lon":29.7554817,"type":"village"},{"id":"273191580","name":"Красное","lat":46.6409687,"lon":29.8288743,"type":"town"},{"id":"273191584","name":"Коротное","lat":46.6315277,"lon":29.8516657,"type":"village"},{"id":"273191868","name":"Olănești","lat":46.4965461,"lon":29.9203301,"type":"village"},{"id":"273191897","name":"Antonești","lat":46.4953337,"lon":29.8468706,"type":"village"},{"id":"273191912","name":"Carahasani","lat":46.4656337,"lon":29.8143585,"type":"village"},{"id":"273191958","name":"Slobozia","lat":46.5050188,"lon":29.7383833,"type":"village"},{"id":"273191959","name":"Purcari","lat":46.5366863,"lon":29.8562302,"type":"village"},{"id":"273192085","name":"Răscăieți","lat":46.5761528,"lon":29.7770113,"type":"village"},{"id":"273192198","name":"Feștelița","lat":46.5470693,"lon":29.5632946,"type":"village"},{"id":"273192234","name":"Marianca de Jos","lat":46.5200875,"lon":29.6056861,"type":"village"},{"id":"273192235","name":"Semionovca","lat":46.5149471,"lon":29.5162594,"type":"village"},{"id":"273192279","name":"Popeasca","lat":46.5989856,"lon":29.5341122,"type":"village"},{"id":"273192681","name":"Zaim","lat":46.6184316,"lon":29.3406442,"type":"village"},{"id":"273195920","name":"Cișmichioi","lat":45.5441258,"lon":28.382887,"type":"village"},{"id":"273195987","name":"Vulcănești","lat":45.6824005,"lon":28.4022095,"type":"town"},{"id":"273197847","name":"Giurgiulești","lat":45.4825418,"lon":28.1981804,"type":"village"},{"id":"273198121","name":"Slobozia Mare","lat":45.5768187,"lon":28.1762102,"type":"village"},{"id":"273202648","name":"Colibași","lat":45.7176313,"lon":28.181431,"type":"village"},{"id":"273204672","name":"Vadul lui Isac","lat":45.7641367,"lon":28.169216,"type":"village"},{"id":"273204851","name":"Manta","lat":45.8024229,"lon":28.1776545,"type":"village"},{"id":"273204861","name":"Pașcani","lat":45.826352,"lon":28.1836626,"type":"village"},{"id":"273204865","name":"Crihana Veche","lat":45.846083,"lon":28.1928418,"type":"village"},{"id":"273205900","name":"Roșu","lat":45.9466252,"lon":28.1986316,"type":"village"},{"id":"273206020","name":"Andrușul de Jos","lat":45.9831919,"lon":28.2185106,"type":"village"},{"id":"273206293","name":"Zîrnești","lat":46.0114546,"lon":28.1635875,"type":"village"},{"id":"273206409","name":"Gotești","lat":46.1464826,"lon":28.1695879,"type":"village"},{"id":"273206559","name":"Flocoasa","lat":46.1516023,"lon":28.2518137,"type":"village"},{"id":"273206918","name":"Ciobalaccia","lat":46.1719133,"lon":28.2842853,"type":"village"},{"id":"273207081","name":"Ghioltosu","lat":46.1907107,"lon":28.1622051,"type":"village"},{"id":"273207303","name":"Plopi","lat":46.1958105,"lon":28.2216012,"type":"village"},{"id":"273207356","name":"Țiganca","lat":46.2332271,"lon":28.1561983,"type":"village"},{"id":"273207592","name":"Antonești","lat":46.331165,"lon":28.2131065,"type":"village"},{"id":"273208068","name":"Toceni","lat":46.3686078,"lon":28.2163894,"type":"village"},{"id":"273208378","name":"Hănăsenii Noi","lat":46.4154398,"lon":28.2539589,"type":"village"},{"id":"273209047","name":"Filipeni","lat":46.4409923,"lon":28.3314056,"type":"village"},{"id":"273210657","name":"Sîrma","lat":46.5255016,"lon":28.2534714,"type":"village"},{"id":"273211560","name":"Sărata-Răzeși","lat":46.6141287,"lon":28.2665177,"type":"village"},{"id":"273211699","name":"Tomai","lat":46.5742921,"lon":28.3164481,"type":"village"},{"id":"273212037","name":"Mingir","lat":46.6705802,"lon":28.3271758,"type":"village"},{"id":"273215158","name":"Bujor","lat":46.9234734,"lon":28.2663433,"type":"village"},{"id":"273219829","name":"Roșcani","lat":47.147188,"lon":28.6763303,"type":"village"},{"id":"273219862","name":"Sireți","lat":47.1329417,"lon":28.7141185,"type":"village"},{"id":"273220542","name":"Recea","lat":47.2236095,"lon":28.5794423,"type":"village"},{"id":"273220615","name":"Zubrești","lat":47.2395738,"lon":28.5262941,"type":"village"},{"id":"273220616","name":"Chirianca","lat":47.2578283,"lon":28.5312113,"type":"village"},{"id":"273220858","name":"Codreanca","lat":47.2854523,"lon":28.5896053,"type":"village"},{"id":"273220892","name":"Țigănești","lat":47.2979826,"lon":28.5515764,"type":"village"},{"id":"273220950","name":"Onești","lat":47.2812815,"lon":28.5464638,"type":"village"},{"id":"273221130","name":"Lupa-Recea","lat":47.3139106,"lon":28.5913234,"type":"village"},{"id":"273221136","name":"Tabăra","lat":47.3306552,"lon":28.5631902,"type":"village"},{"id":"273221240","name":"Bravicea","lat":47.3637672,"lon":28.436735,"type":"village"},{"id":"273221460","name":"Meleșeni","lat":47.3730163,"lon":28.3921365,"type":"village"},{"id":"273221530","name":"Țibirica","lat":47.3714795,"lon":28.3702853,"type":"village"},{"id":"273221850","name":"Hoginești","lat":47.3739091,"lon":28.3205187,"type":"village"},{"id":"273222266","name":"Onișcani","lat":47.3671404,"lon":28.2813058,"type":"village"},{"id":"273222271","name":"Dereneu","lat":47.3811801,"lon":28.2458311,"type":"village"},{"id":"273222291","name":"Hirova","lat":47.4125329,"lon":28.2832462,"type":"village"},{"id":"273222298","name":"Rădeni","lat":47.3964615,"lon":28.2135488,"type":"village"},{"id":"273224045","name":"Cucioaia","lat":47.4605841,"lon":28.184704,"type":"village"},{"id":"273227222","name":"Glinjeni","lat":47.5979289,"lon":27.8899253,"type":"village"},{"id":"273227543","name":"Suvorovca","lat":47.6393268,"lon":27.8917328,"type":"village"},{"id":"273491045","name":"Sîngera","lat":46.9140101,"lon":28.9725412,"type":"town"},{"id":"273500505","name":"Ratuș","lat":47.1659633,"lon":28.8080496,"type":"village"},{"id":"273501448","name":"Peresecina","lat":47.2490628,"lon":28.7658617,"type":"village"},{"id":"273504674","name":"Seliște","lat":47.3358239,"lon":28.7829273,"type":"village"},{"id":"273504699","name":"Isacova","lat":47.3689637,"lon":28.7168969,"type":"village"},{"id":"273504709","name":"Neculăieuca","lat":47.3578859,"lon":28.693085,"type":"village"},{"id":"273508014","name":"Jevreni","lat":47.2582563,"lon":29.0619869,"type":"village"},{"id":"273508183","name":"Răculești","lat":47.269837,"lon":29.0662398,"type":"village"},{"id":"273508303","name":"Bălășești","lat":47.2660537,"lon":29.0468695,"type":"village"},{"id":"273508818","name":"Mașcăuți","lat":47.2896546,"lon":29.0027436,"type":"village"},{"id":"273509348","name":"Butuceni","lat":47.3018008,"lon":28.9673107,"type":"village"},{"id":"273509395","name":"Morovaia","lat":47.2984101,"lon":28.9962973,"type":"village"},{"id":"273510008","name":"Trebujeni","lat":47.3136026,"lon":28.9750402,"type":"village"},{"id":"273510484","name":"Furceni","lat":47.3356274,"lon":28.9237072,"type":"village"},{"id":"273511077","name":"Jeloboc","lat":47.357153,"lon":28.9126162,"type":"village"},{"id":"273511116","name":"Piatra","lat":47.3619378,"lon":28.8986021,"type":"village"},{"id":"273511605","name":"Pohorniceni","lat":47.3733683,"lon":28.8809591,"type":"village"},{"id":"273512369","name":"Mitoc","lat":47.3874171,"lon":28.7835954,"type":"village"},{"id":"273512603","name":"Brăviceni","lat":47.4318591,"lon":28.6593098,"type":"village"},{"id":"273512638","name":"Breanova","lat":47.4163195,"lon":28.6518854,"type":"village"},{"id":"273514157","name":"Mălăiești","lat":47.4622943,"lon":28.6678567,"type":"village"},{"id":"273514449","name":"Ciocîlteni","lat":47.4938744,"lon":28.6112962,"type":"village"},{"id":"273514542","name":"Clișova","lat":47.4723527,"lon":28.5828014,"type":"village"},{"id":"273515019","name":"Ratuș","lat":47.5392829,"lon":28.5039263,"type":"village"},{"id":"273515218","name":"Mîndra","lat":47.5365036,"lon":28.524754,"type":"village"},{"id":"274027347","name":"Etulia Nouă","lat":45.5157859,"lon":28.4380252,"type":"village"},{"id":"274028187","name":"Etulia","lat":45.5396575,"lon":28.4419734,"type":"village"},{"id":"274028791","name":"Cîșlița-Prut","lat":45.5406739,"lon":28.1721449,"type":"village"},{"id":"274029697","name":"Alexandru Ioan Cuza","lat":45.6069797,"lon":28.448999,"type":"village"},{"id":"274030323","name":"Vulcăneşti, loc.st.c.f.","lat":45.6812895,"lon":28.476999,"type":"village"},{"id":"274030836","name":"Burlăceni","lat":45.7587085,"lon":28.5065136,"type":"village"},{"id":"274030961","name":"Iujnoe","lat":45.7492525,"lon":28.4749383,"type":"village"},{"id":"274031285","name":"Greceni","lat":45.7605136,"lon":28.5336169,"type":"village"},{"id":"274031304","name":"Ciumai","lat":45.7808933,"lon":28.5674027,"type":"village"},{"id":"274031609","name":"Cairaclia","lat":45.7795495,"lon":28.6235933,"type":"village"},{"id":"274031979","name":"Vinogradovca","lat":45.800822,"lon":28.5345096,"type":"village"},{"id":"274031998","name":"Musaitu","lat":45.8214359,"lon":28.4996624,"type":"village"},{"id":"274032761","name":"Găvănoasa","lat":45.7588371,"lon":28.3837787,"type":"village"},{"id":"274032988","name":"Nicolaevca","lat":45.7570331,"lon":28.3748523,"type":"village"},{"id":"274033089","name":"Alexanderfeld","lat":45.8063033,"lon":28.4270434,"type":"village"},{"id":"274034275","name":"Vladimirovca","lat":45.7880267,"lon":28.3630442,"type":"village"},{"id":"274034554","name":"Sătuc","lat":45.8022873,"lon":28.353223,"type":"village"},{"id":"274034883","name":"Pelinei","lat":45.8296332,"lon":28.3216011,"type":"village"},{"id":"274035171","name":"Ursoaia","lat":45.8523271,"lon":28.315512,"type":"village"},{"id":"274035276","name":"Hutulu","lat":45.8604157,"lon":28.298531,"type":"village"},{"id":"274035409","name":"Lebedenco","lat":45.8611534,"lon":28.2895434,"type":"village"},{"id":"274036962","name":"Budăi","lat":45.8443284,"lon":28.4627723,"type":"village"},{"id":"274037664","name":"Chirilovca","lat":45.8144251,"lon":28.5733137,"type":"village"},{"id":"274068577","name":"Novosiolovca","lat":45.8994041,"lon":28.5983333,"type":"village"},{"id":"274068742","name":"Balabanu","lat":45.932151,"lon":28.5760002,"type":"village"},{"id":"274069203","name":"Hîrtop","lat":45.9200461,"lon":28.4917915,"type":"village"},{"id":"274069344","name":"Hagichioi","lat":45.9224595,"lon":28.4642098,"type":"village"},{"id":"274069688","name":"Carbalia","lat":45.8731364,"lon":28.4479472,"type":"village"},{"id":"274069695","name":"Moscovei","lat":45.9125628,"lon":28.3734447,"type":"village"},{"id":"274069768","name":"Lopățica","lat":45.9271319,"lon":28.4139568,"type":"village"},{"id":"274070210","name":"Andrușul de Sus","lat":46.0075511,"lon":28.2457286,"type":"village"},{"id":"274070252","name":"Baurci-Moldoveni","lat":46.0306817,"lon":28.2289047,"type":"village"},{"id":"274070296","name":"Lucești","lat":45.9877555,"lon":28.3325893,"type":"village"},{"id":"274070441","name":"Burlacu","lat":46.0505811,"lon":28.4148139,"type":"village"},{"id":"274070500","name":"Spicoasa","lat":46.0359968,"lon":28.3770828,"type":"village"},{"id":"274070514","name":"Taraclia de Salcie","lat":46.0007594,"lon":28.4146423,"type":"village"},{"id":"274070555","name":"Tartaul de Salcie","lat":45.9686686,"lon":28.4115535,"type":"village"},{"id":"274070557","name":"Albota de Sus","lat":45.9723656,"lon":28.4733552,"type":"village"},{"id":"274070567","name":"Albota de Jos","lat":45.9412181,"lon":28.4834833,"type":"village"},{"id":"274070612","name":"Sofievca","lat":46.007165,"lon":28.4721721,"type":"village"},{"id":"274070618","name":"Roșița","lat":46.0329397,"lon":28.4733552,"type":"village"},{"id":"274071736","name":"Valea Perjei","lat":46.0312831,"lon":28.9276056,"type":"village"},{"id":"274071838","name":"Ceadîr-Lunga","lat":46.057226,"lon":28.8249983,"type":"city"},{"id":"274071873","name":"Corten","lat":46.0179335,"lon":28.7356882,"type":"village"},{"id":"274072087","name":"Cazaclia","lat":46.0060512,"lon":28.6628157,"type":"village"},{"id":"274072193","name":"Baurci","lat":46.092311,"lon":28.6747643,"type":"village"},{"id":"274072241","name":"Gaidar","lat":46.1038316,"lon":28.7668798,"type":"village"},{"id":"274072415","name":"Tvardița","lat":46.1539606,"lon":28.9660834,"type":"town"},{"id":"274072517","name":"Joltai","lat":46.1807712,"lon":28.8723285,"type":"village"},{"id":"274072622","name":"Chiriet-Lunga","lat":46.2131425,"lon":28.9437328,"type":"village"},{"id":"274072647","name":"Tomai","lat":46.1888186,"lon":28.7678737,"type":"village"},{"id":"274072654","name":"Beșalma","lat":46.1730637,"lon":28.6484681,"type":"village"},{"id":"274072659","name":"Congaz","lat":46.1078974,"lon":28.6021997,"type":"village"},{"id":"274072879","name":"Cortenul Nou","lat":46.0070913,"lon":28.5720115,"type":"village"},{"id":"274072913","name":"Svetlîi","lat":46.0175824,"lon":28.5692329,"type":"village"},{"id":"274072957","name":"Alexeevca","lat":46.0305318,"lon":28.5669183,"type":"village"},{"id":"274073829","name":"Borceag","lat":46.0501311,"lon":28.5287409,"type":"village"},{"id":"274073940","name":"Frumușica","lat":46.0829947,"lon":28.4761657,"type":"village"},{"id":"274074283","name":"Chioselia Rusă","lat":46.0858551,"lon":28.5108941,"type":"village"},{"id":"274074403","name":"Chioselia Mare","lat":46.1034705,"lon":28.4826888,"type":"village"},{"id":"274074418","name":"Cîietu","lat":46.1358374,"lon":28.4785697,"type":"village"},{"id":"274074630","name":"Cotovscoe","lat":46.1623272,"lon":28.5139022,"type":"village"},{"id":"274074747","name":"Dimitrova","lat":46.160813,"lon":28.467775,"type":"village"},{"id":"274074774","name":"Chioselia","lat":46.141071,"lon":28.4068153,"type":"village"},{"id":"274074856","name":"Baimaclia","lat":46.1871843,"lon":28.3774494,"type":"village"},{"id":"274075155","name":"Cîșla","lat":46.1451149,"lon":28.3326576,"type":"village"},{"id":"274075173","name":"Coștangalia","lat":46.1087094,"lon":28.3879325,"type":"village"},{"id":"274075176","name":"Doina","lat":46.1130559,"lon":28.3280601,"type":"village"},{"id":"274075467","name":"Badicul Moldovenesc","lat":46.0937097,"lon":28.2684554,"type":"village"},{"id":"274075557","name":"Rumeanțev","lat":46.1110874,"lon":28.2832183,"type":"village"},{"id":"274075630","name":"Constantinești","lat":46.1117401,"lon":28.2157329,"type":"village"},{"id":"274077446","name":"Tartaul","lat":46.2025079,"lon":28.3158685,"type":"village"},{"id":"274077599","name":"Acui","lat":46.1862444,"lon":28.4291828,"type":"village"},{"id":"274077604","name":"Enichioi","lat":46.2225677,"lon":28.4204771,"type":"village"},{"id":"274077613","name":"Floricica","lat":46.2351863,"lon":28.4127033,"type":"village"},{"id":"274082373","name":"Bobocica","lat":46.2248385,"lon":28.4590115,"type":"village"},{"id":"274082408","name":"Șamalia","lat":46.2719828,"lon":28.4370792,"type":"village"},{"id":"274082631","name":"Sadîc","lat":46.2707962,"lon":28.5208499,"type":"village"},{"id":"274082703","name":"Congazcicul de Jos","lat":46.3116004,"lon":28.572005,"type":"village"},{"id":"274083172","name":"Congazcicul de Sus","lat":46.3341245,"lon":28.5641086,"type":"village"},{"id":"274083388","name":"Cociulia","lat":46.353796,"lon":28.4157932,"type":"village"},{"id":"274083404","name":"Vișniovca","lat":46.3329994,"lon":28.4528064,"type":"village"},{"id":"274083851","name":"Capaclia","lat":46.326543,"lon":28.4003451,"type":"village"},{"id":"274083891","name":"Lărguța","lat":46.303774,"lon":28.3237827,"type":"village"},{"id":"274084035","name":"Haragîș","lat":46.2900491,"lon":28.3737553,"type":"village"},{"id":"274084042","name":"Cîrpești","lat":46.2572745,"lon":28.3373171,"type":"village"},{"id":"274084600","name":"Porumbești","lat":46.3147729,"lon":28.2811786,"type":"village"},{"id":"274085121","name":"Hănăseni","lat":46.3476642,"lon":28.3296363,"type":"village"},{"id":"274085221","name":"Pleșeni","lat":46.362595,"lon":28.3468045,"type":"village"},{"id":"274085236","name":"Tigheci","lat":46.3860455,"lon":28.3756436,"type":"village"},{"id":"274085473","name":"Iargara","lat":46.4275436,"lon":28.4348311,"type":"town"},{"id":"274085656","name":"Borogani","lat":46.3689968,"lon":28.5222406,"type":"village"},{"id":"274085700","name":"Dezghingea","lat":46.4269978,"lon":28.6159694,"type":"village"},{"id":"274085808","name":"Bugeac","lat":46.3633359,"lon":28.6629421,"type":"village"},{"id":"274085883","name":"Cioc-Maidan","lat":46.3640139,"lon":28.821963,"type":"village"},{"id":"274086095","name":"Abaclia","lat":46.3621192,"lon":28.9383418,"type":"village"},{"id":"274086206","name":"Iordanovca","lat":46.3933545,"lon":28.9077865,"type":"village"},{"id":"274086256","name":"Carabetovca","lat":46.4133272,"lon":28.913061,"type":"village"},{"id":"274086294","name":"Sadaclia","lat":46.4475847,"lon":28.8789548,"type":"village"},{"id":"274086323","name":"Avdarma","lat":46.253261,"lon":28.8408458,"type":"village"},{"id":"274086371","name":"Ferapontievca","lat":46.2366407,"lon":28.768748,"type":"village"},{"id":"274086487","name":"Bașcalia","lat":46.3071266,"lon":28.7835111,"type":"village"},{"id":"274086682","name":"Ciucur-Mingir","lat":46.4452227,"lon":28.7522603,"type":"village"},{"id":"274086721","name":"Topala","lat":46.4636717,"lon":28.6777592,"type":"village"},{"id":"274088081","name":"Sărata Nouă","lat":46.4907104,"lon":28.3870063,"type":"village"},{"id":"274088184","name":"Seliște","lat":46.5291328,"lon":28.4312606,"type":"village"},{"id":"274088193","name":"Cazangic","lat":46.5092822,"lon":28.4346984,"type":"village"},{"id":"274703200","name":"Condrița","lat":47.0567493,"lon":28.5717361,"type":"village"},{"id":"274703924","name":"Scoreni","lat":47.0681831,"lon":28.6073215,"type":"village"},{"id":"274709891","name":"Lozova","lat":47.1353984,"lon":28.3794705,"type":"village"},{"id":"275020536","name":"Iserlia","lat":46.4840337,"lon":28.9552384,"type":"village"},{"id":"275023021","name":"Baimaclia","lat":46.5894192,"lon":29.0971186,"type":"village"},{"id":"275023446","name":"Batîr","lat":46.5742189,"lon":29.0019713,"type":"village"},{"id":"275023757","name":"Troițcoe","lat":46.5134136,"lon":29.0296087,"type":"village"},{"id":"275024246","name":"Surchiceni","lat":46.62158,"lon":29.0574391,"type":"village"},{"id":"275028777","name":"Selemet","lat":46.5800541,"lon":28.9231888,"type":"village"},{"id":"275028785","name":"Ciuflești","lat":46.6222867,"lon":29.0021543,"type":"village"},{"id":"275028794","name":"Satul Nou","lat":46.6163827,"lon":28.9097992,"type":"village"},{"id":"275028803","name":"Baurci","lat":46.6579025,"lon":28.9507066,"type":"village"},{"id":"275028804","name":"Căinari","lat":46.6810186,"lon":29.0465165,"type":"town"},{"id":"275028818","name":"Cărbuna","lat":46.7116931,"lon":28.9516669,"type":"village"},{"id":"277333600","name":"Văleni","lat":45.6542551,"lon":28.1795446,"type":"village"},{"id":"277334374","name":"Tretești","lat":45.991378,"lon":28.1743276,"type":"village"},{"id":"277334477","name":"Larga Nouă","lat":46.0688775,"lon":28.2232742,"type":"village"},{"id":"277334538","name":"Larga Veche","lat":46.0701174,"lon":28.2445509,"type":"village"},{"id":"277335460","name":"Huluboaia","lat":46.0659514,"lon":28.332785,"type":"village"},{"id":"277335661","name":"Paicu","lat":46.0380651,"lon":28.1564132,"type":"village"},{"id":"277335678","name":"Cucoara","lat":46.0581577,"lon":28.1679992,"type":"village"},{"id":"277335687","name":"Chircani","lat":46.0846969,"lon":28.1691858,"type":"village"},{"id":"277335866","name":"Iasnaia Poleana","lat":46.1410257,"lon":28.3045558,"type":"village"},{"id":"277336158","name":"Tudorești","lat":45.9615857,"lon":28.4011153,"type":"village"},{"id":"277336199","name":"Bucuria","lat":45.9675518,"lon":28.3492736,"type":"village"},{"id":"277336245","name":"Trifeștii Noi","lat":45.946787,"lon":28.3551101,"type":"village"},{"id":"277337848","name":"Chirsova","lat":46.2323235,"lon":28.6510677,"type":"village"},{"id":"277338353","name":"Copceac","lat":45.8545473,"lon":28.6933057,"type":"village"},{"id":"277344865","name":"Iepureni","lat":46.2642008,"lon":28.2233459,"type":"village"},{"id":"277344883","name":"Cania","lat":46.2811611,"lon":28.2277334,"type":"village"},{"id":"277345111","name":"Hîrtop","lat":46.2355171,"lon":28.2499053,"type":"village"},{"id":"277345244","name":"Lingura","lat":46.2297953,"lon":28.3231304,"type":"village"},{"id":"277345260","name":"Crăciun","lat":46.2323106,"lon":28.3486108,"type":"village"},{"id":"277345339","name":"Popovca","lat":46.2486375,"lon":28.3099098,"type":"village"},{"id":"277345407","name":"Suhat","lat":46.1633212,"lon":28.3453917,"type":"village"},{"id":"277345574","name":"Țolica","lat":46.1938095,"lon":28.480715,"type":"village"},{"id":"277345606","name":"Taraclia","lat":46.2127424,"lon":28.5171982,"type":"village"},{"id":"277345896","name":"Dudulești","lat":46.3270838,"lon":28.5147404,"type":"village"},{"id":"277346588","name":"Tătărășeni","lat":46.3430855,"lon":28.3035937,"type":"village"},{"id":"277346869","name":"Leca","lat":46.3107296,"lon":28.2079555,"type":"village"},{"id":"277347012","name":"Vîlcele","lat":46.3812508,"lon":28.2518574,"type":"village"},{"id":"277347103","name":"Stoianovca","lat":46.2578163,"lon":28.1692408,"type":"village"},{"id":"277347167","name":"Țărăncuța","lat":46.1085584,"lon":28.411032,"type":"village"},{"id":"277347188","name":"Șofranovca","lat":46.1236612,"lon":28.3591232,"type":"village"},{"id":"277347386","name":"Alexandrovca","lat":46.2296167,"lon":28.2669958,"type":"village"},{"id":"277348443","name":"Aluatu","lat":45.8640677,"lon":28.5839738,"type":"village"},{"id":"277352318","name":"Dermengi","lat":45.8796056,"lon":28.4123125,"type":"village"},{"id":"277352646","name":"Salcia","lat":45.8742245,"lon":28.513038,"type":"village"},{"id":"277352706","name":"Orehovca","lat":45.906846,"lon":28.525517,"type":"village"},{"id":"277352833","name":"Cealîc","lat":45.9955112,"lon":28.5555196,"type":"village"},{"id":"277352899","name":"Samurza","lat":45.9760499,"lon":28.5639268,"type":"village"},{"id":"277352978","name":"Mirnoe","lat":45.7348162,"lon":28.5801972,"type":"village"},{"id":"277354218","name":"Bogdanovca Veche","lat":46.4734021,"lon":28.8254187,"type":"village"},{"id":"277354506","name":"Bogdanovca Nouă","lat":46.4950286,"lon":28.8418331,"type":"village"},{"id":"277354575","name":"Mihailovca","lat":46.5446431,"lon":28.9352652,"type":"village"},{"id":"277354586","name":"Suric","lat":46.6311726,"lon":28.8741881,"type":"village"},{"id":"277354594","name":"Sagaidac","lat":46.6609055,"lon":28.8426457,"type":"village"},{"id":"277354644","name":"Porumbrei","lat":46.6896088,"lon":28.81239,"type":"village"},{"id":"277354646","name":"Sagaidacul Nou","lat":46.693866,"lon":28.8496273,"type":"village"},{"id":"277354745","name":"Zloți, localitatea-stație de cale ferată","lat":46.6955299,"lon":28.8959267,"type":"village"},{"id":"277354753","name":"Codreni","lat":46.6769216,"lon":28.8835147,"type":"village"},{"id":"277354763","name":"Coștangalia","lat":46.6189119,"lon":28.802777,"type":"village"},{"id":"277354802","name":"Gradiște","lat":46.6104521,"lon":28.7552192,"type":"village"},{"id":"277354803","name":"Valea Perjei","lat":46.623658,"lon":28.7215735,"type":"village"},{"id":"277354816","name":"Iurievca","lat":46.6688093,"lon":28.7642529,"type":"village"},{"id":"277354847","name":"Hîrtop","lat":46.6541147,"lon":28.6837512,"type":"village"},{"id":"277354848","name":"Mereni","lat":46.6743249,"lon":28.6477575,"type":"village"},{"id":"277354863","name":"Fetița","lat":46.6937948,"lon":28.6724783,"type":"village"},{"id":"277354918","name":"Gura Galbenei","lat":46.6990581,"lon":28.7037207,"type":"village"},{"id":"277354988","name":"Munteni","lat":46.7055909,"lon":28.7649331,"type":"village"},{"id":"277355071","name":"Lipoveni","lat":46.7341564,"lon":28.7551216,"type":"village"},{"id":"277355552","name":"Schinoșica","lat":46.728367,"lon":28.7863788,"type":"village"},{"id":"277356448","name":"Ecaterinovca","lat":46.5818923,"lon":28.7491703,"type":"village"},{"id":"277356504","name":"Marienfeld","lat":46.5978276,"lon":28.6173247,"type":"village"},{"id":"277356516","name":"Ialpujeni","lat":46.5708005,"lon":28.6259175,"type":"village"},{"id":"277356586","name":"Artimonovca","lat":46.594175,"lon":28.5907881,"type":"village"},{"id":"277356730","name":"Maximeni","lat":46.5700284,"lon":28.5973261,"type":"village"},{"id":"277356793","name":"Javgur","lat":46.5347115,"lon":28.6185102,"type":"village"},{"id":"277357013","name":"Cenac","lat":46.4772125,"lon":28.6395485,"type":"village"},{"id":"277357103","name":"Dimitrovca","lat":46.4851545,"lon":28.7155896,"type":"village"},{"id":"277357940","name":"Prisaca","lat":46.6567919,"lon":28.601388,"type":"village"},{"id":"277357948","name":"Ialpug","lat":46.6533251,"lon":28.5874766,"type":"village"},{"id":"277358588","name":"Albina","lat":46.7055028,"lon":28.6407607,"type":"village"},{"id":"277358783","name":"Ivanovca Nouă","lat":46.7432919,"lon":28.6987019,"type":"village"},{"id":"277360296","name":"Răscăieții Noi","lat":46.535002,"lon":29.7741205,"type":"village"},{"id":"277360460","name":"Căplani","lat":46.3841055,"lon":29.8725093,"type":"village"},{"id":"277360523","name":"Crocmaz","lat":46.4501488,"lon":29.9876673,"type":"village"},{"id":"277360859","name":"Tudora","lat":46.4333516,"lon":30.0422556,"type":"village"},{"id":"277360861","name":"Palanca","lat":46.409119,"lon":30.0978861,"type":"village"},{"id":"277360990","name":"Cioburciu","lat":46.6005751,"lon":29.7128803,"type":"village"},{"id":"277361008","name":"Talmaza","lat":46.644477,"lon":29.6639139,"type":"village"},{"id":"277361400","name":"Ermoclia","lat":46.578205,"lon":29.5166284,"type":"village"},{"id":"277361975","name":"Brezoaia","lat":46.5198847,"lon":29.4568903,"type":"village"},{"id":"277362725","name":"Săiți","lat":46.4925398,"lon":29.4061372,"type":"village"},{"id":"277362887","name":"Volintiri","lat":46.4304845,"lon":29.6059351,"type":"village"},{"id":"277363033","name":"Copceac","lat":46.4527507,"lon":29.5245249,"type":"village"},{"id":"277363380","name":"Ștefănești","lat":46.4459329,"lon":29.6892602,"type":"village"},{"id":"277432787","name":"Opaci","lat":46.579444,"lon":29.3497097,"type":"village"},{"id":"277432894","name":"Tocuz","lat":46.5251409,"lon":29.2982113,"type":"village"},{"id":"277433525","name":"Ucrainca","lat":46.4279684,"lon":29.275552,"type":"village"},{"id":"277433677","name":"Sălcuța","lat":46.5924215,"lon":29.2429364,"type":"village"},{"id":"277434001","name":"Cîrnățenii Noi","lat":46.6518422,"lon":29.1334164,"type":"village"},{"id":"277434030","name":"Sălcuța Nouă","lat":46.631571,"lon":29.1897213,"type":"village"},{"id":"277434183","name":"Coșcalia","lat":46.6869452,"lon":29.1581356,"type":"village"},{"id":"277434279","name":"Pervomaisc","lat":46.7013096,"lon":29.0860379,"type":"village"},{"id":"277434537","name":"Marianca de Sus","lat":46.6457656,"lon":29.3143461,"type":"village"},{"id":"277435472","name":"Chircăieștii Noi","lat":46.6628834,"lon":28.9728238,"type":"village"},{"id":"277435796","name":"Florica","lat":46.6912307,"lon":29.2207135,"type":"village"},{"id":"277435814","name":"Baccealia","lat":46.6921726,"lon":29.2825116,"type":"village"},{"id":"277435907","name":"Grigorievca","lat":46.698346,"lon":29.3228012,"type":"village"},{"id":"277436246","name":"Ștefănești","lat":46.7063003,"lon":29.3717755,"type":"village"},{"id":"277436492","name":"Tănătari","lat":46.7214183,"lon":29.4193679,"type":"village"},{"id":"277436514","name":"Ursoaia","lat":46.7065357,"lon":29.4466199,"type":"village"},{"id":"277437022","name":"Chircăiești","lat":46.7147751,"lon":29.5290174,"type":"village"},{"id":"277437144","name":"Plop-Știubei","lat":46.6754502,"lon":29.5290174,"type":"village"},{"id":"277437145","name":"Cîrnățeni","lat":46.6540096,"lon":29.4922818,"type":"village"},{"id":"277437159","name":"Leuntea","lat":46.6634351,"lon":29.5921887,"type":"village"},{"id":"277437360","name":"Grădinița","lat":46.6516508,"lon":29.5840794,"type":"village"},{"id":"277438020","name":"Fîrlădeni","lat":46.7865485,"lon":29.3584839,"type":"village"},{"id":"277438154","name":"Tănătarii Noi","lat":46.7373514,"lon":29.3225183,"type":"village"},{"id":"277438260","name":"Fîrlădenii Noi","lat":46.7517289,"lon":29.3039746,"type":"village"},{"id":"277438444","name":"Tricolici","lat":46.7379831,"lon":29.2401898,"type":"village"},{"id":"277438591","name":"Constantinovca","lat":46.7215789,"lon":29.1115013,"type":"village"},{"id":"277443517","name":"Copanca","lat":46.7159365,"lon":29.6251174,"type":"village"},{"id":"277594500","name":"Nicolaevca","lat":46.390154,"lon":28.2535606,"type":"village"},{"id":"277608375","name":"Cuporani","lat":46.3729505,"lon":28.3581818,"type":"village"},{"id":"277608378","name":"Romanovca","lat":46.4585025,"lon":28.352779,"type":"village"},{"id":"277608379","name":"Cupcui","lat":46.5154951,"lon":28.3590201,"type":"village"},{"id":"277608383","name":"Troian","lat":46.5421859,"lon":28.4623603,"type":"village"},{"id":"277608385","name":"Frumușica","lat":46.5577216,"lon":28.4271748,"type":"village"},{"id":"277608390","name":"Troița","lat":46.5600343,"lon":28.4657518,"type":"village"},{"id":"277608404","name":"Tochile-Răducani","lat":46.5745545,"lon":28.2431889,"type":"village"},{"id":"277608415","name":"Covurlui","lat":46.5936877,"lon":28.3991111,"type":"village"},{"id":"277608416","name":"Victoria","lat":46.6170364,"lon":28.4153692,"type":"village"},{"id":"277608417","name":"Colibabovca","lat":46.6483981,"lon":28.4291229,"type":"village"},{"id":"277608478","name":"Sărăteni","lat":46.6130021,"lon":28.4654468,"type":"village"},{"id":"277608492","name":"Vozneseni","lat":46.5849113,"lon":28.4688834,"type":"village"},{"id":"277608505","name":"Cneazevca","lat":46.6308359,"lon":28.486467,"type":"village"},{"id":"277608507","name":"Sărățica Veche","lat":46.6021632,"lon":28.5306398,"type":"village"},{"id":"277608508","name":"Cîmpul Drept","lat":46.5648511,"lon":28.513172,"type":"village"},{"id":"277608510","name":"Tomaiul Nou","lat":46.6267972,"lon":28.5515634,"type":"village"},{"id":"277608511","name":"Sărățica Nouă","lat":46.573112,"lon":28.5444144,"type":"village"},{"id":"277608513","name":"Hîrtop","lat":46.4932821,"lon":28.5059622,"type":"village"},{"id":"277608514","name":"Beștemac","lat":46.5294624,"lon":28.52652,"type":"village"},{"id":"277608515","name":"Pitești","lat":46.5033485,"lon":28.5456375,"type":"village"},{"id":"277608516","name":"Cîzlar","lat":46.6512493,"lon":28.5237983,"type":"village"},{"id":"277608528","name":"Băiuș","lat":46.4582925,"lon":28.4803229,"type":"village"},{"id":"277608538","name":"Cociulia Nouă","lat":46.4408244,"lon":28.473782,"type":"village"},{"id":"277608539","name":"Meșeni","lat":46.4182312,"lon":28.464547,"type":"village"},{"id":"277625057","name":"Văratic","lat":46.8091279,"lon":29.0640308,"type":"village"},{"id":"277625058","name":"Misovca","lat":46.770099,"lon":29.0052012,"type":"village"},{"id":"277625059","name":"Puhoi","lat":46.8237494,"lon":29.0344065,"type":"village"},{"id":"277625060","name":"Budăi","lat":46.813909,"lon":28.9739313,"type":"village"},{"id":"277625061","name":"Homuteanovca","lat":46.7246253,"lon":29.0575228,"type":"village"},{"id":"277625062","name":"Alexandrovca","lat":46.7238197,"lon":29.02294,"type":"village"},{"id":"277625063","name":"Mileștii Noi","lat":46.7457652,"lon":28.959974,"type":"village"},{"id":"277625064","name":"Gangura","lat":46.7320326,"lon":29.0072668,"type":"village"},{"id":"277625065","name":"Țipala","lat":46.8282465,"lon":28.972625,"type":"village"},{"id":"277625066","name":"Răzeni","lat":46.7672551,"lon":28.9020488,"type":"village"},{"id":"277625067","name":"Bălțați","lat":46.8406901,"lon":28.9538835,"type":"village"},{"id":"277625068","name":"Horești","lat":46.8260617,"lon":28.8747918,"type":"village"},{"id":"277625069","name":"Cigîrleni","lat":46.7560194,"lon":28.8247348,"type":"village"},{"id":"277625070","name":"Zîmbreni","lat":46.8395862,"lon":28.8480392,"type":"village"},{"id":"277625071","name":"Găureni","lat":46.8301411,"lon":28.8408744,"type":"village"},{"id":"277625072","name":"Hansca","lat":46.8341883,"lon":28.751319,"type":"village"},{"id":"277625073","name":"Molești","lat":46.787905,"lon":28.7776446,"type":"village"},{"id":"277625074","name":"Costești","lat":46.8632746,"lon":28.7654488,"type":"village"},{"id":"277625075","name":"Pojăreni","lat":46.8872981,"lon":28.6906272,"type":"village"},{"id":"277625076","name":"Bardar","lat":46.9044046,"lon":28.6696674,"type":"village"},{"id":"277625077","name":"Mileștii Mici","lat":46.9070085,"lon":28.804098,"type":"village"},{"id":"277625078","name":"Piatra Albă","lat":46.9330263,"lon":28.8182718,"type":"village"},{"id":"277625081","name":"Sociteni","lat":46.9441165,"lon":28.7227312,"type":"village"},{"id":"277625082","name":"Ruseștii Noi","lat":46.9289591,"lon":28.6513204,"type":"village"},{"id":"277625083","name":"Dănceni","lat":46.9640217,"lon":28.7064057,"type":"village"},{"id":"277625084","name":"Ruseștii Vechi","lat":46.919605,"lon":28.6254887,"type":"village"},{"id":"277625085","name":"Suruceni","lat":46.9838183,"lon":28.6726935,"type":"village"},{"id":"277625086","name":"Văsieni","lat":46.9637563,"lon":28.5969384,"type":"village"},{"id":"277625088","name":"Nimoreni","lat":47.008882,"lon":28.6656759,"type":"village"},{"id":"277625090","name":"Malcoci","lat":47.0268216,"lon":28.6335557,"type":"village"},{"id":"277625092","name":"Ulmu","lat":47.0139063,"lon":28.5457232,"type":"village"},{"id":"277625094","name":"Horodca","lat":47.0449399,"lon":28.4925618,"type":"village"},{"id":"277635023","name":"Voinescu","lat":46.6560602,"lon":28.3038706,"type":"village"},{"id":"277635024","name":"Horjești","lat":46.7120748,"lon":28.3471651,"type":"village"},{"id":"277635025","name":"Semionovca","lat":46.698512,"lon":28.3034178,"type":"village"},{"id":"277635026","name":"Pogănești","lat":46.6929642,"lon":28.2332292,"type":"village"},{"id":"277635027","name":"Marchet","lat":46.7086529,"lon":28.2331569,"type":"village"},{"id":"277635029","name":"Cioara","lat":46.7350349,"lon":28.2243201,"type":"village"},{"id":"277635030","name":"Dancu","lat":46.7560137,"lon":28.2081411,"type":"village"},{"id":"277635031","name":"Călmățui","lat":46.7837076,"lon":28.214578,"type":"village"},{"id":"277635032","name":"Feteasca","lat":46.7876313,"lon":28.1907511,"type":"village"},{"id":"277635034","name":"Leușeni","lat":46.8236646,"lon":28.1991057,"type":"village"},{"id":"277635035","name":"Sărăteni","lat":46.8462948,"lon":28.1864271,"type":"village"},{"id":"277635036","name":"Tălăiești","lat":46.8014508,"lon":28.2638257,"type":"village"},{"id":"277635037","name":"Crasnoarmeiscoe","lat":46.8295341,"lon":28.278771,"type":"village"},{"id":"277635042","name":"Onești","lat":46.860542,"lon":28.2490043,"type":"village"},{"id":"277635062","name":"Obileni","lat":46.87779,"lon":28.1633744,"type":"village"},{"id":"277635066","name":"Frasin","lat":46.8897615,"lon":28.1947135,"type":"village"},{"id":"277635067","name":"Ivanovca","lat":46.8768938,"lon":28.1948989,"type":"village"},{"id":"277635068","name":"Costești","lat":46.8742796,"lon":28.2062027,"type":"village"},{"id":"277635070","name":"Nemțeni","lat":46.9077006,"lon":28.1208627,"type":"village"},{"id":"277635071","name":"Mirești","lat":46.9702469,"lon":28.252881,"type":"village"},{"id":"277635072","name":"Chetroșeni","lat":46.9627417,"lon":28.2718097,"type":"village"},{"id":"277635073","name":"Cățeleni","lat":46.9220751,"lon":28.1856669,"type":"village"},{"id":"277635075","name":"Strîmbeni","lat":46.8627607,"lon":28.2588172,"type":"village"},{"id":"277635076","name":"Pervomaiscoe","lat":46.8855831,"lon":28.3235978,"type":"village"},{"id":"277635077","name":"Negrea","lat":46.8230523,"lon":28.386882,"type":"village"},{"id":"277635078","name":"Cărpineni","lat":46.7649033,"lon":28.3461925,"type":"village"},{"id":"277635079","name":"Sofia","lat":46.8424446,"lon":28.379649,"type":"village"},{"id":"277635080","name":"Sărata-Mereșeni","lat":46.8012033,"lon":28.5028526,"type":"village"},{"id":"277635082","name":"Mereșeni","lat":46.7973554,"lon":28.5405009,"type":"village"},{"id":"277635083","name":"Sărata-Galbenă","lat":46.7363948,"lon":28.516863,"type":"village"},{"id":"277635084","name":"Brătianovca","lat":46.741099,"lon":28.4627098,"type":"village"},{"id":"277635085","name":"Caracui","lat":46.7001399,"lon":28.5384686,"type":"village"},{"id":"277635086","name":"Valea Florii","lat":46.7125566,"lon":28.4379529,"type":"village"},{"id":"277635087","name":"Coroliovca","lat":46.7116109,"lon":28.4712177,"type":"village"},{"id":"277635089","name":"Cărpineanca","lat":46.6970077,"lon":28.4705871,"type":"village"},{"id":"277635090","name":"Dubovca","lat":46.748845,"lon":28.6073446,"type":"village"},{"id":"277635091","name":"Bozieni","lat":46.7579871,"lon":28.6398396,"type":"village"},{"id":"277635093","name":"Fîrlădeni","lat":46.7858015,"lon":28.6857427,"type":"village"},{"id":"277635096","name":"Buțeni","lat":46.828383,"lon":28.6749198,"type":"village"},{"id":"277635100","name":"Fundul Galbenei","lat":46.8802273,"lon":28.6263794,"type":"village"},{"id":"277635101","name":"Logănești","lat":46.9021555,"lon":28.5431463,"type":"village"},{"id":"277635102","name":"Rusca","lat":46.8756352,"lon":28.4749415,"type":"village"},{"id":"277635103","name":"Anini","lat":46.8891532,"lon":28.4644346,"type":"village"},{"id":"277635105","name":"Șipoteni","lat":46.9424113,"lon":28.4555466,"type":"village"},{"id":"277635110","name":"Stolniceni","lat":46.9596243,"lon":28.4988192,"type":"village"},{"id":"277635112","name":"Boghiceni","lat":46.946435,"lon":28.3220508,"type":"village"},{"id":"277635113","name":"Pașcani","lat":46.9721719,"lon":28.3705685,"type":"village"},{"id":"277635117","name":"Dahnovici","lat":46.9750434,"lon":28.4827005,"type":"village"},{"id":"277635119","name":"Cornești","lat":46.9996743,"lon":28.329222,"type":"village"},{"id":"277635122","name":"Lăpușna","lat":46.8859731,"lon":28.4107362,"type":"village"},{"id":"277635124","name":"Bobeica","lat":46.9793898,"lon":28.4678046,"type":"village"},{"id":"277635127","name":"Drăgușeni","lat":46.9854089,"lon":28.4516218,"type":"village"},{"id":"277635130","name":"Secăreni","lat":47.0254321,"lon":28.3309879,"type":"village"},{"id":"277635132","name":"Secărenii Noi","lat":47.0099621,"lon":28.3296326,"type":"village"},{"id":"277635135","name":"Pereni","lat":46.9999889,"lon":28.3747263,"type":"village"},{"id":"277635138","name":"Ciuciuleni","lat":47.022639,"lon":28.4108084,"type":"village"},{"id":"277635140","name":"Drăgușenii Noi","lat":47.0453878,"lon":28.4236207,"type":"village"},{"id":"277635143","name":"Horodca","lat":47.0588697,"lon":28.4613774,"type":"village"},{"id":"277635145","name":"Bălceana","lat":46.8459947,"lon":28.4064702,"type":"village"},{"id":"278468883","name":"Sadova","lat":47.1930411,"lon":28.3437577,"type":"village"},{"id":"278468886","name":"Pîrjolteni","lat":47.2000937,"lon":28.2448585,"type":"village"},{"id":"278468889","name":"Buda","lat":47.2101929,"lon":28.2159529,"type":"village"},{"id":"278468910","name":"Horodiște","lat":47.2122836,"lon":28.2509367,"type":"village"},{"id":"278468912","name":"Ursari","lat":47.2204814,"lon":28.1893941,"type":"village"},{"id":"278468913","name":"Căbăiești","lat":47.2175478,"lon":28.1431515,"type":"village"},{"id":"278468914","name":"Temeleuți","lat":47.2533015,"lon":28.0740417,"type":"village"},{"id":"278468944","name":"Vălcineț","lat":47.2656058,"lon":28.1285447,"type":"village"},{"id":"278468954","name":"Peticeni","lat":47.2380091,"lon":28.2058706,"type":"village"},{"id":"278468963","name":"Novaci","lat":47.2361817,"lon":28.2638054,"type":"village"},{"id":"278468973","name":"Tuzara","lat":47.2418847,"lon":28.3041866,"type":"village"},{"id":"278468980","name":"Seliștea Nouă","lat":47.2330098,"lon":28.3125929,"type":"village"},{"id":"278468984","name":"Nișcani","lat":47.2678002,"lon":28.344852,"type":"village"},{"id":"278468985","name":"Păulești","lat":47.2684666,"lon":28.3727899,"type":"village"},{"id":"278468993","name":"Parcani","lat":47.2959972,"lon":28.3733103,"type":"village"},{"id":"278469002","name":"Răciula","lat":47.3047191,"lon":28.3496608,"type":"village"},{"id":"278469015","name":"Frumoasa","lat":47.3301396,"lon":28.4007799,"type":"village"},{"id":"278469032","name":"Hîrbovăț","lat":47.3391024,"lon":28.3116587,"type":"village"},{"id":"278469054","name":"Oricova","lat":47.2998479,"lon":28.2359443,"type":"village"},{"id":"278469070","name":"Mîndra","lat":47.3189942,"lon":28.2624381,"type":"village"},{"id":"278469098","name":"Hîrjauca","lat":47.3269772,"lon":28.2215511,"type":"village"},{"id":"278469126","name":"Sverida","lat":47.3529512,"lon":28.2955067,"type":"village"},{"id":"278469137","name":"Palanca","lat":47.3336703,"lon":28.2015789,"type":"village"},{"id":"278469149","name":"Bularda","lat":47.3562317,"lon":28.2220473,"type":"village"},{"id":"278469161","name":"Duma","lat":47.3750939,"lon":28.2636344,"type":"village"},{"id":"278469174","name":"Bahu","lat":47.4173859,"lon":28.464354,"type":"village"},{"id":"278469199","name":"Săseni","lat":47.3702222,"lon":28.5004354,"type":"village"},{"id":"278484574","name":"Cojușna","lat":47.0939394,"lon":28.6693148,"type":"village"},{"id":"278484608","name":"Făgureni","lat":47.1479378,"lon":28.5653343,"type":"village"},{"id":"278484617","name":"Negrești","lat":47.1757222,"lon":28.6237041,"type":"village"},{"id":"278484624","name":"Drăgușeni","lat":47.2141638,"lon":28.6639931,"type":"village"},{"id":"278484636","name":"Rădeni","lat":47.2079145,"lon":28.6986984,"type":"village"},{"id":"278484645","name":"Romănești","lat":47.2262888,"lon":28.7119745,"type":"village"},{"id":"278484668","name":"Zamciogi","lat":47.205674,"lon":28.7210711,"type":"village"},{"id":"278484681","name":"Gornoe","lat":47.1906328,"lon":28.7789933,"type":"village"},{"id":"278484700","name":"Micăuți","lat":47.1729715,"lon":28.7492485,"type":"village"},{"id":"278484709","name":"Ghelăuza","lat":47.1922006,"lon":28.5957986,"type":"village"},{"id":"278484720","name":"Tătărești","lat":47.2042086,"lon":28.5387959,"type":"village"},{"id":"278484727","name":"Saca","lat":47.196319,"lon":28.611488,"type":"village"},{"id":"278484783","name":"Stejăreni","lat":47.1085694,"lon":28.4163215,"type":"village"},{"id":"278484857","name":"Pănășești","lat":47.1551031,"lon":28.5211846,"type":"village"},{"id":"278484871","name":"Vorniceni","lat":47.1543982,"lon":28.427932,"type":"village"},{"id":"278484906","name":"Dolna","lat":47.120901,"lon":28.2701905,"type":"village"},{"id":"278484945","name":"Micleușeni","lat":47.1324554,"lon":28.3132756,"type":"village"},{"id":"278484962","name":"Huzun","lat":47.1212819,"lon":28.3226286,"type":"village"},{"id":"278484969","name":"Rassvet","lat":47.2044104,"lon":28.4282263,"type":"village"},{"id":"278484982","name":"Bucovăț","lat":47.188473,"lon":28.4621607,"type":"town"},{"id":"278484992","name":"Gălești","lat":47.2271636,"lon":28.4913469,"type":"village"},{"id":"278484998","name":"Găleștii Noi","lat":47.2084045,"lon":28.4958645,"type":"village"},{"id":"278485008","name":"Voinova","lat":47.2720564,"lon":28.4893994,"type":"village"},{"id":"278767850","name":"Глиное","lat":46.6476848,"lon":29.7985941,"type":"village"},{"id":"278767851","name":"Днестровск","lat":46.6231077,"lon":29.9123271,"type":"town"},{"id":"278767868","name":"Незавертайловка","lat":46.6068251,"lon":29.9324106,"type":"village"},{"id":"278767881","name":"Cremenciug / Кременчуг","lat":46.7053825,"lon":29.673933,"type":"village"},{"id":"278767899","name":"Первомайск","lat":46.7316295,"lon":29.954471,"type":"town"},{"id":"278767910","name":"Новокотовск","lat":46.7687876,"lon":29.9554706,"type":"village"},{"id":"278767920","name":"Приозёрное","lat":46.7979069,"lon":29.9302974,"type":"village"},{"id":"278767921","name":"Старая Андрияшевка","lat":46.8220079,"lon":29.9704869,"type":"village"},{"id":"278767922","name":"Новая Андрияшевка","lat":46.8339234,"lon":29.9567077,"type":"village"},{"id":"278767923","name":"Новосавицкая","lat":46.8045781,"lon":29.8652203,"type":"village"},{"id":"278767924","name":"Фрунзе","lat":46.8319595,"lon":29.8828355,"type":"village"},{"id":"278767925","name":"Уютное","lat":46.8426947,"lon":29.867908,"type":"village"},{"id":"278767927","name":"Владимировка","lat":46.8455527,"lon":29.8312158,"type":"village"},{"id":"278767928","name":"Никольское","lat":46.8767352,"lon":29.8589267,"type":"village"},{"id":"278767930","name":"Proteagailovca / Протягайловка","lat":46.8255887,"lon":29.4420757,"type":"village"},{"id":"278767932","name":"Бычок","lat":46.9237115,"lon":29.4823771,"type":"village"},{"id":"278767933","name":"Нововладимировка","lat":46.9376338,"lon":29.5202998,"type":"village"},{"id":"278767934","name":"Красногорка","lat":46.9672561,"lon":29.4555695,"type":"village"},{"id":"278767936","name":"Малаешты","lat":46.9760545,"lon":29.5481044,"type":"village"},{"id":"278767937","name":"Виноградное","lat":47.0841417,"lon":29.4934854,"type":"village"},{"id":"278767938","name":"Черница","lat":47.0300522,"lon":29.5197229,"type":"village"},{"id":"278767939","name":"Токмазея","lat":46.944497,"lon":29.3746163,"type":"village"},{"id":"278767940","name":"Спея","lat":46.9835933,"lon":29.3214057,"type":"village"},{"id":"278767941","name":"Тея","lat":46.9556037,"lon":29.3964158,"type":"village"},{"id":"278768026","name":"Бутор","lat":47.0421171,"lon":29.4041789,"type":"village"},{"id":"278768066","name":"Индия","lat":47.0473933,"lon":29.3863606,"type":"village"},{"id":"278768067","name":"Ташлык","lat":47.0721662,"lon":29.3955662,"type":"village"},{"id":"278768068","name":"Красная Горка","lat":47.1289291,"lon":29.3162713,"type":"village"},{"id":"278768069","name":"Григориополь","lat":47.1471536,"lon":29.2939594,"type":"town"},{"id":"278768070","name":"Делакеу","lat":47.1267265,"lon":29.2993714,"type":"village"},{"id":"278768071","name":"Красное","lat":47.1806641,"lon":29.3579834,"type":"village"},{"id":"278768072","name":"Глиное","lat":47.2313743,"lon":29.4130526,"type":"village"},{"id":"278768077","name":"Маяк","lat":47.238827,"lon":29.3838462,"type":"town"},{"id":"278768078","name":"Гыртоп","lat":47.2411297,"lon":29.3643159,"type":"village"},{"id":"278768079","name":"Мариян","lat":47.2352731,"lon":29.3324062,"type":"village"},{"id":"278768080","name":"Dubăsari","lat":47.26553,"lon":29.1615615,"type":"town"},{"id":"278768081","name":"Новая Лунга","lat":47.2850153,"lon":29.2730113,"type":"village"},{"id":"278768082","name":"Калиновка","lat":47.3112419,"lon":29.2507158,"type":"village"},{"id":"278768083","name":"Красный Виноградарь","lat":47.2982402,"lon":29.2786886,"type":"village"},{"id":"278768123","name":"Новая Александровка","lat":47.3002393,"lon":29.3030071,"type":"village"},{"id":"278768150","name":"Мокряки","lat":47.2749899,"lon":29.3825077,"type":"village"},{"id":"278768152","name":"Боска","lat":47.3064639,"lon":29.3663351,"type":"village"},{"id":"278768154","name":"Новая Кошница","lat":47.314427,"lon":29.3311011,"type":"village"},{"id":"278768156","name":"Новая Погребя","lat":47.3115959,"lon":29.3786016,"type":"village"},{"id":"278768157","name":"Новокомиссаровка","lat":47.3420235,"lon":29.3553734,"type":"village"},{"id":"278768158","name":"Афанасьевка","lat":47.3227737,"lon":29.2510252,"type":"village"},{"id":"278768159","name":"Шипка","lat":47.1641386,"lon":29.5096201,"type":"village"},{"id":"278768160","name":"Весёлое","lat":47.2025373,"lon":29.5522166,"type":"village"},{"id":"278768161","name":"Федосеевка","lat":47.2332087,"lon":29.5375877,"type":"village"},{"id":"278768165","name":"Карманово","lat":47.2599334,"lon":29.5060547,"type":"village"},{"id":"278768191","name":"Котовка","lat":47.2826836,"lon":29.478107,"type":"village"},{"id":"278768203","name":"Красная Бессарабия","lat":47.2849571,"lon":29.5875955,"type":"village"},{"id":"278768214","name":"Колосово","lat":47.3304102,"lon":29.5671129,"type":"village"},{"id":"278768228","name":"Победа","lat":47.3514322,"lon":29.4960434,"type":"village"},{"id":"278775465","name":"Новые Гояны","lat":47.3841458,"lon":29.3213225,"type":"village"},{"id":"278775480","name":"Дубово","lat":47.4285056,"lon":29.2803575,"type":"village"},{"id":"278775482","name":"Койково","lat":47.4111596,"lon":29.2440819,"type":"village"},{"id":"278775484","name":"Дойбань 2","lat":47.4054273,"lon":29.2124934,"type":"village"},{"id":"278775486","name":"Дойбаны 1","lat":47.3899448,"lon":29.2092273,"type":"village"},{"id":"278775488","name":"Goian","lat":47.3785952,"lon":29.1600627,"type":"village"},{"id":"278775491","name":"Цыбулёвка","lat":47.4067876,"lon":29.1048823,"type":"village"},{"id":"278775493","name":"Гармацкое","lat":47.4229626,"lon":29.092663,"type":"village"},{"id":"278775500","name":"Жура","lat":47.5193856,"lon":29.0423498,"type":"village"},{"id":"278775502","name":"Бутучаны","lat":47.5321648,"lon":29.0300874,"type":"village"},{"id":"278775516","name":"Бессарабка","lat":47.577311,"lon":29.1618178,"type":"village"},{"id":"278775521","name":"Запорожец","lat":47.5885056,"lon":29.1385179,"type":"village"},{"id":"278775527","name":"Шевченко","lat":47.5871951,"lon":29.1838224,"type":"village"},{"id":"278775530","name":"Владимировка","lat":47.6220874,"lon":29.0950312,"type":"village"},{"id":"278775533","name":"Попенки","lat":47.6036429,"lon":29.0035708,"type":"village"},{"id":"278775538","name":"Зозуляны","lat":47.6174937,"lon":28.988888,"type":"village"},{"id":"278775540","name":"Новая Жизнь","lat":47.6568601,"lon":29.081157,"type":"village"},{"id":"278775542","name":"Выхватинцы","lat":47.667525,"lon":28.9968714,"type":"village"},{"id":"278775544","name":"Буськи","lat":47.7174021,"lon":29.0781851,"type":"village"},{"id":"278775546","name":"Кирово","lat":47.6507134,"lon":29.0972425,"type":"village"},{"id":"278775566","name":"Мокра","lat":47.6298751,"lon":29.1506225,"type":"village"},{"id":"278775609","name":"Ленино","lat":47.667245,"lon":29.1890773,"type":"village"},{"id":"278775644","name":"Первомайск","lat":47.6815966,"lon":29.2092834,"type":"village"},{"id":"278775657","name":"Станиславка","lat":47.6983024,"lon":29.2112791,"type":"village"},{"id":"278775658","name":"Гершуновка","lat":47.721049,"lon":29.168697,"type":"village"},{"id":"278775663","name":"Андреевка","lat":47.7545957,"lon":29.1631901,"type":"village"},{"id":"278775665","name":"Малая Ульма","lat":47.7521066,"lon":29.1252917,"type":"village"},{"id":"278775668","name":"Ульма","lat":47.7454341,"lon":29.104578,"type":"village"},{"id":"278775670","name":"Лысая Гора","lat":47.7417344,"lon":29.0754911,"type":"village"},{"id":"278775677","name":"Рыбница","lat":47.7661115,"lon":29.0073366,"type":"city"},{"id":"278775685","name":"Шмалена","lat":47.7584003,"lon":29.0763202,"type":"village"},{"id":"278775689","name":"Новая Михайловка","lat":47.7933403,"lon":29.1198637,"type":"village"},{"id":"278775692","name":"Сухая Рыбница","lat":47.7995265,"lon":29.1811227,"type":"village"},{"id":"278775696","name":"Ержово","lat":47.8040809,"lon":29.0065312,"type":"village"},{"id":"278775697","name":"Сарацея","lat":47.8255391,"lon":29.0204474,"type":"village"},{"id":"278775718","name":"Большой Молокиш","lat":47.8549869,"lon":29.0500245,"type":"village"},{"id":"278775723","name":"Красненькое","lat":47.8478123,"lon":29.1410763,"type":"village"},{"id":"278775728","name":"Броштяны","lat":47.8817709,"lon":29.262917,"type":"village"},{"id":"278775730","name":"Ивановка","lat":47.879354,"lon":29.1728049,"type":"village"},{"id":"278775731","name":"Димитрово","lat":47.8777067,"lon":29.1434245,"type":"village"},{"id":"278775732","name":"Гараба","lat":47.899521,"lon":29.0904286,"type":"village"},{"id":"278775758","name":"Плоть","lat":47.9524252,"lon":29.1615587,"type":"village"},{"id":"278775764","name":"Советское","lat":47.9560987,"lon":29.1429752,"type":"village"},{"id":"278775767","name":"Васильевка","lat":47.9399527,"lon":29.1086766,"type":"village"},{"id":"278775778","name":"Малый Молокиш","lat":47.9347468,"lon":29.0337955,"type":"village"},{"id":"278775787","name":"Вадатурково","lat":47.943409,"lon":28.9916447,"type":"village"},{"id":"278775790","name":"Слобода-Рашков","lat":47.9539827,"lon":28.9458916,"type":"village"},{"id":"278775801","name":"Белочи","lat":47.8852875,"lon":28.9813125,"type":"village"},{"id":"278775806","name":"Строенцы","lat":47.8879269,"lon":28.9384868,"type":"village"},{"id":"278775808","name":"Садки","lat":47.8997827,"lon":28.8569394,"type":"village"},{"id":"278775810","name":"Катериновка","lat":47.9332354,"lon":28.8679176,"type":"village"},{"id":"278775813","name":"Рашков","lat":47.9500431,"lon":28.8303236,"type":"village"},{"id":"278775838","name":"Константиновка","lat":47.9868337,"lon":28.8606518,"type":"village"},{"id":"278775840","name":"Валя-Адынкэ","lat":48.0138783,"lon":28.8426061,"type":"village"},{"id":"278775841","name":"Соколовка","lat":48.0624415,"lon":28.8374229,"type":"village"},{"id":"278775843","name":"Подоймица","lat":48.0008812,"lon":28.7518097,"type":"village"},{"id":"278775845","name":"Подойма","lat":47.9964304,"lon":28.7724797,"type":"village"},{"id":"278775848","name":"Каменка","lat":48.0321816,"lon":28.7042359,"type":"town"},{"id":"278775849","name":"Боданы","lat":48.0808593,"lon":28.7799045,"type":"village"},{"id":"278775851","name":"Ротар","lat":48.1057167,"lon":28.8138111,"type":"village"},{"id":"278775853","name":"Севериновка","lat":48.0667824,"lon":28.7206257,"type":"village"},{"id":"278775855","name":"Хрустовая","lat":48.1125537,"lon":28.7351497,"type":"village"},{"id":"278775856","name":"Солнечное","lat":48.0393386,"lon":28.6362865,"type":"village"},{"id":"278775861","name":"Александровка","lat":48.0309884,"lon":28.5548819,"type":"village"},{"id":"278775864","name":"Красный Октябрь","lat":48.0122514,"lon":28.5482,"type":"village"},{"id":"278775866","name":"Кузьмин","lat":48.0939291,"lon":28.6345618,"type":"village"},{"id":"278775870","name":"Войтовка","lat":48.1058399,"lon":28.6054488,"type":"village"},{"id":"278775876","name":"Окница","lat":48.1320107,"lon":28.636061,"type":"village"},{"id":"278775886","name":"Грушка","lat":48.1137934,"lon":28.5694712,"type":"village"},{"id":"278775889","name":"Фрунзовка","lat":48.1556709,"lon":28.5855974,"type":"village"},{"id":"279006474","name":"Lipceni","lat":47.8073416,"lon":28.8705747,"type":"village"},{"id":"279006479","name":"Mincenii de Sus","lat":47.6485943,"lon":28.8919727,"type":"village"},{"id":"279006482","name":"Mincenii de Jos","lat":47.6354727,"lon":28.8745436,"type":"village"},{"id":"279006483","name":"Buciușca","lat":47.6400877,"lon":28.9888551,"type":"village"},{"id":"279006484","name":"Horodiște","lat":47.6132756,"lon":28.9443165,"type":"village"},{"id":"279006485","name":"Țipova","lat":47.6033083,"lon":28.9801419,"type":"village"},{"id":"279006486","name":"Slobozia-Horodiște","lat":47.5977009,"lon":28.937828,"type":"village"},{"id":"279006487","name":"Otac","lat":47.5883139,"lon":28.8289506,"type":"village"},{"id":"279006488","name":"Bușăuca","lat":47.5926459,"lon":28.7901361,"type":"village"},{"id":"279006489","name":"Ghiduleni","lat":47.6109594,"lon":28.7434673,"type":"village"},{"id":"279006490","name":"Cuizăuca","lat":47.6128723,"lon":28.8146521,"type":"village"},{"id":"279006491","name":"Roșcanii de Jos","lat":47.6298565,"lon":28.7680734,"type":"village"},{"id":"279006492","name":"Cogîlniceni","lat":47.6354012,"lon":28.8198279,"type":"village"},{"id":"279006494","name":"Pereni","lat":47.6559636,"lon":28.7794206,"type":"village"},{"id":"279006498","name":"Roșcani","lat":47.6553699,"lon":28.7439752,"type":"village"},{"id":"279006506","name":"Roșcanii de Sus","lat":47.6494724,"lon":28.7357214,"type":"village"},{"id":"279006508","name":"Trifești","lat":47.6757803,"lon":28.8039886,"type":"village"},{"id":"279006509","name":"Pripiceni-Curchi","lat":47.6849763,"lon":28.7791213,"type":"village"},{"id":"279006510","name":"Pripiceni-Răzeși","lat":47.685643,"lon":28.7605592,"type":"village"},{"id":"279006511","name":"Gordinești","lat":47.6935599,"lon":28.8034699,"type":"village"},{"id":"279006512","name":"Ignăței","lat":47.6810079,"lon":28.6609835,"type":"village"},{"id":"279006513","name":"Peciște","lat":47.7143276,"lon":28.7073551,"type":"village"},{"id":"279006514","name":"Sîrcova","lat":47.7432363,"lon":28.7866851,"type":"village"},{"id":"279006515","name":"Piscărești","lat":47.7598892,"lon":28.8110355,"type":"village"},{"id":"279006516","name":"Lalova","lat":47.5620611,"lon":29.0187453,"type":"village"},{"id":"279006517","name":"Meșeni","lat":47.6634241,"lon":28.6374956,"type":"village"},{"id":"279009024","name":"Пыкалово","lat":47.7633914,"lon":29.1112312,"type":"village"},{"id":"279009025","name":"Колбасна","lat":47.777418,"lon":29.2075569,"type":"village"},{"id":"279847736","name":"Brăila","lat":46.9160239,"lon":28.8375498,"type":"village"},{"id":"281148388","name":"Bogzești","lat":47.4232024,"lon":28.4301987,"type":"village"},{"id":"281148389","name":"Crăsnășeni","lat":47.4322149,"lon":28.3987242,"type":"village"},{"id":"281148390","name":"Văsieni","lat":47.459956,"lon":28.4421702,"type":"village"},{"id":"281148391","name":"Leușeni","lat":47.4826121,"lon":28.4350224,"type":"village"},{"id":"281148392","name":"Hirișeni","lat":47.4347182,"lon":28.286816,"type":"village"},{"id":"281148393","name":"Codru","lat":47.46499,"lon":28.2686199,"type":"village"},{"id":"281148394","name":"Budăi","lat":47.4566531,"lon":28.3478919,"type":"village"},{"id":"281148395","name":"Mihălașa","lat":47.4954248,"lon":28.3400392,"type":"village"},{"id":"281148396","name":"Inești","lat":47.5042267,"lon":28.3963098,"type":"village"},{"id":"281148398","name":"Cîșla","lat":47.4934745,"lon":28.2267054,"type":"village"},{"id":"281148399","name":"Zgărdești","lat":47.530013,"lon":28.1929692,"type":"village"},{"id":"281148400","name":"Bondareuca","lat":47.5702341,"lon":28.168164,"type":"village"},{"id":"281148402","name":"Ciofu","lat":47.5637459,"lon":28.2210443,"type":"village"},{"id":"281148403","name":"Ghiliceni","lat":47.4812086,"lon":28.2033125,"type":"village"},{"id":"281148404","name":"Cucioaia Nouă","lat":47.4846789,"lon":28.1664903,"type":"village"},{"id":"281148405","name":"Mîndrești","lat":47.50279,"lon":28.2783655,"type":"village"},{"id":"281148406","name":"Ciulucani","lat":47.5021894,"lon":28.3008114,"type":"village"},{"id":"281148407","name":"Ghermănești","lat":47.4409208,"lon":28.5160917,"type":"village"},{"id":"281148408","name":"Suhuluceni","lat":47.4650927,"lon":28.5216891,"type":"village"},{"id":"281148409","name":"Coropceni","lat":47.4746894,"lon":28.5214096,"type":"village"},{"id":"281148411","name":"Sărătenii Noi","lat":47.5082252,"lon":28.4996689,"type":"village"},{"id":"281148412","name":"Zăicanii Noi","lat":47.5202441,"lon":28.4782296,"type":"village"},{"id":"281148414","name":"Zăicani","lat":47.5214122,"lon":28.5065268,"type":"village"},{"id":"281148415","name":"Sărătenii Vechi","lat":47.5277795,"lon":28.5572187,"type":"village"},{"id":"281148417","name":"Zahareuca","lat":47.5315191,"lon":28.5994681,"type":"village"},{"id":"281148418","name":"Codrul Nou","lat":47.5458171,"lon":28.5744136,"type":"village"},{"id":"281148419","name":"Chițcanii Noi","lat":47.5607725,"lon":28.4907334,"type":"village"},{"id":"281148421","name":"Chițcanii Vechi","lat":47.5915114,"lon":28.4996051,"type":"village"},{"id":"281148423","name":"Negureni","lat":47.6014089,"lon":28.5110763,"type":"village"},{"id":"281148424","name":"Nucăreni","lat":47.5978509,"lon":28.5831664,"type":"village"},{"id":"281148426","name":"Țînțăreni","lat":47.5715544,"lon":28.5653778,"type":"village"},{"id":"281148427","name":"Dobrușa","lat":47.6130901,"lon":28.5558322,"type":"village"},{"id":"281148429","name":"Căzănești","lat":47.6145308,"lon":28.4736823,"type":"village"},{"id":"281148431","name":"Verejeni","lat":47.5333029,"lon":28.4687397,"type":"village"},{"id":"281148432","name":"Chiștelnița","lat":47.5684176,"lon":28.6597691,"type":"village"},{"id":"281148434","name":"Scorțeni","lat":47.6420662,"lon":28.6465477,"type":"village"},{"id":"281148435","name":"Tîrșiței","lat":47.6917437,"lon":28.5752109,"type":"village"},{"id":"281148437","name":"Chersac","lat":47.6371042,"lon":28.5829459,"type":"village"},{"id":"281148439","name":"Flutura","lat":47.689858,"lon":28.5481321,"type":"village"},{"id":"281148440","name":"Vadul-Leca Nou","lat":47.6157406,"lon":28.4349861,"type":"village"},{"id":"281148442","name":"Vadul-Leca","lat":47.6246367,"lon":28.4639449,"type":"village"},{"id":"281148443","name":"Brînzenii Vechi","lat":47.6583118,"lon":28.4732839,"type":"village"},{"id":"281148445","name":"Brînzenii Noi","lat":47.6596306,"lon":28.486336,"type":"village"},{"id":"281148447","name":"Ordășei","lat":47.6834345,"lon":28.4964901,"type":"village"},{"id":"281148448","name":"Bănești","lat":47.5706208,"lon":28.382556,"type":"village"},{"id":"281148450","name":"Băneștii Noi","lat":47.5820876,"lon":28.4013658,"type":"village"},{"id":"281148452","name":"Pistruieni","lat":47.6924927,"lon":28.4878863,"type":"village"},{"id":"281148453","name":"Pistruienii Noi","lat":47.7057484,"lon":28.4843549,"type":"village"},{"id":"281148455","name":"Hîrtop","lat":47.6990435,"lon":28.4169964,"type":"village"},{"id":"281155423","name":"Salcia","lat":47.9506586,"lon":28.7338127,"type":"village"},{"id":"281155424","name":"Cot","lat":47.9792031,"lon":28.7787286,"type":"village"},{"id":"281155425","name":"Climăuții de Jos","lat":47.9468907,"lon":28.7986947,"type":"village"},{"id":"281155426","name":"Vadul-Rașcov","lat":47.9333736,"lon":28.8281796,"type":"village"},{"id":"281155427","name":"Lelina","lat":47.924762,"lon":28.7428597,"type":"village"},{"id":"281155428","name":"Socola","lat":47.9099997,"lon":28.8151921,"type":"village"},{"id":"281155429","name":"Poiana","lat":47.8860271,"lon":28.8569369,"type":"village"},{"id":"281155430","name":"Curătura","lat":47.8767888,"lon":28.9118061,"type":"village"},{"id":"281155432","name":"Odaia","lat":47.8568364,"lon":28.8476699,"type":"village"},{"id":"281155433","name":"Cușmirca","lat":47.9052965,"lon":28.706145,"type":"village"},{"id":"281155434","name":"Cobîlea","lat":47.8639731,"lon":28.6736091,"type":"village"},{"id":"281155435","name":"Cobîlea, loc. stație c. f.","lat":47.8592751,"lon":28.6026261,"type":"village"},{"id":"281155436","name":"Cușelăuca","lat":47.8750372,"lon":28.5646076,"type":"village"},{"id":"281155438","name":"Șestaci","lat":47.8597555,"lon":28.7539457,"type":"village"},{"id":"281155439","name":"Șipca","lat":47.8461833,"lon":28.8069657,"type":"village"},{"id":"281155440","name":"Mihuleni","lat":47.8298237,"lon":28.8376019,"type":"village"},{"id":"281155442","name":"Parcani","lat":47.8171676,"lon":28.8372893,"type":"village"},{"id":"281155443","name":"Olișcani","lat":47.7990172,"lon":28.7144975,"type":"village"},{"id":"281155444","name":"Glinjeni","lat":47.82085,"lon":28.8784814,"type":"village"},{"id":"281155445","name":"Fuzăuca","lat":47.7424487,"lon":28.7438608,"type":"village"},{"id":"281155446","name":"Sămășcani","lat":47.7547863,"lon":28.6924283,"type":"village"},{"id":"281155447","name":"Răspopeni","lat":47.7428895,"lon":28.6205726,"type":"village"},{"id":"281155448","name":"Chipeșca","lat":47.7619701,"lon":28.6070423,"type":"village"},{"id":"281155449","name":"Dobrușa","lat":47.7857441,"lon":28.59445,"type":"village"},{"id":"281155450","name":"Găuzeni","lat":47.7546474,"lon":28.5658544,"type":"village"},{"id":"281155451","name":"Recești","lat":47.7881556,"lon":28.5665966,"type":"village"},{"id":"281155452","name":"Pohoarna","lat":47.8327305,"lon":28.4994684,"type":"village"},{"id":"281155454","name":"Rogojeni","lat":47.8248297,"lon":28.4079542,"type":"village"},{"id":"281155455","name":"Zahorna","lat":47.7954031,"lon":28.5521434,"type":"village"},{"id":"281158623","name":"Prodăneștii Vechi","lat":47.7165445,"lon":28.4433801,"type":"village"},{"id":"281158625","name":"Mărinești","lat":47.7273138,"lon":28.3809068,"type":"village"},{"id":"281158626","name":"Ion Vodă","lat":47.7262428,"lon":28.3253762,"type":"village"},{"id":"281158628","name":"Ciutulești","lat":47.7594962,"lon":28.3907679,"type":"village"},{"id":"281158630","name":"Valea Rădoaiei","lat":47.7540284,"lon":28.2625871,"type":"village"},{"id":"281158632","name":"Nicolaevca","lat":47.758184,"lon":28.290891,"type":"village"},{"id":"281158634","name":"Ștefănești","lat":47.7330265,"lon":28.4395676,"type":"village"},{"id":"281158636","name":"Prodănești","lat":47.7437473,"lon":28.4808848,"type":"village"},{"id":"281158638","name":"Căprești","lat":47.7533722,"lon":28.4649435,"type":"village"},{"id":"281158643","name":"Sîrbești","lat":47.800596,"lon":28.3266775,"type":"village"},{"id":"281158647","name":"Domulgeni","lat":47.7916356,"lon":28.436965,"type":"village"},{"id":"281158648","name":"Roșieticii Vechi","lat":47.8200415,"lon":28.3972745,"type":"village"},{"id":"281158650","name":"Roșietici","lat":47.8300892,"lon":28.4024798,"type":"village"},{"id":"281158652","name":"Țîra","lat":47.842381,"lon":28.4044004,"type":"village"},{"id":"281158654","name":"Cenușa","lat":47.846467,"lon":28.3868639,"type":"village"},{"id":"281158672","name":"Ghindești","lat":47.8534032,"lon":28.3761123,"type":"village"},{"id":"281158674","name":"Hîrtop","lat":47.88248,"lon":28.4587622,"type":"village"},{"id":"281158676","name":"Nicolaevca","lat":47.9187543,"lon":28.5284547,"type":"village"},{"id":"281158702","name":"Stîrceni","lat":47.8761523,"lon":28.365392,"type":"village"},{"id":"281158704","name":"Bobulești","lat":47.8807345,"lon":28.3523787,"type":"village"},{"id":"281158706","name":"Gura Camencii","lat":47.8901159,"lon":28.3553067,"type":"village"},{"id":"281158708","name":"Gvozdova","lat":47.9027672,"lon":28.3533547,"type":"village"},{"id":"281158711","name":"Vărvăreuca","lat":47.8798617,"lon":28.3113869,"type":"village"},{"id":"281158716","name":"Cunicea","lat":47.9139733,"lon":28.6456445,"type":"village"},{"id":"281158718","name":"Cuhureștii de Sus","lat":47.9217384,"lon":28.5531085,"type":"village"},{"id":"281158720","name":"Cuhureștii de Jos","lat":47.9284966,"lon":28.5914976,"type":"village"},{"id":"281158722","name":"Țipordei","lat":47.9339461,"lon":28.6158975,"type":"village"},{"id":"281158724","name":"Unchitești, localitatea-stație de cale ferată","lat":47.9064983,"lon":28.4895393,"type":"village"},{"id":"281158726","name":"Unchitești","lat":47.9293685,"lon":28.5264312,"type":"village"},{"id":"281158727","name":"Făgădău","lat":47.9365616,"lon":28.5257806,"type":"village"},{"id":"281158729","name":"Coșernița","lat":47.9372138,"lon":28.4609876,"type":"village"},{"id":"281158731","name":"Văscăuți","lat":47.9539952,"lon":28.51049,"type":"village"},{"id":"281158732","name":"Octeabriscoe","lat":47.955869,"lon":28.5362432,"type":"village"},{"id":"281158733","name":"Năpadova","lat":48.0175723,"lon":28.597048,"type":"village"},{"id":"281158734","name":"Sănătăuca","lat":48.0135907,"lon":28.6730823,"type":"village"},{"id":"281158735","name":"Japca","lat":47.9784888,"lon":28.7117347,"type":"village"},{"id":"281158736","name":"Bursuc","lat":47.9743198,"lon":28.739457,"type":"village"},{"id":"281158737","name":"Vertiujeni","lat":47.9927181,"lon":28.539332,"type":"village"},{"id":"281158738","name":"Temeleuți","lat":47.9772252,"lon":28.4964137,"type":"village"},{"id":"281158739","name":"Cernița","lat":47.9662483,"lon":28.465551,"type":"village"},{"id":"281158740","name":"Tîrgul Vertiujeni","lat":48.0308535,"lon":28.5301051,"type":"village"},{"id":"281158741","name":"Zăluceni","lat":48.0520643,"lon":28.5586212,"type":"village"},{"id":"281158742","name":"Ciripcău","lat":47.9835655,"lon":28.3808055,"type":"village"},{"id":"281158743","name":"Chirilovca","lat":47.9607482,"lon":28.3290705,"type":"village"},{"id":"281158744","name":"Alexeevca","lat":47.9417629,"lon":28.286113,"type":"village"},{"id":"281158745","name":"Dumitreni","lat":47.970581,"lon":28.3178203,"type":"village"},{"id":"281158748","name":"Rădulenii Noi","lat":47.9567436,"lon":28.247045,"type":"village"},{"id":"281158749","name":"Rădulenii Vechi","lat":47.9849755,"lon":28.2637849,"type":"village"},{"id":"281158751","name":"Sevirova","lat":47.926838,"lon":28.1520668,"type":"village"},{"id":"281158753","name":"Scăieni","lat":47.9774464,"lon":28.1178565,"type":"village"},{"id":"281158755","name":"Ivanovca","lat":47.9108974,"lon":28.1570201,"type":"village"},{"id":"281158757","name":"Trifănești","lat":47.9432919,"lon":28.1310888,"type":"village"},{"id":"281158759","name":"Alexandrovca","lat":47.953937,"lon":28.1301474,"type":"village"},{"id":"281158761","name":"Frumușica","lat":47.9611844,"lon":28.1170531,"type":"village"},{"id":"281158763","name":"Iliciovca","lat":47.9357575,"lon":28.0697766,"type":"village"},{"id":"281158765","name":"Maiscoe","lat":47.9116198,"lon":28.048417,"type":"village"},{"id":"281158767","name":"Izvoare","lat":47.9765863,"lon":28.1336342,"type":"village"},{"id":"281158768","name":"Bezeni","lat":47.9868359,"lon":28.1175382,"type":"village"},{"id":"281158769","name":"Mărculești","lat":47.8824414,"lon":28.2477865,"type":"village"},{"id":"281158770","name":"Mărculești","lat":47.8693441,"lon":28.2415422,"type":"town"},{"id":"281158771","name":"Zarojeni","lat":47.863559,"lon":28.162298,"type":"village"},{"id":"281158772","name":"Gura Căinarului","lat":47.8627915,"lon":28.1831829,"type":"village"},{"id":"281158774","name":"Lunga","lat":47.8617078,"lon":28.231765,"type":"village"},{"id":"281158775","name":"Băhrinești","lat":47.8551355,"lon":28.2442922,"type":"village"},{"id":"281158776","name":"Prajila","lat":47.84049,"lon":28.2100662,"type":"village"},{"id":"281158777","name":"Putinești","lat":47.8372997,"lon":28.1226509,"type":"village"},{"id":"281159627","name":"Prepelița","lat":47.5871723,"lon":28.3395799,"type":"village"},{"id":"281159628","name":"Clișcăuți","lat":47.6085623,"lon":28.2921248,"type":"village"},{"id":"281159629","name":"Mihailovca","lat":47.5910675,"lon":28.2610057,"type":"village"},{"id":"281159630","name":"Șestaci","lat":47.6223204,"lon":28.2896124,"type":"village"},{"id":"281159631","name":"Copăceni","lat":47.6145315,"lon":28.2380118,"type":"village"},{"id":"281159632","name":"Romanovca","lat":47.657781,"lon":28.2948736,"type":"village"},{"id":"281159633","name":"Pepeni","lat":47.642398,"lon":28.3493076,"type":"village"},{"id":"281159634","name":"Răzălăi","lat":47.6437064,"lon":28.3624236,"type":"village"},{"id":"281159635","name":"Pepenii Noi","lat":47.6523547,"lon":28.3386222,"type":"village"},{"id":"281159636","name":"Sloveanca","lat":47.6591009,"lon":28.381977,"type":"village"},{"id":"281159637","name":"Bălășești","lat":47.6602569,"lon":28.3549728,"type":"village"},{"id":"281159638","name":"Grigorăuca","lat":47.6189331,"lon":28.1959775,"type":"village"},{"id":"281159639","name":"Gavrilovca","lat":47.6444568,"lon":28.2583621,"type":"village"},{"id":"281159640","name":"Cozești","lat":47.5686875,"lon":28.1817573,"type":"village"},{"id":"281159641","name":"Ciuciuieni","lat":47.5559619,"lon":28.1317429,"type":"village"},{"id":"281159642","name":"Iezărenii Vechi","lat":47.5665688,"lon":28.0888444,"type":"village"},{"id":"281159643","name":"Iezărenii Noi","lat":47.589302,"lon":28.096007,"type":"village"},{"id":"281159644","name":"Vrănești","lat":47.6233233,"lon":28.1009608,"type":"village"},{"id":"281159645","name":"Brejeni","lat":47.5818125,"lon":28.1399296,"type":"village"},{"id":"281159646","name":"Nicolaevca","lat":47.6118449,"lon":28.0194209,"type":"village"},{"id":"281159647","name":"Petropavlovca","lat":47.5932975,"lon":28.2113179,"type":"village"},{"id":"281159648","name":"Slobozia-Chișcăreni","lat":47.5709877,"lon":28.0092693,"type":"village"},{"id":"281159649","name":"Chișcăreni","lat":47.5568459,"lon":28.007632,"type":"village"},{"id":"281159650","name":"Bocancea-Schit","lat":47.5070984,"lon":28.1382923,"type":"village"},{"id":"281159651","name":"Bursuceni","lat":47.4898415,"lon":28.0145089,"type":"village"},{"id":"281159652","name":"Bobletici","lat":47.4655165,"lon":28.0521783,"type":"village"},{"id":"281159653","name":"Coșcodeni","lat":47.4864701,"lon":28.0487391,"type":"village"},{"id":"281159654","name":"Dumbrăvița","lat":47.482003,"lon":28.1087342,"type":"village"},{"id":"281159655","name":"Flămînzeni","lat":47.4932843,"lon":28.0746385,"type":"village"},{"id":"281159656","name":"Valea lui Vlad","lat":47.4822493,"lon":28.1268665,"type":"village"},{"id":"281159657","name":"Slobozia-Măgura","lat":47.4840973,"lon":27.9659722,"type":"village"},{"id":"281159658","name":"Tăura Nouă","lat":47.5490152,"lon":27.9023128,"type":"village"},{"id":"281159659","name":"Tăura Veche","lat":47.5384325,"lon":27.95226,"type":"village"},{"id":"281161059","name":"Vladimireuca","lat":47.6549121,"lon":28.2479479,"type":"village"},{"id":"281161060","name":"Evghenievca","lat":47.664549,"lon":28.2206156,"type":"village"},{"id":"281161061","name":"Antonovca","lat":47.6747771,"lon":28.2369818,"type":"village"},{"id":"281161063","name":"Chirileni","lat":47.6905669,"lon":28.1974038,"type":"village"},{"id":"281161064","name":"Alexeuca","lat":47.6881075,"lon":28.2908624,"type":"village"},{"id":"281161065","name":"Cotiujenii Mici","lat":47.7026974,"lon":28.3080925,"type":"village"},{"id":"281161067","name":"Gura-Oituz","lat":47.7019493,"lon":28.3472771,"type":"village"},{"id":"281161068","name":"Drăgănești","lat":47.7174702,"lon":28.251122,"type":"village"},{"id":"281161069","name":"Sacarovca","lat":47.7058767,"lon":28.2094362,"type":"village"},{"id":"281161071","name":"Rădoaia","lat":47.7263817,"lon":28.1616101,"type":"village"},{"id":"281161072","name":"Valea Norocului","lat":47.7656559,"lon":28.2031812,"type":"village"},{"id":"281161073","name":"Trifănești","lat":47.7425981,"lon":28.0953042,"type":"village"},{"id":"281161075","name":"Izvoare","lat":47.7163977,"lon":28.1961141,"type":"village"},{"id":"281161077","name":"Mărinești","lat":47.7261735,"lon":28.0638648,"type":"village"},{"id":"281161079","name":"Mîndreștii Noi","lat":47.7183501,"lon":28.0245104,"type":"village"},{"id":"281161081","name":"Octeabriscoe","lat":47.7133769,"lon":27.9489324,"type":"village"},{"id":"281161085","name":"Heciul Nou","lat":47.7725248,"lon":28.0629004,"type":"village"},{"id":"281161087","name":"Bilicenii Noi","lat":47.6983646,"lon":28.0334481,"type":"village"},{"id":"281161090","name":"Țiplești","lat":47.8239051,"lon":28.1470858,"type":"village"},{"id":"281161092","name":"Țipletești","lat":47.8187314,"lon":28.1259384,"type":"village"},{"id":"281161094","name":"Heciul Vechi","lat":47.7999007,"lon":28.1032562,"type":"village"},{"id":"281161096","name":"Biruința","lat":47.8114451,"lon":28.066453,"type":"town"},{"id":"281161097","name":"Alexăndreni","lat":47.8103129,"lon":28.0837775,"type":"village"},{"id":"281161098","name":"Grigorești","lat":47.8015078,"lon":28.0582004,"type":"village"},{"id":"281161100","name":"Cubolta","lat":47.8745709,"lon":28.0370609,"type":"village"},{"id":"281161101","name":"Cotovca","lat":47.8500649,"lon":27.9760663,"type":"village"},{"id":"281161102","name":"Dobrogea Veche","lat":47.840134,"lon":27.9312571,"type":"village"},{"id":"281161103","name":"Dobrogea Nouă","lat":47.8278668,"lon":27.945284,"type":"village"},{"id":"281161105","name":"Mărășești","lat":47.8624265,"lon":28.0727663,"type":"village"},{"id":"281161106","name":"Bilicenii Vechi","lat":47.6550094,"lon":28.0459523,"type":"village"},{"id":"281161110","name":"Coada Iazului","lat":47.6560641,"lon":28.0002841,"type":"village"},{"id":"281161121","name":"Lipovanca","lat":47.6775046,"lon":27.9856702,"type":"village"},{"id":"281161122","name":"Pălăria","lat":47.6857622,"lon":27.9389581,"type":"village"},{"id":"281161123","name":"Țambula","lat":47.6978826,"lon":27.9199079,"type":"village"},{"id":"281380211","name":"Izvoare","lat":47.4350548,"lon":27.6657198,"type":"village"},{"id":"281380219","name":"Hrubna Nouă","lat":47.4057038,"lon":27.6144534,"type":"village"},{"id":"281380222","name":"Taxobeni","lat":47.3875503,"lon":27.5907738,"type":"village"},{"id":"281380224","name":"Vrănești","lat":47.4085775,"lon":27.5994475,"type":"village"},{"id":"281380227","name":"Unteni","lat":47.415065,"lon":27.5805101,"type":"village"},{"id":"281380234","name":"Horești","lat":47.4305657,"lon":27.5787315,"type":"village"},{"id":"281380238","name":"Lucăceni","lat":47.4582203,"lon":27.5972081,"type":"village"},{"id":"281380243","name":"Valea Rusului","lat":47.47033,"lon":27.5824528,"type":"village"},{"id":"281380247","name":"Bocșa","lat":47.4671135,"lon":27.6482856,"type":"village"},{"id":"281380253","name":"Risipeni","lat":47.4598412,"lon":27.6667645,"type":"village"},{"id":"281380280","name":"Hîrtop","lat":47.4795885,"lon":27.7046026,"type":"village"},{"id":"281380288","name":"Scumpia","lat":47.4635729,"lon":27.7417752,"type":"village"},{"id":"281380291","name":"Făgădău","lat":47.4414526,"lon":27.8026569,"type":"village"},{"id":"281380296","name":"Șoltoaia","lat":47.4622552,"lon":27.814314,"type":"village"},{"id":"281380298","name":"Pocrovca","lat":47.4641049,"lon":27.8732584,"type":"village"},{"id":"281380300","name":"Ciolacu Nou","lat":47.4867073,"lon":27.8256769,"type":"village"},{"id":"281380306","name":"Ciolacu Vechi","lat":47.4729916,"lon":27.8659619,"type":"village"},{"id":"281380309","name":"Măgura Nouă","lat":47.5071717,"lon":27.9534983,"type":"village"},{"id":"281380315","name":"Măgura","lat":47.4860932,"lon":27.934416,"type":"village"},{"id":"281380317","name":"Pietrosu","lat":47.5010332,"lon":27.9207857,"type":"village"},{"id":"281380328","name":"Burghelea","lat":47.5394121,"lon":27.8642146,"type":"village"},{"id":"281380331","name":"Doltu","lat":47.5376489,"lon":27.8238595,"type":"village"},{"id":"281380334","name":"Hitrești","lat":47.5490445,"lon":27.7740809,"type":"village"},{"id":"281380346","name":"Făleștii Noi","lat":47.5716323,"lon":27.7460207,"type":"village"},{"id":"281380348","name":"Frumușica","lat":47.5141959,"lon":27.6849386,"type":"village"},{"id":"281380352","name":"Sărata Veche","lat":47.5102407,"lon":27.7384433,"type":"village"},{"id":"281380353","name":"Sărata Nouă","lat":47.5000101,"lon":27.7917527,"type":"village"},{"id":"281380354","name":"Ișcălău","lat":47.5728495,"lon":27.8193767,"type":"village"},{"id":"281380367","name":"Nicolaevca","lat":47.4997504,"lon":27.7038219,"type":"village"},{"id":"281380380","name":"Măgureanca","lat":47.5052893,"lon":27.6934635,"type":"village"},{"id":"281380384","name":"Socii Vechi","lat":47.5297292,"lon":27.6701189,"type":"village"},{"id":"281380385","name":"Musteața","lat":47.5101998,"lon":27.6502102,"type":"village"},{"id":"281380390","name":"Rediul de Sus","lat":47.5092005,"lon":27.6025379,"type":"village"},{"id":"281380392","name":"Rediul de Jos","lat":47.5246829,"lon":27.6087743,"type":"village"},{"id":"281380394","name":"Socii Noi","lat":47.5389167,"lon":27.6414869,"type":"village"},{"id":"281380395","name":"Drujineni","lat":47.5250187,"lon":27.5324354,"type":"village"},{"id":"281380400","name":"Hîncești","lat":47.5475042,"lon":27.5026401,"type":"village"},{"id":"281380401","name":"Albinețul Vechi","lat":47.5543732,"lon":27.6363982,"type":"village"},{"id":"281380403","name":"Albinețul Nou","lat":47.5801238,"lon":27.6214958,"type":"village"},{"id":"281380415","name":"Călinești","lat":47.5634487,"lon":27.4870108,"type":"village"},{"id":"281380418","name":"Năvîrneț","lat":47.5880433,"lon":27.5607029,"type":"village"},{"id":"281380421","name":"Cuzmenii Vechi","lat":47.5271121,"lon":27.5651479,"type":"village"},{"id":"281380423","name":"Chetriș","lat":47.5948328,"lon":27.4455748,"type":"village"},{"id":"281380424","name":"Chetrișul Nou","lat":47.6255029,"lon":27.5087596,"type":"village"},{"id":"281380432","name":"Logofteni","lat":47.6259531,"lon":27.5698827,"type":"village"},{"id":"281380436","name":"Moldoveanca","lat":47.6264417,"lon":27.6095852,"type":"village"},{"id":"281380437","name":"Pietrosul Nou","lat":47.5813497,"lon":27.7676121,"type":"village"},{"id":"281380451","name":"Catranîc","lat":47.596346,"lon":27.8004164,"type":"village"},{"id":"281380452","name":"Egorovca","lat":47.6161534,"lon":27.7625234,"type":"village"},{"id":"281380453","name":"Ciuluc","lat":47.6350162,"lon":27.7912378,"type":"village"},{"id":"281380454","name":"Ilenuța","lat":47.6335466,"lon":27.7123641,"type":"village"},{"id":"281380455","name":"Pînzăreni","lat":47.6180974,"lon":27.675129,"type":"village"},{"id":"281380460","name":"Pînzărenii Noi","lat":47.6012054,"lon":27.6480294,"type":"village"},{"id":"281380462","name":"Hiliuți","lat":47.66913,"lon":27.7600965,"type":"village"},