[{"id":"27565116","name":"Antananarivo","lat":-18.9100122,"lon":47.5255809,"type":"city"},{"id":"254609408","name":"Toliara","lat":-23.354173,"lon":43.66966,"type":"city"},{"id":"254615144","name":"Maroantsetra","lat":-15.4348742,"lon":49.7422912,"type":"town"},{"id":"254616067","name":"Antsiranana","lat":-12.2779632,"lon":49.2913743,"type":"city"},{"id":"254616909","name":"Hell-Ville","lat":-13.405413,"lon":48.274305,"type":"town"},{"id":"254617039","name":"Dzamandzar","lat":-13.3516121,"lon":48.1943884,"type":"town"},{"id":"254618037","name":"Mahajanga","lat":-15.7181492,"lon":46.3172577,"type":"city"},{"id":"254619402","name":"Katsepy","lat":-15.765139,"lon":46.24278,"type":"village"},{"id":"296138430","name":"Sarodrano","lat":-23.510605,"lon":43.7343429,"type":"village"},{"id":"300217995","name":"Ihosy","lat":-22.403183,"lon":46.1289903,"type":"town"},{"id":"300218243","name":"Sakaraha","lat":-22.9119193,"lon":44.5323696,"type":"town"},{"id":"300270377","name":"Soaniakarana","lat":-20.0158602,"lon":46.9877965,"type":"village"},{"id":"300272255","name":"Antsirabe","lat":-19.871403,"lon":47.034667,"type":"city"},{"id":"300378189","name":"Mitsinjo","lat":-16.011496,"lon":45.866061,"type":"town"},{"id":"300379949","name":"Marovoay","lat":-16.1088044,"lon":46.642048,"type":"town"},{"id":"300382318","name":"Maevatanàna","lat":-16.9497038,"lon":46.828337,"type":"town"},{"id":"300385305","name":"Ambatomainty","lat":-17.6963929,"lon":45.6655134,"type":"town"},{"id":"300385517","name":"Ankazobe","lat":-18.3143843,"lon":47.1144865,"type":"town"},{"id":"300385656","name":"Fenoarivobe","lat":-18.4518171,"lon":46.5642647,"type":"town"},{"id":"300385953","name":"Morafenobe","lat":-17.8189515,"lon":44.9251181,"type":"town"},{"id":"300387736","name":"Maintirano","lat":-18.0608947,"lon":44.023951,"type":"town"},{"id":"300388295","name":"Besalampy","lat":-16.7484406,"lon":44.4908675,"type":"town"},{"id":"300388620","name":"Soalala","lat":-16.102869,"lon":45.328472,"type":"town"},{"id":"300388920","name":"Faratsiho","lat":-19.4050956,"lon":46.9508361,"type":"town"},{"id":"300388948","name":"Soavinandriana","lat":-19.1707551,"lon":46.7386858,"type":"town"},{"id":"300389431","name":"Miarinarivo","lat":-18.956006,"lon":46.906709,"type":"town"},{"id":"300389556","name":"Tsiroanomandidy","lat":-18.7698412,"lon":46.0495226,"type":"town"},{"id":"316153700","name":"Ifaty","lat":-23.1592459,"lon":43.6105432,"type":"village"},{"id":"316841166","name":"Ambositra","lat":-20.5328149,"lon":47.2450521,"type":"town"},{"id":"316842941","name":"Ambohimahasoa","lat":-21.106357,"lon":47.214455,"type":"town"},{"id":"316843071","name":"Fianarantsoa","lat":-21.456444,"lon":47.085149,"type":"city"},{"id":"316844298","name":"Ranohira","lat":-22.5567477,"lon":45.4141185,"type":"town"},{"id":"316844748","name":"Andohanilakaka","lat":-22.700384,"lon":45.2147386,"type":"town"},{"id":"335711690","name":"Toamasina","lat":-18.1553985,"lon":49.4098352,"type":"city"},{"id":"337945914","name":"Ankilizato","lat":-20.408832,"lon":45.046357,"type":"town"},{"id":"340427004","name":"Port-Bergé","lat":-15.5668595,"lon":47.6207245,"type":"town"},{"id":"569356379","name":"Vilanandro","lat":-16.4914787,"lon":45.434844,"type":"village"},{"id":"574302812","name":"Ambondromamy","lat":-16.436889,"lon":47.156923,"type":"town"},{"id":"574455512","name":"Namakia","lat":-15.9127159,"lon":45.8380586,"type":"town"},{"id":"581142048","name":"Andasibe","lat":-18.9230783,"lon":48.4177934,"type":"village"},{"id":"590656547","name":"Carion","lat":-18.906508,"lon":47.706098,"type":"village"},{"id":"590683367","name":"Maharidaza","lat":-18.8922179,"lon":47.7162091,"type":"village"},{"id":"590779586","name":"Sambaina","lat":-18.8923146,"lon":47.7813849,"type":"village"},{"id":"590835579","name":"Manjakandriana","lat":-18.9210585,"lon":47.8113315,"type":"town"},{"id":"590866503","name":"Ambatolaona","lat":-18.9286081,"lon":47.8831401,"type":"village"},{"id":"592511673","name":"Ambodiamontana","lat":-18.9261513,"lon":47.9540255,"type":"village"},{"id":"592534107","name":"Ankarefo","lat":-18.8688041,"lon":48.0836385,"type":"village"},{"id":"592546353","name":"Antsirinala","lat":-18.896548,"lon":48.1482505,"type":"village"},{"id":"592556671","name":"Andranokobaka","lat":-18.9152484,"lon":48.1714379,"type":"village"},{"id":"592588128","name":"Anevoka","lat":-18.9467908,"lon":48.4644323,"type":"village"},{"id":"592600053","name":"Beforona","lat":-18.9720393,"lon":48.5775181,"type":"village"},{"id":"592624370","name":"Ampasimbe","lat":-18.9672991,"lon":48.6799615,"type":"village"},{"id":"592624374","name":"Antongombato","lat":-18.9729164,"lon":48.7580345,"type":"village"},{"id":"593959994","name":"Marovola","lat":-18.9544107,"lon":48.8067243,"type":"village"},{"id":"593970000","name":"Tsaramandroso","lat":-18.9698297,"lon":48.876739,"type":"village"},{"id":"593972705","name":"Mahavory","lat":-18.9775695,"lon":48.9239922,"type":"village"},{"id":"593972709","name":"Antsampanana","lat":-18.981753,"lon":48.942804,"type":"village"},{"id":"593976824","name":"Brickaville","lat":-18.8208628,"lon":49.0694434,"type":"town"},{"id":"595737810","name":"Ampasimadinika","lat":-18.4145132,"lon":49.1656635,"type":"village"},{"id":"595737813","name":"Ambodibonara","lat":-18.3102397,"lon":49.2382567,"type":"village"},{"id":"595739680","name":"Fanandrana","lat":-18.2534396,"lon":49.2678112,"type":"village"},{"id":"617857628","name":"Manerinerina","lat":-18.0083011,"lon":47.1482915,"type":"village"},{"id":"617857753","name":"Ambinany Iazafo","lat":-17.4375711,"lon":49.432507,"type":"village"},{"id":"617857754","name":"Tanambao Sahorana","lat":-17.410646,"lon":49.4377265,"type":"village"},{"id":"617857761","name":"Ampasina Maningory","lat":-17.2188716,"lon":49.4077275,"type":"village"},{"id":"617857779","name":"Tanambao Bitavola","lat":-17.1901303,"lon":49.4652052,"type":"village"},{"id":"617857781","name":"Mahasoa","lat":-17.1423921,"lon":49.4955961,"type":"village"},{"id":"617857785","name":"Anjahambe","lat":-17.1210471,"lon":49.5011422,"type":"village"},{"id":"617857794","name":"Manankatafana","lat":-17.0672849,"lon":49.520526,"type":"village"},{"id":"617857796","name":"Manankinany","lat":-17.0399003,"lon":49.5295768,"type":"village"},{"id":"617857815","name":"Marosakoa","lat":-16.180124,"lon":46.753366,"type":"village"},{"id":"617857822","name":"Tsaramandroso","lat":-16.362626,"lon":47.044821,"type":"village"},{"id":"617857824","name":"Andranofasika","lat":-16.336409,"lon":46.844789,"type":"village"},{"id":"617857828","name":"Andranomany","lat":-16.5372402,"lon":47.1243296,"type":"village"},{"id":"617857831","name":"Ankazomborona","lat":-16.115517,"lon":46.7524297,"type":"village"},{"id":"617857849","name":"Antanambao","lat":-15.9952905,"lon":46.6946965,"type":"village"},{"id":"637715770","name":"Ambohidratrimo","lat":-18.8186405,"lon":47.4395021,"type":"town"},{"id":"637715779","name":"Andranovelona","lat":-18.6406259,"lon":47.2727064,"type":"village"},{"id":"637715789","name":"Mahitsy","lat":-18.7482365,"lon":47.3453175,"type":"town"},{"id":"637715831","name":"Andakana","lat":-18.7877131,"lon":47.3994417,"type":"village"},{"id":"637715852","name":"Soaniadanana","lat":-18.5186646,"lon":47.196864,"type":"village"},{"id":"637732415","name":"Ambovondramanesy","lat":-15.8977832,"lon":46.6352024,"type":"village"},{"id":"664492742","name":"Moramanga","lat":-18.9471494,"lon":48.2304269,"type":"town"},{"id":"666386723","name":"Antanambao","lat":-15.9998907,"lon":45.8733326,"type":"village"},{"id":"666396637","name":"Bevary","lat":-15.9589988,"lon":45.9395229,"type":"village"},{"id":"671507246","name":"Fenoarivo Atsinanana","lat":-17.382029,"lon":49.4099733,"type":"town"},{"id":"671561243","name":"Soanierana Ivongo","lat":-16.920327,"lon":49.585367,"type":"town"},{"id":"678832056","name":"Ambodifototra","lat":-16.9996379,"lon":49.8525772,"type":"town"},{"id":"681137750","name":"Ambohimangakely","lat":-18.9009809,"lon":47.5991011,"type":"village"},{"id":"681150705","name":"Ambohimalaza","lat":-18.8944775,"lon":47.6373757,"type":"village"},{"id":"681157134","name":"Ambohipeno","lat":-18.9245962,"lon":47.5929304,"type":"village"},{"id":"681157137","name":"Ambohimanambola","lat":-18.9471278,"lon":47.5992243,"type":"village"},{"id":"687173776","name":"Fenoarivo","lat":-18.9329992,"lon":47.4354336,"type":"village"},{"id":"691211942","name":"Mangily","lat":-23.125399,"lon":43.6094497,"type":"village"},{"id":"691223534","name":"Saint Augustin","lat":-23.5522963,"lon":43.7643577,"type":"village"},{"id":"691464525","name":"Anakao","lat":-23.6580575,"lon":43.6468581,"type":"village"},{"id":"691464552","name":"Soalara","lat":-23.5947596,"lon":43.7129145,"type":"village"},{"id":"695421274","name":"Andilana","lat":-13.2543919,"lon":48.1888417,"type":"village"},{"id":"695456422","name":"Ambatoloaka","lat":-13.3982754,"lon":48.208032,"type":"village"},{"id":"695456432","name":"Ambondrona","lat":-13.3740451,"lon":48.1927235,"type":"village"},{"id":"701528036","name":"Vohitsaoka","lat":-22.0362072,"lon":46.7253411,"type":"village"},{"id":"701528454","name":"Soavahiny","lat":-22.0816826,"lon":46.787185,"type":"village"},{"id":"701528513","name":"Morarano","lat":-22.100788,"lon":46.8034195,"type":"village"},{"id":"701528957","name":"Ambalamanandray Namoly","lat":-22.1237372,"lon":46.9216779,"type":"village"},{"id":"701529407","name":"Sendrisoa","lat":-22.003851,"lon":46.953785,"type":"village"},{"id":"701529816","name":"Ambalavao","lat":-21.8316233,"lon":46.9384737,"type":"town"},{"id":"710305755","name":"Morondava","lat":-20.2951102,"lon":44.2786121,"type":"town"},{"id":"711526109","name":"Ambatolampy","lat":-19.3858258,"lon":47.4271559,"type":"town"},{"id":"713524647","name":"Antsohihy","lat":-14.8775272,"lon":47.98715,"type":"town"},{"id":"713527688","name":"Analalava","lat":-14.6320018,"lon":47.7487026,"type":"town"},{"id":"715574491","name":"Ambanja","lat":-13.6758118,"lon":48.4527762,"type":"town"},{"id":"719015321","name":"Manantenina","lat":-14.4963145,"lon":49.8214866,"type":"village"},{"id":"719015341","name":"Mandena","lat":-14.4771928,"lon":49.8148013,"type":"village"},{"id":"721308145","name":"Andapa","lat":-14.6622706,"lon":49.6517827,"type":"town"},{"id":"724157435","name":"Sambava","lat":-14.254956,"lon":50.1556533,"type":"town"},{"id":"724314704","name":"Bekopaka","lat":-19.1472078,"lon":44.7912149,"type":"village"},{"id":"724314711","name":"Andimaka","lat":-19.2492096,"lon":44.7080795,"type":"village"},{"id":"724521808","name":"Andranomena","lat":-20.1859463,"lon":44.4253977,"type":"village"},{"id":"724521817","name":"Antsalova","lat":-18.6757519,"lon":44.6219368,"type":"town"},{"id":"725564687","name":"Belo-Tsiribihina","lat":-19.7014439,"lon":44.5483552,"type":"town"},{"id":"726665354","name":"Ambilobe","lat":-13.194439,"lon":49.049956,"type":"town"},{"id":"727284596","name":"Antreaky","lat":-25.1276631,"lon":45.1948027,"type":"village"},{"id":"727284597","name":"Behavandra","lat":-24.65994,"lon":44.7089863,"type":"village"},{"id":"727284598","name":"Andranovory","lat":-23.140273,"lon":44.1449936,"type":"village"},{"id":"727284602","name":"Tranoroa","lat":-24.7089182,"lon":45.0632347,"type":"village"},{"id":"727284605","name":"Tsihombe","lat":-25.318547,"lon":45.484057,"type":"town"},{"id":"727284607","name":"Beloha","lat":-25.173662,"lon":45.0610399,"type":"town"},{"id":"727284608","name":"Ampanihy","lat":-24.6926617,"lon":44.7463882,"type":"town"},{"id":"727284609","name":"Tongobory","lat":-23.5309647,"lon":44.3237086,"type":"village"},{"id":"727284611","name":"Tsimilofo","lat":-24.9118933,"lon":45.1556177,"type":"village"},{"id":"727284615","name":"Beahitse","lat":-24.1681456,"lon":44.4429557,"type":"village"},{"id":"727284616","name":"Evatra","lat":-24.9681534,"lon":47.0884741,"type":"village"},{"id":"727284617","name":"Betioka","lat":-23.718638,"lon":44.3794652,"type":"town"},{"id":"727289341","name":"Mahaboboka","lat":-22.8949482,"lon":44.3462312,"type":"village"},{"id":"727289342","name":"Ankaramena","lat":-21.9464466,"lon":46.6406115,"type":"village"},{"id":"727289344","name":"Zazafotsy","lat":-22.2052778,"lon":46.3642973,"type":"village"},{"id":"727289345","name":"Iarintsena","lat":-21.8278785,"lon":46.8808034,"type":"village"},{"id":"727292572","name":"Farafangana","lat":-22.8217524,"lon":47.8307127,"type":"town"},{"id":"727292575","name":"Vohipeno","lat":-22.3548744,"lon":47.8399542,"type":"town"},{"id":"727292577","name":"Manakara","lat":-22.1449564,"lon":48.0113527,"type":"town"},{"id":"727292578","name":"Talata-Ampano","lat":-21.562622,"lon":47.0381397,"type":"village"},{"id":"727298886","name":"Alakamisy Ambohimaha","lat":-21.3216683,"lon":47.2253729,"type":"village"},{"id":"727298895","name":"Ambalamanakana","lat":-20.739654,"lon":47.182166,"type":"village"},{"id":"727298897","name":"Manandona","lat":-20.0581059,"lon":47.0550244,"type":"village"},{"id":"727298903","name":"Vohiposa","lat":-20.9939879,"lon":47.1617288,"type":"village"},{"id":"727298908","name":"Vinaninkarena","lat":-19.9557237,"lon":47.0421292,"type":"village"},{"id":"727308344","name":"Betafo","lat":-19.8385451,"lon":46.8562285,"type":"town"},{"id":"727308348","name":"Ambatolahy","lat":-20.012543,"lon":45.5386322,"type":"town"},{"id":"727308363","name":"Miandrivazo","lat":-19.5312416,"lon":45.4587681,"type":"town"},{"id":"727319435","name":"Ampitatafika","lat":-19.565261,"lon":47.357755,"type":"village"},{"id":"727319436","name":"Antsampanimahazo","lat":-19.6840146,"lon":47.1672154,"type":"village"},{"id":"727319438","name":"Ambohimandroso","lat":-19.5227981,"lon":47.4320668,"type":"village"},{"id":"727319440","name":"Ilempona","lat":-19.6401831,"lon":47.3144924,"type":"village"},{"id":"727319441","name":"Antsoatany","lat":-19.710184,"lon":47.159552,"type":"village"},{"id":"727319443","name":"Sambaina","lat":-19.6406875,"lon":47.1580121,"type":"village"},{"id":"727319444","name":"Andranomanelatra","lat":-19.785396,"lon":47.104138,"type":"village"},{"id":"727319445","name":"Ambalavao","lat":-19.0962731,"lon":47.5299628,"type":"village"},{"id":"731240436","name":"Beanana","lat":-17.0516337,"lon":46.8103831,"type":"village"},{"id":"731240439","name":"Andriba","lat":-17.5968442,"lon":46.9297848,"type":"village"},{"id":"731240446","name":"Mahatsinjo","lat":-17.747332,"lon":47.0174,"type":"village"},{"id":"731240448","name":"Berivotra","lat":-16.773233,"lon":47.0208001,"type":"village"},{"id":"731240449","name":"Antsiafabositra","lat":-17.303666,"lon":46.95615,"type":"village"},{"id":"731246774","name":"Mampikony","lat":-16.093117,"lon":47.642735,"type":"town"},{"id":"731246777","name":"Tanandava","lat":-16.1430814,"lon":47.405551,"type":"village"},{"id":"731246778","name":"Antanalabe","lat":-14.8791435,"lon":48.0782689,"type":"village"},{"id":"731246780","name":"Anahidrano","lat":-15.020398,"lon":47.891202,"type":"village"},{"id":"731246784","name":"Manerinerina","lat":-16.2817846,"lon":47.3017857,"type":"village"},{"id":"731246785","name":"Bekoratsaka","lat":-16.10827,"lon":47.492434,"type":"village"},{"id":"731276271","name":"Djangoa","lat":-13.797312,"lon":48.334868,"type":"village"},{"id":"731276276","name":"Maromandia","lat":-14.2053764,"lon":48.0838698,"type":"village"},{"id":"731276285","name":"Antanambo","lat":-14.7296549,"lon":48.0680353,"type":"village"},{"id":"731276290","name":"Ankingameloka","lat":-13.8253837,"lon":48.2803546,"type":"village"},{"id":"731276301","name":"Anjialava","lat":-14.654918,"lon":48.0900999,"type":"village"},{"id":"731276323","name":"Befotaka","lat":-14.530515,"lon":48.024434,"type":"village"},{"id":"731290294","name":"Beramanja","lat":-13.343863,"lon":48.875004,"type":"village"},{"id":"731311819","name":"Anivorano","lat":-12.7415985,"lon":49.2335811,"type":"village"},{"id":"731311829","name":"Isisy","lat":-13.1425926,"lon":49.0830127,"type":"village"},{"id":"731311831","name":"Sadjoavato","lat":-12.633384,"lon":49.348969,"type":"village"},{"id":"731311838","name":"Antsakoabe","lat":-12.6697942,"lon":49.293125,"type":"village"},{"id":"731311841","name":"Andrafiabe","lat":-12.527734,"lon":49.40513,"type":"village"},{"id":"731321931","name":"Mahavanona","lat":-12.4602,"lon":49.381149,"type":"village"},{"id":"731321936","name":"Joffreville","lat":-12.496546,"lon":49.2032096,"type":"village"},{"id":"731360777","name":"Ramena","lat":-12.2424298,"lon":49.3456478,"type":"village"},{"id":"731905826","name":"Manakana","lat":-14.5327717,"lon":49.8753296,"type":"village"},{"id":"731905827","name":"Mahitsiarongana","lat":-14.35915,"lon":49.9784186,"type":"village"},{"id":"731905828","name":"Morafeno","lat":-13.5416375,"lon":49.9876711,"type":"village"},{"id":"731905829","name":"Mahasoa","lat":-13.2527134,"lon":49.8349851,"type":"village"},{"id":"731905830","name":"Maroambihy","lat":-14.5095611,"lon":49.839098,"type":"village"},{"id":"731905831","name":"Betsiaka","lat":-13.1596166,"lon":49.2390003,"type":"village"},{"id":"731905832","name":"Belalona","lat":-14.4817923,"lon":49.9167102,"type":"village"},{"id":"731905833","name":"Ambohimalaza","lat":-14.29585,"lon":50.030067,"type":"village"},{"id":"731905834","name":"Antsirabe","lat":-13.9751362,"lon":49.9720643,"type":"village"},{"id":"731905835","name":"Lohanantsahabe","lat":-14.4306777,"lon":49.9435715,"type":"village"},{"id":"731905837","name":"Ambodivoangy","lat":-14.3872122,"lon":49.961434,"type":"village"},{"id":"731905838","name":"Tsarabaria","lat":-13.7590996,"lon":49.9480852,"type":"village"},{"id":"731905839","name":"Amboahangibe","lat":-14.5101425,"lon":49.7770825,"type":"village"},{"id":"731905841","name":"Madirobe","lat":-13.1922,"lon":49.7761171,"type":"village"},{"id":"731905842","name":"Ambararata","lat":-13.0214459,"lon":49.4236819,"type":"village"},{"id":"731905843","name":"Antsahabe","lat":-14.5124035,"lon":49.8895687,"type":"village"},{"id":"731905844","name":"Antsahalalina","lat":-14.3157339,"lon":50.0076691,"type":"village"},{"id":"731905847","name":"Ambodiampana","lat":-14.5275005,"lon":49.8552498,"type":"village"},{"id":"731905848","name":"Maevatanana","lat":-14.4421257,"lon":49.9372312,"type":"village"},{"id":"731905849","name":"Nosiarina","lat":-14.2103369,"lon":50.0439915,"type":"village"},{"id":"731905850","name":"Ampanefena","lat":-13.860759,"lon":49.94723,"type":"village"},{"id":"731905851","name":"Belambo Lokoho","lat":-14.54042,"lon":49.7420239,"type":"village"},{"id":"731905852","name":"Antsahampano","lat":-13.2107277,"lon":49.7399191,"type":"village"},{"id":"731905853","name":"Ambodivohitra","lat":-14.4133972,"lon":49.9513273,"type":"village"},{"id":"845913880","name":"Alakamisy Anosiala","lat":-18.7956173,"lon":47.4276539,"type":"village"},{"id":"865289315","name":"Soanierana","lat":-25.011042,"lon":46.891442,"type":"village"},{"id":"866601087","name":"Ambovombe","lat":-25.178398,"lon":46.0877489,"type":"town"},{"id":"888302465","name":"Antalaha","lat":-14.9012302,"lon":50.2810433,"type":"town"},{"id":"889874221","name":"Betroka","lat":-23.2672273,"lon":46.097117,"type":"town"},{"id":"898870092","name":"Ambohimanga","lat":-18.7593253,"lon":47.5653235,"type":"village"},{"id":"899232764","name":"Marolambo","lat":-20.0489861,"lon":48.1303834,"type":"town"},{"id":"899273686","name":"Ankaloaka","lat":-23.3788394,"lon":43.7155542,"type":"village"},{"id":"971988518","name":"Manantenina","lat":-24.281999,"lon":47.319326,"type":"village"},{"id":"972051892","name":"Vangaindrano","lat":-23.3498702,"lon":47.6047642,"type":"town"},{"id":"980244125","name":"Irondro","lat":-21.4027267,"lon":47.983213,"type":"village"},{"id":"1027329142","name":"Madirokely","lat":-13.3901945,"lon":48.2029989,"type":"village"},{"id":"1027329150","name":"Cap Doré","lat":-13.2551518,"lon":48.1775961,"type":"village"},{"id":"1030633530","name":"Madirofolo","lat":-13.6311149,"lon":48.4530581,"type":"village"},{"id":"1050320638","name":"Ambaro","lat":-13.324489,"lon":48.184836,"type":"village"},{"id":"1050320644","name":"Ankibanivato","lat":-13.3357859,"lon":48.1847404,"type":"village"},{"id":"1050320668","name":"Ampasy","lat":-13.3631698,"lon":48.1909085,"type":"village"},{"id":"1050358185","name":"Ampasindava","lat":-13.4144039,"lon":48.3061657,"type":"village"},{"id":"1050358188","name":"Ampasipohy","lat":-13.3891389,"lon":48.3410692,"type":"village"},{"id":"1050358193","name":"Antafondro","lat":-13.4095413,"lon":48.3554962,"type":"village"},{"id":"1050358228","name":"Andriana","lat":-13.2801874,"lon":48.2854338,"type":"village"},{"id":"1050358248","name":"Mahazandry","lat":-13.2449346,"lon":48.2953639,"type":"village"},{"id":"1050358277","name":"Marokindro","lat":-13.3144945,"lon":48.2768088,"type":"village"},{"id":"1050358281","name":"Ambanoro","lat":-13.4005321,"lon":48.3000476,"type":"village"},{"id":"1050358303","name":"Andrafia","lat":-13.327798,"lon":48.3294649,"type":"village"},{"id":"1050376237","name":"Ampangorina","lat":-13.4427964,"lon":48.3475807,"type":"village"},{"id":"1051257227","name":"Ambatozavary","lat":-13.3666531,"lon":48.3161386,"type":"village"},{"id":"1076786721","name":"Ankify","lat":-13.5577657,"lon":48.3674116,"type":"village"},{"id":"1308039682","name":"Besakoa","lat":-15.674264,"lon":47.0582231,"type":"village"},{"id":"1314355275","name":"Ifanadiana","lat":-21.3029887,"lon":47.6366961,"type":"town"},{"id":"1316486196","name":"Amborovy","lat":-15.6702853,"lon":46.3428568,"type":"village"},{"id":"1319770699","name":"Andranomavo","lat":-16.581546,"lon":45.562263,"type":"village"},{"id":"1319770720","name":"Komavitse","lat":-16.4495545,"lon":45.6245796,"type":"village"},{"id":"1319881153","name":"Mahatsinjo","lat":-15.7146109,"lon":46.3379332,"type":"village"},{"id":"1319881174","name":"Firarazana","lat":-18.1396839,"lon":47.2273764,"type":"village"},{"id":"1319881215","name":"Belobaka","lat":-15.7047819,"lon":46.3940893,"type":"village"},{"id":"1319881244","name":"Ambalabingo","lat":-16.7666385,"lon":47.0285832,"type":"village"},{"id":"1319881327","name":"Antanimbary","lat":-17.1851827,"lon":46.8553755,"type":"village"},{"id":"1347874621","name":"Belo sur Mer","lat":-20.736302,"lon":44.002005,"type":"village"},{"id":"1347940044","name":"Andavadoaka","lat":-22.0730533,"lon":43.2386308,"type":"village"},{"id":"1347956951","name":"Ambatomilo","lat":-22.4219309,"lon":43.2684555,"type":"village"},{"id":"1348423038","name":"Manja","lat":-21.434135,"lon":44.3303717,"type":"town"},{"id":"1350616391","name":"Manombo","lat":-22.9528005,"lon":43.4739244,"type":"village"},{"id":"1361061044","name":"Ambatolahihazo","lat":-19.3703959,"lon":46.1164168,"type":"village"},{"id":"1361067520","name":"Amparihikambana","lat":-19.2250715,"lon":46.2803716,"type":"village"},{"id":"1361240986","name":"Ampasipotsy","lat":-19.2447381,"lon":46.1792661,"type":"village"},{"id":"1361564180","name":"Soaindrana","lat":-21.516856,"lon":47.040723,"type":"village"},{"id":"1361580154","name":"Andranovorivato","lat":-21.631033,"lon":46.9880713,"type":"village"},{"id":"1361618271","name":"Ambalalova","lat":-21.8281461,"lon":46.8525353,"type":"village"},{"id":"1361618360","name":"Anara I","lat":-21.8564175,"lon":46.8316045,"type":"village"},{"id":"1361643964","name":"Mahasoa Sud","lat":-21.9842009,"lon":46.4287976,"type":"village"},{"id":"1361663387","name":"Ankazobetroka","lat":-22.25043,"lon":46.3248127,"type":"village"},{"id":"1361666104","name":"Ankily","lat":-22.3866529,"lon":46.0959228,"type":"village"},{"id":"1361723071","name":"Manombo","lat":-22.7715733,"lon":45.1067122,"type":"village"},{"id":"1361748334","name":"Andoharotsy","lat":-23.0285102,"lon":44.2848682,"type":"village"},{"id":"1401180257","name":"Begidro","lat":-19.7818894,"lon":45.0995213,"type":"village"},{"id":"1401196910","name":"Manometinay","lat":-20.461567,"lon":44.1981191,"type":"village"},{"id":"1425261420","name":"Marovoay","lat":-18.7862774,"lon":48.2448889,"type":"village"},{"id":"1425261424","name":"Ampitambe","lat":-18.8463977,"lon":48.2321859,"type":"village"},{"id":"1425349521","name":"Tampina","lat":-18.5214025,"lon":49.2805773,"type":"village"},{"id":"1425375785","name":"Vavony","lat":-18.7699002,"lon":49.1817097,"type":"village"},{"id":"1425375802","name":"Ambila Lemaitso","lat":-18.8430024,"lon":49.1535446,"type":"village"},{"id":"1425398915","name":"Ambalahasina","lat":-18.5153618,"lon":49.2290816,"type":"village"},{"id":"1429802170","name":"Andekaleka","lat":-18.7993696,"lon":48.6001583,"type":"village"},{"id":"1429824240","name":"Sandrakazomena","lat":-18.7581129,"lon":48.7709026,"type":"village"},{"id":"1429855704","name":"Fanasana","lat":-18.7972223,"lon":48.7940817,"type":"village"},{"id":"1430727119","name":"Ampasimpotsy","lat":-18.9620803,"lon":48.3384378,"type":"village"},{"id":"1432052840","name":"Betofo","lat":-18.8792136,"lon":48.1421681,"type":"village"},{"id":"1432052860","name":"Ambatovola","lat":-18.887012,"lon":48.565128,"type":"village"},{"id":"1439634389","name":"Ambohidray","lat":-18.6052518,"lon":48.2779736,"type":"village"},{"id":"1439634397","name":"Ambohimena Gara","lat":-18.15662,"lon":48.2524625,"type":"village"},{"id":"1439634402","name":"Amboasary","lat":-18.44362,"lon":48.262943,"type":"village"},{"id":"1439634404","name":"Andaingo","lat":-18.218263,"lon":48.268766,"type":"village"},{"id":"1439634406","name":"Andranokobaka","lat":-18.0761936,"lon":48.2588828,"type":"village"},{"id":"1439634413","name":"Manakambahiny","lat":-17.8573118,"lon":48.2939706,"type":"village"},{"id":"1439634416","name":"Marianina","lat":-17.8689023,"lon":48.3809244,"type":"village"},{"id":"1439634433","name":"Morarano","lat":-18.7011584,"lon":48.2714509,"type":"village"},{"id":"1439634439","name":"Vohidiala","lat":-17.8915763,"lon":48.260044,"type":"village"},{"id":"1492685514","name":"Ambatondrazaka","lat":-17.8237084,"lon":48.4267188,"type":"town"},{"id":"1535731432","name":"Andreba Gara","lat":-17.6331037,"lon":48.5086402,"type":"village"},{"id":"1535757591","name":"Ambandrika","lat":-17.771299,"lon":48.440508,"type":"village"},{"id":"1535757602","name":"Ambatosoratra","lat":-17.610457,"lon":48.5158233,"type":"village"},{"id":"1535757611","name":"Ambohitsilaozana Station","lat":-17.7013574,"lon":48.4656547,"type":"village"},{"id":"1539687608","name":"Andranomena","lat":-17.5408795,"lon":48.5288808,"type":"village"},{"id":"1539776843","name":"Imerimandroso","lat":-17.427856,"lon":48.592285,"type":"village"},{"id":"1541552548","name":"Lavanono","lat":-25.4272919,"lon":44.939908,"type":"village"},{"id":"1546156216","name":"Tanambe","lat":-17.3874,"lon":48.447954,"type":"town"},{"id":"1546156217","name":"Vohitsara","lat":-17.405166,"lon":48.499681,"type":"village"},{"id":"1806255299","name":"Bekobay","lat":-15.820893,"lon":46.928295,"type":"village"},{"id":"1806467082","name":"Anadabokely","lat":-15.7693713,"lon":47.0911167,"type":"village"},{"id":"1806537430","name":"Tsilakanina","lat":-15.8675368,"lon":46.861626,"type":"village"},{"id":"1806537431","name":"Ampapamena","lat":-15.8846724,"lon":46.784915,"type":"village"},{"id":"1806990246","name":"Amparemahitsy","lat":-15.7337267,"lon":46.426478,"type":"village"},{"id":"1808577146","name":"Ampefy","lat":-19.0414971,"lon":46.732382,"type":"village"},{"id":"1808577147","name":"Analavory","lat":-18.9746393,"lon":46.7161791,"type":"town"},{"id":"1809417673","name":"Arivonimamo","lat":-19.0087687,"lon":47.1797742,"type":"town"},{"id":"1811100847","name":"Morafeno","lat":-21.0956435,"lon":48.1805776,"type":"village"},{"id":"1811182553","name":"Andranotsara","lat":-20.1420472,"lon":48.7077767,"type":"village"},{"id":"1811182556","name":"Marosangy","lat":-21.0065108,"lon":48.2864291,"type":"village"},{"id":"1811182562","name":"Nosy Varika","lat":-20.5829067,"lon":48.5322582,"type":"town"},{"id":"1811201128","name":"Anove","lat":-16.610931,"lon":49.8009019,"type":"village"},{"id":"1811201131","name":"Antanambe","lat":-16.43309,"lon":49.849006,"type":"village"},{"id":"1811201134","name":"Manompana","lat":-16.689885,"lon":49.743346,"type":"village"},{"id":"1811201146","name":"Rantabe","lat":-15.702362,"lon":49.638676,"type":"village"},{"id":"1811201147","name":"Voloina","lat":-15.568335,"lon":49.606914,"type":"village"},{"id":"1811399974","name":"Ambakiramy","lat":-13.211232,"lon":49.1563462,"type":"village"},{"id":"1811399975","name":"Ampapamena","lat":-13.1014172,"lon":49.6579308,"type":"village"},{"id":"1811399976","name":"Maromokotra","lat":-13.0077199,"lon":49.4759659,"type":"village"},{"id":"1811413693","name":"Ankerika","lat":-14.96184,"lon":47.86836,"type":"village"},{"id":"1811515756","name":"Ambohibary","lat":-19.617736,"lon":47.1386928,"type":"village"},{"id":"1811661203","name":"Beroroha","lat":-21.679782,"lon":45.169849,"type":"town"},{"id":"1811669671","name":"Iakora","lat":-23.100785,"lon":46.659336,"type":"town"},{"id":"1811677232","name":"Benenitra","lat":-23.4483649,"lon":45.080135,"type":"village"},{"id":"1812785918","name":"Ankazoabo","lat":-22.2926719,"lon":44.5101013,"type":"town"},{"id":"1812785919","name":"Tandrano","lat":-22.0841978,"lon":44.6382962,"type":"village"},{"id":"1812799419","name":"Berevo Ranobe","lat":-17.222984,"lon":44.2923272,"type":"village"},{"id":"1814931788","name":"Bealanana","lat":-14.5423728,"lon":48.7482434,"type":"town"},{"id":"1817379352","name":"Mandabe","lat":-21.0507506,"lon":44.9357529,"type":"village"},{"id":"1818141766","name":"Vatomandry","lat":-19.3336272,"lon":48.9790394,"type":"town"},{"id":"1820746933","name":"Isaka","lat":-21.1398422,"lon":47.0159107,"type":"village"},{"id":"1821407288","name":"Ambohimahamasina","lat":-21.935075,"lon":47.1864064,"type":"village"},{"id":"1821666049","name":"Tsaratanàna","lat":-16.7960006,"lon":47.6510407,"type":"town"},{"id":"1842127284","name":"Marivorahona","lat":-13.086327,"lon":49.1051225,"type":"village"},{"id":"1842128749","name":"Mananara Avaratra","lat":-16.1687557,"lon":49.7655872,"type":"town"},{"id":"1842130062","name":"Mandritsara","lat":-15.844323,"lon":48.8238884,"type":"town"},{"id":"1842133048","name":"Morombe","lat":-21.7440435,"lon":43.3593054,"type":"town"},{"id":"1842154215","name":"Ambaladera","lat":-14.7443953,"lon":49.2406206,"type":"village"},{"id":"1842154216","name":"Doany","lat":-14.3739225,"lon":49.5148236,"type":"village"},{"id":"1842154217","name":"Ambohimarina","lat":-14.8128014,"lon":49.2527498,"type":"village"},{"id":"1842154219","name":"Antetezantany","lat":-14.7730499,"lon":49.2502527,"type":"village"},{"id":"1842154224","name":"Belalona","lat":-14.8712217,"lon":49.355448,"type":"village"},{"id":"1842163077","name":"Ambatosia","lat":-14.6761389,"lon":48.6599769,"type":"village"},{"id":"1862490336","name":"Ambatofinandrahana","lat":-20.5505835,"lon":46.8032175,"type":"town"},{"id":"1862490342","name":"Itremo","lat":-20.5940001,"lon":46.6363644,"type":"village"},{"id":"1862494113","name":"Mandrosonoro","lat":-20.5925377,"lon":46.0009678,"type":"village"},{"id":"1862494311","name":"Amborompotsy","lat":-20.6106249,"lon":46.2478222,"type":"village"},{"id":"1862495647","name":"Ivato","lat":-20.625248,"lon":47.200216,"type":"village"},{"id":"1862503523","name":"Fenoarivo","lat":-20.869109,"lon":46.878472,"type":"village"},{"id":"1864073909","name":"Ambatonjanahary","lat":-11.999796,"lon":49.2818986,"type":"village"},{"id":"1864074039","name":"Andranovondronina","lat":-12.054627,"lon":49.232486,"type":"village"},{"id":"1864074083","name":"Anjiabe","lat":-12.1407867,"lon":49.3182818,"type":"village"},{"id":"1867557821","name":"Marovato","lat":-25.5297373,"lon":45.276216,"type":"village"},{"id":"1905910588","name":"Sahambano","lat":-22.4868398,"lon":46.2813323,"type":"village"},{"id":"1905925256","name":"Bezaha","lat":-23.5023967,"lon":44.5011974,"type":"town"},{"id":"1905989268","name":"Anosibe an'ala","lat":-19.4382256,"lon":48.2060125,"type":"town"},{"id":"1906027819","name":"Antanifotsy","lat":-19.6612484,"lon":47.3236143,"type":"town"},{"id":"1907078999","name":"Ambato Boeny","lat":-16.4716451,"lon":46.7148208,"type":"town"},{"id":"1907079000","name":"Ankijabe","lat":-16.4102422,"lon":46.7693661,"type":"village"},{"id":"1907304020","name":"Ikalamavony","lat":-21.1671472,"lon":46.5980166,"type":"town"},{"id":"1908843764","name":"Mandrosoarivo","lat":-16.1424677,"lon":47.4570064,"type":"village"},{"id":"1908910689","name":"Tsarahasina","lat":-15.764362,"lon":47.577335,"type":"village"},{"id":"1909053866","name":"Anjiamangirana II","lat":-15.1635773,"lon":47.8221718,"type":"village"},{"id":"1910346337","name":"Antanimavo","lat":-13.1749086,"lon":49.1957557,"type":"village"},{"id":"1911235691","name":"Andriambilany","lat":-19.2969014,"lon":47.46811,"type":"village"},{"id":"1911822763","name":"Ambinanifaho","lat":-14.6131289,"lon":50.1210437,"type":"village"},{"id":"1911822769","name":"Ambodimanga","lat":-14.5750504,"lon":50.1645566,"type":"village"},{"id":"1911822772","name":"Antafononana","lat":-14.4963115,"lon":50.1164157,"type":"village"},{"id":"1911886165","name":"Andrapengy","lat":-14.6763746,"lon":50.2162132,"type":"village"},{"id":"1911911806","name":"Antsahanoro","lat":-14.8370163,"lon":50.1375376,"type":"village"},{"id":"1911925602","name":"Ambodipont Isahana","lat":-14.617264,"lon":50.1812173,"type":"village"},{"id":"1911925603","name":"Ampahana","lat":-14.7601484,"lon":50.2198646,"type":"village"},{"id":"1911925604","name":"Antampolo","lat":-14.7316667,"lon":50.2184167,"type":"village"},{"id":"1911925606","name":"Antanandava","lat":-14.4171937,"lon":50.1668954,"type":"village"},{"id":"1911925614","name":"Farahalana","lat":-14.426066,"lon":50.1530494,"type":"village"},{"id":"1911925615","name":"Antsiranambidy","lat":-14.777476,"lon":50.2311375,"type":"village"},{"id":"1911954169","name":"Marojala","lat":-14.4695471,"lon":50.0324489,"type":"village"},{"id":"1912068799","name":"Andilamena","lat":-17.0141073,"lon":48.5725128,"type":"town"},{"id":"1913002403","name":"Ampanotokana","lat":-18.7186715,"lon":47.3086387,"type":"village"},{"id":"1913002405","name":"Tsarahonena","lat":-17.5793675,"lon":46.9437266,"type":"village"},{"id":"1913045443","name":"Antolojanahary","lat":-18.5363793,"lon":47.2207728,"type":"village"},{"id":"1913045444","name":"Tsitakondaza","lat":-18.618717,"lon":47.2512634,"type":"village"},{"id":"1913067491","name":"Ambohitromby","lat":-18.4356241,"lon":47.1698419,"type":"village"},{"id":"1913090600","name":"Mandrosoa","lat":-18.379416,"lon":47.1418235,"type":"village"},{"id":"1913236485","name":"Folakara Sud","lat":-18.3366057,"lon":45.0343692,"type":"village"},{"id":"1913316083","name":"Morovoay","lat":-16.974192,"lon":44.5900974,"type":"village"},{"id":"1914195808","name":"Benara","lat":-15.4456279,"lon":48.5950389,"type":"village"},{"id":"1914210138","name":"Pont-Sofia","lat":-15.4969267,"lon":48.6153142,"type":"village"},{"id":"1914224797","name":"Ambodimotso","lat":-15.3784674,"lon":48.5832923,"type":"village"},{"id":"1914224798","name":"Ampotamainty","lat":-15.3464612,"lon":48.5741774,"type":"village"},{"id":"1914224803","name":"Mahalaza","lat":-15.3967296,"lon":48.5826428,"type":"village"},{"id":"1914224804","name":"Mazava","lat":-15.4566066,"lon":48.5977761,"type":"village"},{"id":"1914254002","name":"Ambaratra","lat":-15.0398961,"lon":48.5486995,"type":"village"},{"id":"1914254003","name":"Tsiamalao","lat":-15.034913,"lon":48.445478,"type":"village"},{"id":"1914279312","name":"Anjalazala","lat":-15.017144,"lon":48.175056,"type":"village"},{"id":"1914279326","name":"Ankobakobaka","lat":-15.1246011,"lon":48.2693533,"type":"village"},{"id":"1914279403","name":"Zafindravoay","lat":-15.1658751,"lon":48.3440776,"type":"village"},{"id":"1916799745","name":"Andramy","lat":-17.963536,"lon":44.785535,"type":"village"},{"id":"1917483477","name":"Ambatomainty","lat":-17.6741952,"lon":48.215801,"type":"village"},{"id":"1917609577","name":"Mahabo","lat":-20.377742,"lon":44.6692407,"type":"town"},{"id":"1917844504","name":"Fandriana","lat":-20.2387837,"lon":47.3783614,"type":"town"},{"id":"1918161787","name":"Anjoman'Ankona","lat":-20.6534474,"lon":47.1040127,"type":"village"},{"id":"1918891239","name":"Anjozorobe","lat":-18.401176,"lon":47.8820115,"type":"town"},{"id":"1919001948","name":"Marofinaritra","lat":-15.039057,"lon":50.116277,"type":"village"},{"id":"1920569279","name":"Ambatofotsy","lat":-21.7622041,"lon":47.4905743,"type":"village"},{"id":"1920569280","name":"Ikongo","lat":-21.8784467,"lon":47.4359236,"type":"town"},{"id":"1920569281","name":"Tolongoina","lat":-21.5596933,"lon":47.5157861,"type":"village"},{"id":"1920590243","name":"Belamoty","lat":-23.5593968,"lon":44.8087293,"type":"village"},{"id":"1920645401","name":"Antanambao Manampontsy","lat":-19.4853201,"lon":48.5738096,"type":"town"},{"id":"1920652390","name":"Vohilava","lat":-21.0776343,"lon":48.0084847,"type":"village"},{"id":"1920684450","name":"Andriamena","lat":-17.4477109,"lon":47.5045851,"type":"town"},{"id":"1920684453","name":"Telomita","lat":-17.5297019,"lon":47.5395817,"type":"village"},{"id":"1920719084","name":"Ambatomarina","lat":-20.571222,"lon":47.019895,"type":"village"},{"id":"1922175057","name":"Antoetra","lat":-20.7758288,"lon":47.3173295,"type":"village"},{"id":"1922429681","name":"Antsaratrana","lat":-13.4406218,"lon":48.765603,"type":"village"},{"id":"1935419164","name":"Amboavory","lat":-17.3133933,"lon":48.5063401,"type":"village"},{"id":"1935660318","name":"Befandriana","lat":-15.254677,"lon":48.5420235,"type":"town"},{"id":"1935660320","name":"Marentety","lat":-15.2479824,"lon":48.5583162,"type":"village"},{"id":"1937043979","name":"Vohitraivo","lat":-17.3056024,"lon":48.5866353,"type":"village"},{"id":"1948690911","name":"Ambovombe","lat":-20.7780568,"lon":47.0761439,"type":"town"},{"id":"1954888109","name":"Befotaka","lat":-23.8238331,"lon":46.9858732,"type":"village"},{"id":"1957022396","name":"Mafaijijo","lat":-18.0594363,"lon":44.087271,"type":"village"},{"id":"1958388698","name":"Fitampito","lat":-20.9646807,"lon":46.3079475,"type":"village"},{"id":"1958388761","name":"Morafeno","lat":-20.9763506,"lon":47.8318602,"type":"village"},{"id":"1958389909","name":"Ambakoana","lat":-21.0002694,"lon":47.9758519,"type":"village"},{"id":"1958389971","name":"Ambodivandrozana","lat":-21.0067906,"lon":47.8379087,"type":"village"},{"id":"1958390067","name":"Ampasimazava","lat":-21.0136441,"lon":47.9881889,"type":"village"},{"id":"1958390236","name":"Andranohambana","lat":-21.020384,"lon":47.834913,"type":"village"},{"id":"1958390766","name":"Ambatoharanana","lat":-21.0429295,"lon":47.9965354,"type":"village"},{"id":"1958391122","name":"Ambatomitsangana","lat":-21.053042,"lon":47.9304351,"type":"village"},{"id":"1958391227","name":"Tanambaobe","lat":-21.0582055,"lon":48.002762,"type":"village"},{"id":"1958391334","name":"Ambodivandrika","lat":-21.0671337,"lon":47.9288914,"type":"village"},{"id":"1958391424","name":"Antaviranambo","lat":-21.0720979,"lon":47.8415591,"type":"village"},{"id":"1958391453","name":"Antaretra","lat":-21.0760293,"lon":47.8455408,"type":"village"},{"id":"1958391501","name":"Ambodiara","lat":-21.0793336,"lon":47.9829071,"type":"village"},{"id":"1958391503","name":"Ambatomainty","lat":-21.0793029,"lon":47.899215,"type":"village"},{"id":"1958391596","name":"Ambodivato","lat":-21.0864398,"lon":47.9649149,"type":"village"},{"id":"1958392745","name":"Mangidy","lat":-21.2568711,"lon":46.7952777,"type":"village"},{"id":"1958525686","name":"Ambalanaomby I","lat":-21.0456078,"lon":48.0623537,"type":"village"},{"id":"1958526331","name":"Tanambaokely","lat":-21.0526744,"lon":48.0813033,"type":"village"},{"id":"1958598284","name":"Iaborotra","lat":-23.2239717,"lon":45.5583476,"type":"village"},{"id":"1958598317","name":"Ianakafy","lat":-23.3533105,"lon":45.4474681,"type":"village"},{"id":"1958598448","name":"Ianabinda","lat":-23.5197317,"lon":45.9390131,"type":"village"},{"id":"1958598464","name":"Hazofotsy","lat":-23.5586417,"lon":45.8874084,"type":"village"},{"id":"1958598465","name":"Ianapera","lat":-23.6209154,"lon":45.1429268,"type":"village"},{"id":"1960669869","name":"Bemaneviky","lat":-13.840031,"lon":48.4934247,"type":"village"},{"id":"1960669934","name":"Marovato","lat":-13.9472524,"lon":48.5555452,"type":"village"},{"id":"1960670573","name":"Mitanty","lat":-21.7295314,"lon":47.9997256,"type":"village"},{"id":"1961437485","name":"Manantanana","lat":-24.1465649,"lon":45.3755478,"type":"village"},{"id":"1962369254","name":"Bemavo","lat":-17.2677963,"lon":47.5114264,"type":"village"},{"id":"1962369906","name":"Anjokozoko","lat":-17.4138628,"lon":47.4967662,"type":"village"},{"id":"1962371185","name":"Bemahatazana","lat":-18.6263879,"lon":46.8820212,"type":"village"},{"id":"1962371872","name":"Maritampona","lat":-18.6839604,"lon":47.0363922,"type":"village"},{"id":"1962463527","name":"Manorofify","lat":-23.5305056,"lon":43.968822,"type":"village"},{"id":"1962463535","name":"Antanimena","lat":-23.5310208,"lon":43.9913379,"type":"village"},{"id":"1962463738","name":"Tameantsoa","lat":-23.5472315,"lon":44.3016729,"type":"village"},{"id":"1962463797","name":"Tanambao","lat":-23.5534553,"lon":44.7655796,"type":"village"},{"id":"1962942827","name":"Ambodizavy","lat":-14.3498051,"lon":49.4849619,"type":"village"},{"id":"1962943157","name":"Androfiabe","lat":-14.4228953,"lon":49.5188444,"type":"village"},{"id":"1962943192","name":"Antanimbaribe","lat":-14.506382,"lon":49.5941155,"type":"village"},{"id":"1962943265","name":"Ambalamanasy II","lat":-14.5256494,"lon":49.5876449,"type":"village"},{"id":"1962943395","name":"Andasibe Kobahina","lat":-14.5517564,"lon":49.6085842,"type":"village"},{"id":"1962943513","name":"Betsakotsako Andranotsara","lat":-14.5656881,"lon":49.5529693,"type":"village"},{"id":"1962943625","name":"Ambodivoara","lat":-14.5759126,"lon":49.4779254,"type":"village"},{"id":"1962943640","name":"Antanambe","lat":-14.5791276,"lon":49.4976597,"type":"village"},{"id":"1962943668","name":"Ambodiangezoka","lat":-14.5968471,"lon":49.5093411,"type":"village"},{"id":"1962943671","name":"Ambodihasina","lat":-14.6021352,"lon":49.4688844,"type":"village"},{"id":"1962943672","name":"Andranomena","lat":-14.6020775,"lon":49.5383533,"type":"village"},{"id":"1962943673","name":"Marovato Avaratra","lat":-14.6041121,"lon":49.633435,"type":"village"},{"id":"1962943674","name":"Sarahandrano","lat":-14.6077768,"lon":49.6480912,"type":"village"},{"id":"1962943695","name":"Ambodisatrana","lat":-14.6174711,"lon":49.4743987,"type":"village"},{"id":"1962944218","name":"Tanandava","lat":-15.0690887,"lon":50.2561195,"type":"village"},{"id":"1962944265","name":"Ambodibaro","lat":-15.0871532,"lon":50.2585959,"type":"village"},{"id":"1962944302","name":"Tanambao Mahatera","lat":-15.0960102,"lon":50.2172063,"type":"village"},{"id":"1962944324","name":"Andrakaraka","lat":-15.0997985,"lon":50.2308425,"type":"village"},{"id":"1962944412","name":"Ankesihesy","lat":-15.1159031,"lon":50.1907177,"type":"village"},{"id":"1963709510","name":"Ambavahala","lat":-17.2896368,"lon":49.4054061,"type":"village"},{"id":"1963710187","name":"Andapa II","lat":-17.2978513,"lon":49.4084789,"type":"village"},{"id":"1963736818","name":"Rantolava","lat":-17.2503282,"lon":49.4297584,"type":"village"},{"id":"1963738496","name":"Antakoboly","lat":-17.2167257,"lon":49.4467121,"type":"village"},{"id":"1963748968","name":"Bulldozer","lat":-17.2816462,"lon":49.3950635,"type":"village"},{"id":"1963764908","name":"Marogoaika","lat":-19.7173545,"lon":46.4640646,"type":"village"},{"id":"1963770488","name":"Ambohipeno","lat":-19.7404904,"lon":46.4518692,"type":"village"},{"id":"1963938854","name":"Ankazomiriotra","lat":-19.6599454,"lon":46.5332578,"type":"town"},{"id":"1964119200","name":"Kandreho","lat":-17.4840961,"lon":46.0947251,"type":"town"},{"id":"1964293077","name":"Beakanga","lat":-19.7039194,"lon":46.187587,"type":"village"},{"id":"1964531498","name":"Andomboka","lat":-13.6857673,"lon":49.583086,"type":"village"},{"id":"1964531798","name":"Befamelona","lat":-13.9826969,"lon":49.6563208,"type":"village"},{"id":"1964532170","name":"Ambodimanga","lat":-14.0017527,"lon":49.5711055,"type":"village"},{"id":"1964532177","name":"Bevanana","lat":-14.0026182,"lon":49.6143442,"type":"village"},{"id":"1964532222","name":"Ambodimanga","lat":-14.0086189,"lon":49.5817312,"type":"village"},{"id":"1964532231","name":"Marovitsika","lat":-14.0192172,"lon":49.6438546,"type":"village"},{"id":"1964532254","name":"Bemahogo","lat":-14.0177446,"lon":49.5810146,"type":"village"},{"id":"1964532284","name":"Bevato","lat":-14.0221872,"lon":49.590002,"type":"village"},{"id":"1964532353","name":"Ambalamanga","lat":-14.0301937,"lon":49.6500181,"type":"village"},{"id":"1964532366","name":"Mahavanona","lat":-14.0318354,"lon":49.5814593,"type":"village"},{"id":"1964532371","name":"Bemapaza","lat":-14.0337215,"lon":49.6500318,"type":"village"},{"id":"1964532382","name":"Antsambalahy","lat":-14.040799,"lon":49.638479,"type":"village"},{"id":"1964532392","name":"Beanantsindra","lat":-14.0415169,"lon":49.606282,"type":"village"},{"id":"1964532413","name":"Ambodisambalahy","lat":-14.0470401,"lon":49.5719984,"type":"village"},{"id":"1964532423","name":"Antsahabe","lat":-14.0568763,"lon":49.402226,"type":"village"},{"id":"1964532769","name":"Bevonotra","lat":-14.0735335,"lon":49.6093885,"type":"village"},{"id":"1964532841","name":"Befaindona","lat":-14.0854211,"lon":49.3891798,"type":"village"},{"id":"1964532897","name":"Antsiatsiaka","lat":-14.0893023,"lon":49.409118,"type":"village"},{"id":"1964532898","name":"Morafeno","lat":-14.0895476,"lon":49.3608016,"type":"village"},{"id":"1964534320","name":"Ankosihosibe","lat":-14.822139,"lon":48.8159925,"type":"village"},{"id":"1964536384","name":"Antsakabary","lat":-15.0452937,"lon":48.9276309,"type":"village"},{"id":"1965339561","name":"Vasiana","lat":-19.637915,"lon":46.23343,"type":"village"},{"id":"1967295946","name":"Ambinanindrano","lat":-20.0897217,"lon":48.3778313,"type":"village"},{"id":"1967295947","name":"Beanana","lat":-20.049447,"lon":48.5244088,"type":"village"},{"id":"1967388431","name":"Ankazotsifantatra","lat":-19.9868814,"lon":48.5021121,"type":"village"},{"id":"1967941652","name":"Makoina","lat":-16.4125937,"lon":48.2235502,"type":"village"},{"id":"1968766581","name":"Belobaka","lat":-18.9944127,"lon":45.69107,"type":"village"},{"id":"1968766705","name":"Maritampona","lat":-19.0376708,"lon":46.1152097,"type":"village"},{"id":"1968766709","name":"Bemahatazana","lat":-19.0439647,"lon":45.9467923,"type":"village"},{"id":"1968804949","name":"Mahajamba","lat":-15.7129413,"lon":47.1121591,"type":"village"},{"id":"1969777310","name":"Bekiria Centre","lat":-24.7834957,"lon":46.0518411,"type":"village"},{"id":"1974236682","name":"Ankavandra","lat":-18.7728147,"lon":45.2929929,"type":"village"},{"id":"1974331485","name":"Befasy","lat":-20.578024,"lon":44.360217,"type":"village"},{"id":"1976551977","name":"Dabolava","lat":-19.6262641,"lon":45.7074564,"type":"village"},{"id":"1976552330","name":"Isoanala","lat":-23.835297,"lon":45.714519,"type":"town"},{"id":"1977609380","name":"Beraketa","lat":-24.180548,"lon":45.673557,"type":"village"},{"id":"1977884113","name":"Anjoma Ramartina","lat":-19.641725,"lon":45.955766,"type":"village"},{"id":"1977886871","name":"Antsenavolo","lat":-21.3906046,"lon":48.0467085,"type":"village"},{"id":"1977886874","name":"Ambodiakatra","lat":-21.391035,"lon":48.0299751,"type":"village"},{"id":"1977886891","name":"Ivohibe","lat":-22.4810358,"lon":46.888135,"type":"town"},{"id":"1977886958","name":"Antaramena","lat":-22.6421417,"lon":46.8934078,"type":"village"},{"id":"1982622287","name":"Fanambana","lat":-13.5539227,"lon":49.9893258,"type":"village"},{"id":"1982960942","name":"Vodivohitra","lat":-16.2181579,"lon":49.6903855,"type":"village"},{"id":"1982961757","name":"Sandrakatsy","lat":-16.3388957,"lon":49.6108847,"type":"town"},{"id":"1984375755","name":"Marerano","lat":-21.3747546,"lon":44.8569364,"type":"village"},{"id":"1986242245","name":"Tsiandamba","lat":-22.695134,"lon":43.3346415,"type":"village"},{"id":"1989781614","name":"Befeta","lat":-21.2302895,"lon":47.0470921,"type":"village"},{"id":"1989781902","name":"Ambinanimbazaha","lat":-21.6403845,"lon":46.6396278,"type":"village"},{"id":"1990715602","name":"Fenoaivo","lat":-24.8052148,"lon":46.0602112,"type":"village"},{"id":"1992643993","name":"Ambalabe","lat":-15.7778589,"lon":46.9524885,"type":"village"},{"id":"1995273300","name":"Amboasary","lat":-25.0359198,"lon":46.3853238,"type":"town"},{"id":"1995273304","name":"Behara","lat":-24.9569568,"lon":46.3870263,"type":"village"},{"id":"1995273308","name":"Ifotaka","lat":-24.8017376,"lon":46.1376927,"type":"village"},{"id":"1995273311","name":"Mahaly","lat":-24.1768773,"lon":46.3484111,"type":"village"},{"id":"1995273315","name":"Maromby","lat":-24.3575122,"lon":46.5754092,"type":"village"},{"id":"1995273318","name":"Tanandava","lat":-24.2903894,"lon":46.6035437,"type":"village"},{"id":"1995273320","name":"Tranomaro","lat":-24.6022017,"lon":46.4757378,"type":"village"},{"id":"1995273321","name":"Tsivory","lat":-24.070785,"lon":46.07608,"type":"town"},{"id":"1995285018","name":"Ebelo","lat":-24.482313,"lon":46.02563,"type":"village"},{"id":"2001263731","name":"Melokoanarana","lat":-14.0739738,"lon":49.5440419,"type":"village"},{"id":"2004124116","name":"Berenty","lat":-24.9958809,"lon":46.2952656,"type":"village"},{"id":"2004658455","name":"Antsatramilaika","lat":-13.4471585,"lon":49.8943936,"type":"village"},{"id":"2004658557","name":"Ankiabe","lat":-13.9721083,"lon":50.0370475,"type":"village"},{"id":"2004658576","name":"Ambalihabe","lat":-13.9755087,"lon":50.0647924,"type":"village"},{"id":"2004658587","name":"Tanambao Daoud","lat":-13.9875467,"lon":50.1140481,"type":"village"},{"id":"2004658591","name":"Antsahavaribe","lat":-14.0290394,"lon":49.6659452,"type":"village"},{"id":"2004658592","name":"Analabe","lat":-14.0294948,"lon":49.6708524,"type":"village"},{"id":"2004658613","name":"Antanambaza","lat":-14.0613411,"lon":49.7276166,"type":"village"},{"id":"2004658617","name":"Anjialava","lat":-14.0796104,"lon":49.7284404,"type":"village"},{"id":"2004658622","name":"Ambinanibeanantsindra","lat":-14.111988,"lon":49.7521047,"type":"village"},{"id":"2004658623","name":"Tsaravilona","lat":-14.1133334,"lon":49.7716412,"type":"village"},{"id":"2004658629","name":"Ambatolalaka","lat":-14.1252359,"lon":49.7647029,"type":"village"},{"id":"2004658631","name":"Antsirabe","lat":-14.1263117,"lon":49.7687271,"type":"village"},{"id":"2004658634","name":"Antindra","lat":-14.1347939,"lon":49.8113249,"type":"village"},{"id":"2004658646","name":"Antanambaon'Ambinanibe","lat":-14.1949568,"lon":49.8975132,"type":"village"},{"id":"2004658655","name":"Ambodiampana","lat":-14.2405526,"lon":49.8862126,"type":"village"},{"id":"2004658671","name":"Andrasaha","lat":-14.2772344,"lon":49.8198537,"type":"village"},{"id":"2004658711","name":"Ankitsaka","lat":-14.4491388,"lon":50.002562,"type":"village"},{"id":"2004658712","name":"Ofaina","lat":-14.448815,"lon":50.081956,"type":"village"},{"id":"2004658725","name":"Mandrangotra","lat":-14.468444,"lon":50.0131938,"type":"village"},{"id":"2004658728","name":"Ambohitrosy","lat":-14.4702237,"lon":50.0758539,"type":"village"},{"id":"2004658733","name":"Anamborano","lat":-14.4731358,"lon":50.0782731,"type":"village"},{"id":"2004658761","name":"Andranomifotitra","lat":-14.5174787,"lon":49.7673361,"type":"village"},{"id":"2004658936","name":"Namohana","lat":-15.0437203,"lon":50.2846064,"type":"village"},{"id":"2004659636","name":"Sahatavy","lat":-17.4488674,"lon":48.9953332,"type":"village"},{"id":"2004660973","name":"Mandroalina","lat":-19.756564,"lon":47.9499939,"type":"village"},{"id":"2004661695","name":"Anivorano","lat":-20.5617392,"lon":47.8208208,"type":"village"},{"id":"2004661736","name":"Ambalahasina","lat":-20.5768642,"lon":47.976235,"type":"village"},{"id":"2004661745","name":"Sahandraty","lat":-20.5788373,"lon":47.9411657,"type":"village"},{"id":"2004661771","name":"Ambolomadinika","lat":-20.5888016,"lon":47.9238073,"type":"village"},{"id":"2004661802","name":"Tanambao I","lat":-20.6065383,"lon":47.9057445,"type":"village"},{"id":"2004661817","name":"Ankerana","lat":-20.6102281,"lon":47.8926136,"type":"village"},{"id":"2004661834","name":"Antanjonomby","lat":-20.6192575,"lon":47.8825724,"type":"village"},{"id":"2004662001","name":"Namorona","lat":-21.6393339,"lon":48.1860534,"type":"village"},{"id":"2004744647","name":"Sarodrano","lat":-24.070266,"lon":46.0918266,"type":"village"},{"id":"2004745130","name":"Amboangy","lat":-24.301192,"lon":46.3843469,"type":"village"},{"id":"2004745249","name":"Esira","lat":-24.3301049,"lon":46.7082659,"type":"village"},{"id":"2004745407","name":"Andranobe","lat":-24.4112215,"lon":46.4110233,"type":"village"},{"id":"2005201505","name":"Ankilitelo Marovotsy","lat":-24.138259,"lon":45.9832184,"type":"village"},{"id":"2005201954","name":"Sakafia Etsila","lat":-24.2128453,"lon":45.9926689,"type":"village"},{"id":"2005202010","name":"Antanambao","lat":-24.2467337,"lon":45.9754916,"type":"village"},{"id":"2005202069","name":"Marotsiraka Centre","lat":-24.271697,"lon":45.9717393,"type":"village"},{"id":"2005203010","name":"Betsiriry","lat":-24.4165633,"lon":45.8310371,"type":"village"},{"id":"2005203128","name":"Imanombo","lat":-24.434464,"lon":45.823049,"type":"village"},{"id":"2005203952","name":"Ampanamperandrotsy","lat":-24.4965735,"lon":45.6533376,"type":"village"},{"id":"2006266810","name":"Ambalanirana","lat":-18.7602525,"lon":46.5156473,"type":"village"},{"id":"2006266811","name":"Ankadinondry Sakay","lat":-19.0001819,"lon":46.4632881,"type":"town"},{"id":"2006266812","name":"Bevato","lat":-18.6931629,"lon":46.2577606,"type":"village"},{"id":"2006266813","name":"Fanjakamandroso","lat":-18.9347215,"lon":46.4076877,"type":"village"},{"id":"2007187428","name":"Antotohazo","lat":-18.4687421,"lon":47.0805601,"type":"village"},{"id":"2007187429","name":"Fihaonana","lat":-18.6040679,"lon":47.2069876,"type":"village"},{"id":"2007187430","name":"Kiangara","lat":-17.9735593,"lon":47.0293301,"type":"village"},{"id":"2007187431","name":"Mahavelona","lat":-18.5139001,"lon":47.2545225,"type":"village"},{"id":"2007187432","name":"Talata Angavo","lat":-18.2062304,"lon":47.0977264,"type":"village"},{"id":"2007195590","name":"Fiadanana","lat":-18.2258446,"lon":46.8841811,"type":"village"},{"id":"2007195591","name":"Tsaramasoandro","lat":-17.9612606,"lon":47.2169559,"type":"village"},{"id":"2007200896","name":"Ambolotarakely","lat":-18.269281,"lon":47.4009818,"type":"village"},{"id":"2007218221","name":"Miantso","lat":-18.7184869,"lon":47.1518583,"type":"village"},{"id":"2008838473","name":"Antakavana","lat":-18.0353244,"lon":47.3829615,"type":"village"},{"id":"2009008063","name":"Antakavana","lat":-18.0219644,"lon":47.3935956,"type":"village"},{"id":"2009577583","name":"Marondry","lat":-18.4353737,"lon":47.0009154,"type":"village"},{"id":"2010510008","name":"Ambodivoahangy","lat":-20.0149273,"lon":47.859717,"type":"village"},{"id":"2010510014","name":"Ambalapalso","lat":-20.0216013,"lon":47.8883472,"type":"village"},{"id":"2010510041","name":"Ambinanimangabe","lat":-20.0411288,"lon":47.9181889,"type":"village"},{"id":"2010510059","name":"Morafeno","lat":-20.0472367,"lon":47.9833809,"type":"village"},{"id":"2010510643","name":"Manampotsy","lat":-21.1258624,"lon":48.3130036,"type":"village"},{"id":"2012136514","name":"Ambohimanana","lat":-20.4742955,"lon":47.0486633,"type":"village"},{"id":"2012136917","name":"Vohilava","lat":-21.7667633,"lon":47.9093355,"type":"village"},{"id":"2012136940","name":"Ambalatenina","lat":-21.7881644,"lon":47.8753477,"type":"village"},{"id":"2012136945","name":"Vatolambo","lat":-21.7964247,"lon":47.8389023,"type":"village"},{"id":"2012136955","name":"Sahavoatsilana","lat":-21.80209,"lon":47.8567785,"type":"village"},{"id":"2012136963","name":"Sahasinaka","lat":-21.8082134,"lon":47.8384369,"type":"village"},{"id":"2012333309","name":"Fanjahira","lat":-24.9073321,"lon":46.8933009,"type":"village"},{"id":"2012333357","name":"Fangeha","lat":-24.9521847,"lon":46.8564273,"type":"village"},{"id":"2012333358","name":"Vatomivarina","lat":-24.9571182,"lon":46.864209,"type":"village"},{"id":"2012731288","name":"Fierenana","lat":-18.5449564,"lon":45.8465064,"type":"village"},{"id":"2012731289","name":"Mahasolo","lat":-19.1208292,"lon":46.3660588,"type":"village"},{"id":"2012731290","name":"Maroharana","lat":-19.24352,"lon":46.272505,"type":"village"},{"id":"2017520458","name":"Antsampanimahazo","lat":-18.7410297,"lon":46.0329637,"type":"village"},{"id":"2017649521","name":"Morafeno","lat":-18.6992368,"lon":46.0511852,"type":"village"},{"id":"2017873456","name":"Antanitilava","lat":-18.6580115,"lon":46.0632617,"type":"village"},{"id":"2017902910","name":"Ankerana Atsimo","lat":-18.6354234,"lon":46.1047179,"type":"village"},{"id":"2017914431","name":"Ambatofotsy","lat":-18.6040777,"lon":46.0966283,"type":"village"},{"id":"2017938215","name":"Ambohimiarina","lat":-18.5631658,"lon":46.1176464,"type":"village"},{"id":"2018138102","name":"Antanisoa","lat":-18.6131678,"lon":46.1560875,"type":"village"},{"id":"2018522756","name":"Ambohitrakely","lat":-18.8938325,"lon":46.1293531,"type":"village"},{"id":"2018526742","name":"Ampararano","lat":-18.9011917,"lon":46.1389769,"type":"village"},{"id":"2018545095","name":"Antanambao","lat":-18.9303409,"lon":46.1898316,"type":"village"},{"id":"2018572067","name":"Ambohimahavelona","lat":-18.8628089,"lon":46.1084105,"type":"village"},{"id":"2018572069","name":"Ambohipeno","lat":-18.9380434,"lon":46.2085534,"type":"village"},{"id":"2018572070","name":"Andranovelona","lat":-18.9149042,"lon":46.1780835,"type":"village"},{"id":"2018572072","name":"Antaniditra","lat":-18.8938731,"lon":46.1519052,"type":"village"},{"id":"2018572073","name":"Andranomadio","lat":-18.8328508,"lon":46.0732437,"type":"village"},{"id":"2018588389","name":"Tsinjoarivo","lat":-18.9345868,"lon":46.3207689,"type":"village"},{"id":"2018588397","name":"Ambohimarina","lat":-18.9504236,"lon":46.2662531,"type":"village"},{"id":"2018588400","name":"Ampizarantany","lat":-18.9445787,"lon":46.2242604,"type":"village"},{"id":"2019203666","name":"Andandihazo","lat":-18.9425901,"lon":46.3498647,"type":"village"},{"id":"2019204180","name":"Diavolana","lat":-18.8804257,"lon":46.4264037,"type":"village"},{"id":"2019226154","name":"Antsahantekarana","lat":-18.9580039,"lon":46.4323904,"type":"village"},{"id":"2019287889","name":"Ambatondranijay","lat":-18.9620525,"lon":46.6889651,"type":"village"},{"id":"2019287890","name":"Avaradàlana","lat":-18.9749585,"lon":46.5863814,"type":"village"},{"id":"2019287893","name":"Marovoalavo","lat":-18.9796559,"lon":46.5742256,"type":"village"},{"id":"2019287894","name":"Mahatsinjo","lat":-18.9772893,"lon":46.4717221,"type":"village"},{"id":"2019287909","name":"Ankijandava","lat":-18.9727872,"lon":46.5945031,"type":"village"},{"id":"2019287911","name":"Ambatofolaka","lat":-18.9823952,"lon":46.5386917,"type":"village"},{"id":"2019949713","name":"Besoa","lat":-21.910207,"lon":46.776389,"type":"village"},{"id":"2021205911","name":"Antsahabe","lat":-14.805972,"lon":48.379866,"type":"village"},{"id":"2021206525","name":"Maharidaza","lat":-18.1302974,"lon":47.0865042,"type":"village"},{"id":"2021207598","name":"Mangabe","lat":-18.4113997,"lon":47.0929523,"type":"village"},{"id":"2021207839","name":"Fonohasina","lat":-18.4812906,"lon":47.2529611,"type":"village"},{"id":"2021207949","name":"Amboniriana","lat":-18.5080045,"lon":47.2864557,"type":"village"},{"id":"2021208086","name":"Ambohitrazo","lat":-18.5461867,"lon":47.2687113,"type":"village"},{"id":"2021208094","name":"Ambatomitsangana","lat":-18.5587582,"lon":47.2576149,"type":"village"},{"id":"2021208265","name":"Sahapetraka","lat":-18.645714,"lon":47.1842704,"type":"village"},{"id":"2021582971","name":"Ambatoriha","lat":-14.4620533,"lon":48.9548251,"type":"village"},{"id":"2021582975","name":"Ampandriankilandy","lat":-14.9375559,"lon":48.0682117,"type":"village"},{"id":"2021582977","name":"Ankazobetsihay","lat":-14.8588046,"lon":48.0933371,"type":"village"},{"id":"2023197960","name":"Vatoatody","lat":-20.5705988,"lon":48.0040729,"type":"village"},{"id":"2026373816","name":"Mahevelombady","lat":-20.144421,"lon":48.0879475,"type":"village"},{"id":"2026373822","name":"Vohidambo","lat":-20.1734692,"lon":48.0676661,"type":"village"},{"id":"2026373833","name":"Betampona","lat":-20.2070646,"lon":48.0668432,"type":"village"},{"id":"2026374018","name":"Ampitabe","lat":-20.3581718,"lon":48.2687103,"type":"village"},{"id":"2026374064","name":"Tsaravinany","lat":-20.4227929,"lon":48.1439967,"type":"village"},{"id":"2026374082","name":"Ambodiara","lat":-20.6329638,"lon":47.9839765,"type":"village"},{"id":"2027787462","name":"Ambodimanga","lat":-14.1243095,"lon":49.8166119,"type":"village"},{"id":"2027980781","name":"Ankarimbelo","lat":-22.3867654,"lon":47.8602761,"type":"village"},{"id":"2028028269","name":"Marohanka I","lat":-22.2785643,"lon":47.7519653,"type":"village"},{"id":"2028028271","name":"Vohitromby","lat":-22.28026,"lon":47.7372147,"type":"village"},{"id":"2028028273","name":"Todia","lat":-22.2825294,"lon":47.7255204,"type":"village"},{"id":"2028028275","name":"Longata","lat":-22.283156,"lon":47.7319873,"type":"village"},{"id":"2028028277","name":"Mahasoabe","lat":-22.2838799,"lon":47.7712797,"type":"village"},{"id":"2028028278","name":"Farafasy","lat":-22.2851128,"lon":47.7870143,"type":"village"},{"id":"2028028284","name":"Karimbola","lat":-22.2900613,"lon":47.7206202,"type":"village"},{"id":"2028028290","name":"Mahanoro","lat":-22.2917483,"lon":47.739585,"type":"village"},{"id":"2028028299","name":"Maromby","lat":-22.292541,"lon":47.7764117,"type":"village"},{"id":"2028028320","name":"Ambohitsara","lat":-22.2976037,"lon":47.7216015,"type":"village"},{"id":"2028028329","name":"Mahavagno","lat":-22.3001218,"lon":47.7195404,"type":"village"},{"id":"2028028331","name":"Ankarimbary","lat":-22.3013002,"lon":47.8032903,"type":"village"},{"id":"2028028333","name":"Ifaho","lat":-22.3019135,"lon":47.7977451,"type":"village"},{"id":"2028028336","name":"Mahabo","lat":-22.3243446,"lon":47.7993853,"type":"village"},{"id":"2028028338","name":"Tsimalazo","lat":-22.339845,"lon":47.8324733,"type":"village"},{"id":"2028058990","name":"Ambohipaky","lat":-16.423935,"lon":44.97394,"type":"village"},{"id":"2028685667","name":"Malaimbandy","lat":-20.3446512,"lon":45.5955108,"type":"town"},{"id":"2028884501","name":"Ambakireny","lat":-17.6218958,"lon":47.8421083,"type":"village"},{"id":"2028885596","name":"Ivato","lat":-19.5655456,"lon":48.7804978,"type":"village"},{"id":"2028885647","name":"Salehy","lat":-19.9895223,"lon":48.784927,"type":"village"},{"id":"2028886089","name":"Janjina","lat":-20.5021888,"lon":45.8265698,"type":"village"},{"id":"2029615407","name":"Ampaho","lat":-19.4469985,"lon":48.8892574,"type":"village"},{"id":"2029615702","name":"Tandroroho","lat":-19.7601122,"lon":48.8172573,"type":"village"},{"id":"2029615709","name":"Ambilabe","lat":-19.7973533,"lon":48.8086671,"type":"village"},{"id":"2029615723","name":"Mahatsara","lat":-19.8513223,"lon":48.7973716,"type":"village"},{"id":"2029615775","name":"Betsizaraina","lat":-19.9619278,"lon":48.7515876,"type":"village"},{"id":"2034713555","name":"Tanandava","lat":-22.3766333,"lon":47.8515224,"type":"village"},{"id":"2034713703","name":"Seranambary","lat":-22.3995032,"lon":47.8805228,"type":"village"},{"id":"2035029715","name":"Ampasimeloka","lat":-22.3621127,"lon":47.9337324,"type":"village"},{"id":"2035030071","name":"Savana Centre","lat":-22.3968544,"lon":47.8993132,"type":"village"},{"id":"2035059497","name":"Fotatra","lat":-22.223917,"lon":47.7384987,"type":"village"},{"id":"2035059550","name":"Vatana","lat":-22.2331948,"lon":47.7460043,"type":"village"},{"id":"2035059641","name":"Andranomadio","lat":-22.2401369,"lon":47.7605967,"type":"village"},{"id":"2035094436","name":"Ambalaroka","lat":-22.1524578,"lon":47.7291067,"type":"village"},{"id":"2035094441","name":"Vohitrampanga","lat":-22.153757,"lon":47.7266251,"type":"village"},{"id":"2035094451","name":"Ambohitrova","lat":-22.1589001,"lon":47.7343388,"type":"village"},{"id":"2035094454","name":"Ambohimanarivo","lat":-22.1617044,"lon":47.7373516,"type":"village"},{"id":"2035094459","name":"Ankaranila","lat":-22.167633,"lon":47.7291272,"type":"village"},{"id":"2035094462","name":"Vohibazimba","lat":-22.1706346,"lon":47.7487728,"type":"village"},{"id":"2035094476","name":"Lokomby","lat":-22.1824387,"lon":47.7460398,"type":"village"},{"id":"2035094508","name":"Ambandrika","lat":-22.216066,"lon":47.7254594,"type":"village"},{"id":"2035094516","name":"Fenoarivo","lat":-22.2190824,"lon":47.7343471,"type":"village"},{"id":"2035094518","name":"Nato","lat":-22.2218801,"lon":47.7333642,"type":"village"},{"id":"2035094540","name":"Ankaramalaza","lat":-22.2469032,"lon":47.7408518,"type":"village"},{"id":"2035293664","name":"Bekatra","lat":-22.0963094,"lon":47.7190557,"type":"village"},{"id":"2035293879","name":"Ambinanindrano","lat":-22.108969,"lon":47.7200683,"type":"village"},{"id":"2035293944","name":"Tanambao","lat":-22.1274804,"lon":47.7234684,"type":"village"},{"id":"2035293965","name":"Seranantsara","lat":-22.1319568,"lon":47.7235293,"type":"village"},{"id":"2035294304","name":"Mahavelo Atsinanana","lat":-22.1723776,"lon":47.743571,"type":"village"},{"id":"2035405112","name":"Sahanambohitra","lat":-21.8674517,"lon":47.7983393,"type":"village"},{"id":"2035405458","name":"Amborondra","lat":-21.9179837,"lon":47.7736802,"type":"village"},{"id":"2036023082","name":"Ambalavolo","lat":-21.890023,"lon":47.4548314,"type":"village"},{"id":"2036024836","name":"Sahakondro","lat":-21.9761497,"lon":47.5245612,"type":"village"},{"id":"2036222721","name":"Manakana Nord","lat":-21.3245751,"lon":47.8502322,"type":"village"},{"id":"2036314376","name":"Andreafiabe","lat":-12.4273493,"lon":49.3541314,"type":"village"},{"id":"2036314378","name":"Mahavanona","lat":-12.436938,"lon":49.358868,"type":"village"},{"id":"2036314615","name":"Ankarongana;GENDARMERIE ANKARONGANA","lat":-12.6615615,"lon":49.4364848,"type":"village"},{"id":"2036314684","name":"Anteninaomby","lat":-12.666543,"lon":49.3936509,"type":"village"},{"id":"2036350067","name":"Tsaravary","lat":-21.2458093,"lon":48.3002933,"type":"village"},{"id":"2036822666","name":"Vohilava","lat":-12.0989813,"lon":49.0922947,"type":"village"},{"id":"2036839602","name":"Ahibory","lat":-12.1449422,"lon":49.2277588,"type":"village"},{"id":"2036868107","name":"Mangoaka","lat":-12.3108867,"lon":49.1206405,"type":"village"},{"id":"2036912217","name":"Ambolobozokely","lat":-12.4567698,"lon":49.5126768,"type":"village"},{"id":"2037005552","name":"Ambaritsatrana","lat":-12.5252601,"lon":49.5308861,"type":"village"},{"id":"2037230445","name":"Anjiajia","lat":-16.461618,"lon":46.9459434,"type":"village"},{"id":"2038157266","name":"Ankigny","lat":-13.4580491,"lon":48.6147998,"type":"village"},{"id":"2038157611","name":"Ambatoharanana","lat":-13.5215498,"lon":48.6949623,"type":"village"},{"id":"2038181908","name":"Mahazoma","lat":-17.1693558,"lon":46.5666037,"type":"village"},{"id":"2038224804","name":"Ampondra","lat":-13.427395,"lon":49.967469,"type":"village"},{"id":"2038224940","name":"Ankijabe","lat":-13.7351898,"lon":49.9637008,"type":"village"},{"id":"2038225124","name":"Antanamandriry","lat":-13.7460282,"lon":49.8552714,"type":"village"},{"id":"2038225159","name":"Beranofary","lat":-13.7484831,"lon":49.9288185,"type":"village"},{"id":"2038225323","name":"Ambinanin'Analanana","lat":-13.7634297,"lon":49.8461586,"type":"village"},{"id":"2038225331","name":"Ambodimanga III","lat":-13.7672718,"lon":49.8374721,"type":"village"},{"id":"2038225347","name":"Analanana","lat":-13.7762256,"lon":49.8311,"type":"village"},{"id":"2038225350","name":"Anivorano","lat":-13.7852721,"lon":49.8068291,"type":"village"},{"id":"2038225354","name":"Marotongotra","lat":-13.8185138,"lon":49.9582474,"type":"village"},{"id":"2038225355","name":"Ambodimanga","lat":-13.8295073,"lon":49.9467744,"type":"village"},{"id":"2038627123","name":"Vinany","lat":-22.1258874,"lon":47.4803862,"type":"village"},{"id":"2038627533","name":"Ankarimbelo","lat":-22.1336005,"lon":47.3313339,"type":"village"},{"id":"2038628161","name":"Andrairay","lat":-22.1415395,"lon":47.3698796,"type":"village"},{"id":"2038629618","name":"Ifanirea","lat":-22.1919923,"lon":47.47548,"type":"village"},{"id":"2038745937","name":"Andravory","lat":-13.790693,"lon":49.6913404,"type":"village"},{"id":"2038792939","name":"Bobakindro","lat":-13.4731327,"lon":49.6818379,"type":"village"},{"id":"2038865262","name":"Belambo","lat":-14.0213323,"lon":49.8553858,"type":"village"},{"id":"2038909257","name":"Antsoha","lat":-13.1397078,"lon":49.8610529,"type":"village"},{"id":"2039621946","name":"Ambohipoana","lat":-14.1466091,"lon":49.827599,"type":"village"},{"id":"2039622760","name":"Fanovelona","lat":-19.6579037,"lon":48.7962163,"type":"village"},{"id":"2039622767","name":"Ambodivaro","lat":-19.6589458,"lon":48.784948,"type":"village"},{"id":"2039622844","name":"Befarasy","lat":-19.666435,"lon":48.8258934,"type":"village"},{"id":"2039718806","name":"Betorabato","lat":-21.7467634,"lon":46.8259886,"type":"village"},{"id":"2039719059","name":"Volamena","lat":-21.7864622,"lon":46.706161,"type":"village"},{"id":"2039719301","name":"Andohavolo","lat":-21.8130084,"lon":46.791328,"type":"village"},{"id":"2039719485","name":"Tamia","lat":-21.8467305,"lon":46.6989121,"type":"village"},{"id":"2039730877","name":"Ambalamarina","lat":-21.8993785,"lon":46.7767177,"type":"village"},{"id":"2039730893","name":"Tambohobe","lat":-21.9451241,"lon":46.8012635,"type":"village"},{"id":"2039731048","name":"Anara","lat":-21.9909235,"lon":46.7491961,"type":"village"},{"id":"2041977707","name":"Antsahambovo","lat":-13.4394329,"lon":49.9042902,"type":"village"},{"id":"2041977848","name":"Ankorimpa Ambony","lat":-13.4574621,"lon":49.7624391,"type":"village"},{"id":"2041978007","name":"Misaorobe","lat":-13.4859692,"lon":49.7159539,"type":"village"},{"id":"2041978266","name":"Ambatojoby","lat":-13.7120656,"lon":49.706403,"type":"village"},{"id":"2041978332","name":"Mahasoa","lat":-13.7345636,"lon":49.7038706,"type":"village"},{"id":"2041978381","name":"Ambalasatrana","lat":-13.7433487,"lon":49.6987918,"type":"village"},{"id":"2041978851","name":"Ambahavo","lat":-13.8683305,"lon":49.9244058,"type":"village"},{"id":"2041978913","name":"Ambodivarona","lat":-13.8698862,"lon":49.8822091,"type":"village"},{"id":"2041980263","name":"Mahatsinjo","lat":-23.6315756,"lon":47.5915718,"type":"village"},{"id":"2041980444","name":"Manambondro","lat":-23.7995702,"lon":47.5439454,"type":"village"},{"id":"2041981072","name":"Esama","lat":-24.3730931,"lon":47.2961954,"type":"village"},{"id":"2041981156","name":"Manambato","lat":-24.5101504,"lon":47.2735234,"type":"village"},{"id":"2041981230","name":"Vatomirindry","lat":-24.6680133,"lon":47.1859828,"type":"village"},{"id":"2041981286","name":"Ebakika-Atsimo","lat":-24.7304442,"lon":47.147525,"type":"village"},{"id":"2041981330","name":"Tsiharoa Ampasy","lat":-24.8168208,"lon":47.0813555,"type":"village"},{"id":"2042981598","name":"Sirama","lat":-13.0910217,"lon":48.9252612,"type":"village"},{"id":"2043842113","name":"Antevibe","lat":-17.5742516,"lon":48.8588952,"type":"village"},{"id":"2044056771","name":"Port St Louis","lat":-13.0910344,"lon":48.8432387,"type":"village"},{"id":"2048212437","name":"Volarivo","lat":-21.9563894,"lon":47.4974611,"type":"village"},{"id":"2048224187","name":"Ambolomadinika","lat":-21.9648204,"lon":47.439493,"type":"village"},{"id":"2048250825","name":"Tanakambana","lat":-22.0613966,"lon":47.4782019,"type":"village"},{"id":"2049509753","name":"Vohimasina II","lat":-22.2820187,"lon":47.7462997,"type":"village"},{"id":"2049509819","name":"Tamboholava","lat":-22.2853767,"lon":47.5623102,"type":"village"},{"id":"2049511126","name":"Tanambao I","lat":-22.3337784,"lon":47.6224471,"type":"village"},{"id":"2049511440","name":"Havohavo","lat":-22.3383625,"lon":47.6985972,"type":"village"},{"id":"2049585178","name":"Mahazoarivo","lat":-22.6589937,"lon":47.2954119,"type":"village"},{"id":"2049815919","name":"Lohatranambo","lat":-22.811363,"lon":47.5335141,"type":"village"},{"id":"2050124231","name":"Manakana","lat":-21.0840471,"lon":48.1374884,"type":"village"},{"id":"2050124331","name":"Ambohimiarina","lat":-21.0913637,"lon":48.1935177,"type":"village"},{"id":"2050124712","name":"Tsarahafatra","lat":-21.2224781,"lon":48.2301926,"type":"village"},{"id":"2050124858","name":"Manakana I","lat":-21.2377803,"lon":48.2401343,"type":"village"},{"id":"2050124926","name":"Sarina","lat":-21.2474413,"lon":48.2604618,"type":"village"},{"id":"2050523112","name":"Bemanevika","lat":-14.135314,"lon":50.126175,"type":"village"},{"id":"2050545507","name":"Manakana","lat":-13.7566371,"lon":50.06091,"type":"village"},{"id":"2051069668","name":"Avilona","lat":-18.852209,"lon":49.0622328,"type":"village"},{"id":"2051069734","name":"Sahatakoly","lat":-18.8770393,"lon":49.0546633,"type":"village"},{"id":"2051492708","name":"Tsagnoriha","lat":-24.753193,"lon":47.0515633,"type":"village"},{"id":"2051653486","name":"Amparihy Atsinanana","lat":-23.9739389,"lon":47.3333732,"type":"village"},{"id":"2052450650","name":"Marosiky","lat":-19.6039597,"lon":48.8641558,"type":"village"},{"id":"2052450672","name":"Ampasimavo","lat":-19.631197,"lon":48.7921539,"type":"village"},{"id":"2052450705","name":"Ambohimanarivo","lat":-19.6542915,"lon":48.8248981,"type":"village"},{"id":"2052450909","name":"Tsialamaha","lat":-22.1246572,"lon":47.308268,"type":"village"},{"id":"2052451031","name":"Marovitsika","lat":-24.0386401,"lon":46.894077,"type":"village"},{"id":"2052461713","name":"Maromoky","lat":-24.6532962,"lon":47.1001943,"type":"village"},{"id":"2053324456","name":"Vohitrova","lat":-22.3476431,"lon":47.3288824,"type":"village"},{"id":"2053324462","name":"Nangananga","lat":-22.3589793,"lon":47.350012,"type":"village"},{"id":"2053324465","name":"Mahavelo","lat":-22.3649592,"lon":47.3664905,"type":"village"},{"id":"2054181035","name":"Tsiately","lat":-23.3309946,"lon":47.6093806,"type":"village"},{"id":"2054181161","name":"Ranopiso","lat":-25.052307,"lon":46.686343,"type":"village"},{"id":"2054873695","name":"Ankijanifotaka","lat":-15.8309153,"lon":48.1087937,"type":"village"},{"id":"2054874010","name":"Madirovalo","lat":-16.4412179,"lon":46.5451892,"type":"village"},{"id":"2054874118","name":"Morafeno-Mangabe","lat":-16.721714,"lon":46.8234132,"type":"village"},{"id":"2054876674","name":"Antanambao","lat":-19.7834734,"lon":44.8733201,"type":"village"},{"id":"2055174999","name":"Sahamadio","lat":-20.3013221,"lon":47.4025671,"type":"village"},{"id":"2055175288","name":"Tsitondroina","lat":-21.3133641,"lon":45.9925834,"type":"village"},{"id":"2055176244","name":"Ivahona","lat":-23.455727,"lon":46.1721024,"type":"village"},{"id":"2055176287","name":"Andranolalina","lat":-23.4739804,"lon":46.9891219,"type":"village"},{"id":"2055176328","name":"Bekofafa","lat":-23.5346439,"lon":47.0565655,"type":"village"},{"id":"2055176660","name":"Antaninarenina","lat":-23.9469752,"lon":46.9411182,"type":"village"},{"id":"2056038729","name":"Vinanivao","lat":-15.8829381,"lon":50.2746421,"type":"village"},{"id":"2056058487","name":"Berevo","lat":-19.728166,"lon":44.966887,"type":"village"},{"id":"2056059377","name":"Bejangoa","lat":-21.9737867,"lon":44.1557964,"type":"village"},{"id":"2056060074","name":"Beroroha","lat":-22.8997162,"lon":43.5658829,"type":"village"},{"id":"2056060328","name":"Ambohimahavelona","lat":-23.4441101,"lon":43.8976617,"type":"village"},{"id":"2056698492","name":"Ampasimbe","lat":-17.6341548,"lon":49.382254,"type":"village"},{"id":"2056699023","name":"Ampanatoana","lat":-20.208805,"lon":48.6721048,"type":"village"},{"id":"2056699028","name":"Sohihy","lat":-20.2163022,"lon":48.674183,"type":"village"},{"id":"2056821827","name":"Ampanavoana","lat":-15.6882316,"lon":50.3600476,"type":"village"},{"id":"2056825575","name":"Fampotabe","lat":-15.9376501,"lon":50.1410564,"type":"village"},{"id":"2059888676","name":"Maroala","lat":-15.3870649,"lon":47.9893439,"type":"village"},{"id":"2059888697","name":"Antanambaobe","lat":-15.3978688,"lon":47.9372299,"type":"village"},{"id":"2059889456","name":"Ambinanikely","lat":-16.7346412,"lon":46.8786923,"type":"village"},{"id":"2059892721","name":"Bemarivo","lat":-21.7256218,"lon":44.7737678,"type":"village"},{"id":"2059892723","name":"Bemangaraha Atm","lat":-21.7258678,"lon":44.7547863,"type":"village"},{"id":"2060682489","name":"Ambohitralanana","lat":-15.2434081,"lon":50.4437689,"type":"village"},{"id":"2061571931","name":"Manasoa","lat":-24.9326337,"lon":46.8150976,"type":"village"},{"id":"2063506950","name":"Ambodiampaly","lat":-19.5619545,"lon":48.7725952,"type":"village"},{"id":"2063506962","name":"Sahasomanga","lat":-19.5988516,"lon":47.9702589,"type":"village"},{"id":"2063506989","name":"Morafeno II","lat":-19.6047384,"lon":47.9802782,"type":"village"},{"id":"2063507108","name":"Andranomanitsy","lat":-19.6427009,"lon":48.0088127,"type":"village"},{"id":"2063507184","name":"Belay","lat":-19.663455,"lon":48.02349,"type":"village"},{"id":"2063507193","name":"Ambodiaramy I","lat":-19.6660694,"lon":48.774643,"type":"village"},{"id":"2063507197","name":"Ambodiaramy II","lat":-19.6676124,"lon":48.7716975,"type":"village"},{"id":"2063507207","name":"Maromitety","lat":-19.6718511,"lon":48.0288577,"type":"village"},{"id":"2063507226","name":"Sandranora","lat":-19.6883931,"lon":48.0465827,"type":"village"},{"id":"2063514275","name":"Marofatika","lat":-23.2913887,"lon":43.6963247,"type":"village"},{"id":"2063514292","name":"Miary","lat":-23.3071738,"lon":43.7285734,"type":"village"},{"id":"2063890189","name":"Anosimena","lat":-19.671706,"lon":45.40283,"type":"village"},{"id":"2065574724","name":"Bereketa","lat":-23.1162284,"lon":44.4017542,"type":"village"},{"id":"2067205695","name":"Anosy-Rahindy","lat":-20.2755376,"lon":47.9890853,"type":"village"},{"id":"2070624617","name":"Andronomandsha","lat":-19.7978371,"lon":44.7631298,"type":"village"},{"id":"2070624789","name":"Antsiraraka","lat":-19.8058097,"lon":44.8516606,"type":"village"},{"id":"2070627486","name":"Nosy Ambositra","lat":-21.919594,"lon":43.979802,"type":"village"},{"id":"2070627621","name":"Vinany","lat":-22.3599509,"lon":47.3661337,"type":"village"},{"id":"2070627818","name":"Soahazo","lat":-22.461796,"lon":43.6772234,"type":"village"},{"id":"2070627918","name":"Ampasikibo","lat":-22.5318693,"lon":43.635273,"type":"village"},{"id":"2070628338","name":"Marolonaka","lat":-22.8773457,"lon":43.5810486,"type":"village"},{"id":"2070628558","name":"Soamidriso","lat":-23.4577981,"lon":44.5298977,"type":"village"},{"id":"2070628741","name":"Mahaleotse","lat":-23.5237316,"lon":44.0855621,"type":"village"},{"id":"2070628933","name":"Ampasimena","lat":-24.3747529,"lon":47.158477,"type":"village"},{"id":"2072061793","name":"Berendrika","lat":-19.6847706,"lon":44.7383823,"type":"village"},{"id":"2073491698","name":"Anjanavana","lat":-15.4104393,"lon":49.868003,"type":"village"},{"id":"2076156144","name":"Masoala","lat":-15.9842519,"lon":50.1590652,"type":"village"},{"id":"2076156145","name":"Marofototra","lat":-15.7652541,"lon":49.9964615,"type":"village"},{"id":"2076156146","name":"Rantranavona","lat":-15.9038352,"lon":50.0657884,"type":"village"},{"id":"2076156232","name":"Beankora","lat":-15.9541604,"lon":50.2008216,"type":"village"},{"id":"2076496817","name":"Ambatotsangana","lat":-15.4762481,"lon":49.9933833,"type":"village"},{"id":"2076496818","name":"Tsaratanana","lat":-15.5064263,"lon":49.9901708,"type":"village"},{"id":"2076898225","name":"Mahalevona","lat":-15.4163476,"lon":49.9124626,"type":"village"},{"id":"2076898303","name":"Andranofotsy","lat":-15.4277789,"lon":49.8034541,"type":"village"},{"id":"2076912133","name":"Ambinanitelo","lat":-15.347777,"lon":49.5795355,"type":"village"},{"id":"2078011373","name":"Mariarano","lat":-15.3572357,"lon":49.6372326,"type":"village"},{"id":"2078011397","name":"Ankofa","lat":-15.396306,"lon":49.647529,"type":"village"},{"id":"2078026581","name":"Antsakoa Be","lat":-15.4278467,"lon":47.3352871,"type":"village"},{"id":"2078027267","name":"Antanimbaribe","lat":-21.5286279,"lon":44.8588566,"type":"village"},{"id":"2080707860","name":"Ambatomainty","lat":-20.8986918,"lon":46.4482209,"type":"village"},{"id":"2089391965","name":"Maroharona","lat":-19.2766699,"lon":46.2917493,"type":"village"},{"id":"2089907012","name":"Antsapanimahazo","lat":-19.5353017,"lon":46.256061,"type":"village"},{"id":"2104334761","name":"Bevoa","lat":-24.4965994,"lon":47.0263439,"type":"village"},{"id":"2104334763","name":"Fenoambany","lat":-24.4993782,"lon":47.0352696,"type":"village"},{"id":"2104334782","name":"Enakara","lat":-24.5065631,"lon":47.0506018,"type":"village"},{"id":"2104334847","name":"Ampany","lat":-24.5133535,"lon":47.0464524,"type":"village"},{"id":"2104334958","name":"Soamanonga","lat":-24.5317656,"lon":47.0172078,"type":"village"},{"id":"2104339106","name":"Marosavoa","lat":-24.5711612,"lon":46.9435547,"type":"village"},{"id":"2116184797","name":"Ampasimena","lat":-13.3120635,"lon":48.1627762,"type":"village"},{"id":"2121489954","name":"Ampombobe","lat":-13.5277814,"lon":49.7082992,"type":"village"},{"id":"2121489955","name":"Doanibe","lat":-13.5306483,"lon":49.7397832,"type":"village"},{"id":"2121489956","name":"Andrafialava","lat":-13.535543,"lon":49.7638729,"type":"village"},{"id":"2121489958","name":"Anjavibe","lat":-13.6443839,"lon":49.6763171,"type":"village"},{"id":"2121489959","name":"Ambodimandresy","lat":-13.7154064,"lon":49.47825,"type":"village"},{"id":"2121489960","name":"Mahazava","lat":-13.7315645,"lon":49.4701762,"type":"village"},{"id":"2121489961","name":"Tsarahiaka","lat":-13.7487154,"lon":49.46353,"type":"village"},{"id":"2121489962","name":"Antakotako","lat":-13.756793,"lon":49.4643176,"type":"village"},{"id":"2121489963","name":"Antsirabe","lat":-13.7767887,"lon":49.4724188,"type":"village"},{"id":"2121489964","name":"Sahambatry","lat":-13.7795182,"lon":49.4759694,"type":"village"},{"id":"2121489965","name":"Antanananivo","lat":-13.7902392,"lon":49.4720239,"type":"village"},{"id":"2121489966","name":"Anketraka","lat":-13.79708,"lon":49.4664077,"type":"village"},{"id":"2121489970","name":"Ambakirano","lat":-14.2521845,"lon":49.9317823,"type":"village"},{"id":"2121489971","name":"Antanambao","lat":-14.2550368,"lon":49.9406617,"type":"village"},{"id":"2121489972","name":"Ambalamahogo","lat":-14.2569375,"lon":49.9675776,"type":"village"},{"id":"2121489974","name":"Ambavala","lat":-14.2625491,"lon":49.9605474,"type":"village"},{"id":"2121489977","name":"Sarahandrano","lat":-14.2930279,"lon":49.889881,"type":"village"},{"id":"2121489980","name":"Bemanevika","lat":-14.2970351,"lon":49.9189999,"type":"village"},{"id":"2121489981","name":"Ambodisakoana","lat":-14.2978043,"lon":49.913089,"type":"village"},{"id":"2121489983","name":"Ambatobe","lat":-14.3046942,"lon":49.863912,"type":"village"},{"id":"2121489984","name":"Bevapaza","lat":-14.3054688,"lon":49.9542358,"type":"village"},{"id":"2121489985","name":"Ambodimanga","lat":-14.3057252,"lon":49.9432211,"type":"village"},{"id":"2121489986","name":"Antsahovy","lat":-14.3100223,"lon":49.9332636,"type":"village"},{"id":"2121489987","name":"Andrahanjo","lat":-14.3148341,"lon":49.824589,"type":"village"},{"id":"2121489988","name":"Ambohimitsinjo","lat":-14.3207194,"lon":49.9338493,"type":"village"},{"id":"2121489989","name":"Ampampamena","lat":-14.3393768,"lon":49.9137242,"type":"village"},{"id":"2121489990","name":"Sahamazava","lat":-14.346748,"lon":49.9111493,"type":"village"},{"id":"2121489992","name":"Analampontsy","lat":-14.3690231,"lon":49.8929877,"type":"village"},{"id":"2121489993","name":"Antanamangotroka","lat":-14.7020691,"lon":49.6529414,"type":"village"},{"id":"2121489994","name":"Antsahameloka","lat":-14.7202385,"lon":49.6125732,"type":"village"},{"id":"2121489998","name":"Manakambahiny","lat":-15.2397529,"lon":50.069333,"type":"village"},{"id":"2121490001","name":"Maharovaka","lat":-15.3109854,"lon":49.605481,"type":"village"},{"id":"2121490017","name":"Ambohijanahary","lat":-17.4045783,"lon":48.3838192,"type":"village"},{"id":"2121490020","name":"Ampahitany","lat":-17.4665781,"lon":48.3834417,"type":"village"},{"id":"2121490021","name":"Anororo","lat":-17.5083182,"lon":48.433804,"type":"village"},{"id":"2121490022","name":"Amparafaravola","lat":-17.587293,"lon":48.2237417,"type":"town"},{"id":"2121490023","name":"Morarano","lat":-17.7597937,"lon":48.1666168,"type":"village"},{"id":"2121490024","name":"Bejofo","lat":-17.8371825,"lon":48.218357,"type":"village"},{"id":"2121490025","name":"Soaloka","lat":-18.5462143,"lon":45.2563064,"type":"village"},{"id":"2121490026","name":"Tsiazompaniry","lat":-18.7396934,"lon":46.4591847,"type":"village"},{"id":"2121490027","name":"Sarobaratra Ifanja","lat":-18.8463258,"lon":46.7700602,"type":"village"},{"id":"2121490029","name":"Ampefy Ifanja","lat":-18.8551537,"lon":46.7519038,"type":"village"},{"id":"2121490030","name":"Ambatomanjaka","lat":-18.877084,"lon":46.8654618,"type":"village"},{"id":"2121490038","name":"Amboanana","lat":-19.1378397,"lon":47.1725287,"type":"village"},{"id":"2121490039","name":"Mananasy","lat":-19.1488737,"lon":46.6476479,"type":"village"},{"id":"2121490042","name":"Ambohidehibe","lat":-19.1966025,"lon":47.1598664,"type":"village"},{"id":"2121490044","name":"Antenimbe","lat":-19.2163909,"lon":47.0790172,"type":"village"},{"id":"2121490046","name":"Manalalondo","lat":-19.2577567,"lon":47.1137574,"type":"village"},{"id":"2121490052","name":"Antsapanimahazo","lat":-19.4098653,"lon":47.0180651,"type":"village"},{"id":"2121490056","name":"Fidirana","lat":-19.5101074,"lon":46.5659751,"type":"village"},{"id":"2121490061","name":"Ambohimasina","lat":-19.6540573,"lon":46.7328343,"type":"village"},{"id":"2121490070","name":"Fenoarivo","lat":-21.718481,"lon":46.381434,"type":"village"},{"id":"2121490072","name":"Ampiatsaha","lat":-21.7934375,"lon":47.483015,"type":"village"},{"id":"2121490073","name":"Ambalatenina","lat":-21.8032019,"lon":47.4794665,"type":"village"},{"id":"2121490074","name":"Maromandia","lat":-21.832024,"lon":47.4611471,"type":"village"},{"id":"2121490075","name":"Amboangisay","lat":-21.8406774,"lon":47.4584955,"type":"village"},{"id":"2121490076","name":"Andonaka","lat":-21.9099893,"lon":46.4993218,"type":"village"},{"id":"2121490082","name":"Mahasoa","lat":-22.1954536,"lon":46.0944568,"type":"village"},{"id":"2121490090","name":"Fiserenamasay","lat":-22.9016541,"lon":43.4175468,"type":"village"},{"id":"2121490093","name":"Befamonty","lat":-23.5073806,"lon":44.7454968,"type":"village"},{"id":"2121490094","name":"Soloanivo","lat":-23.512974,"lon":44.7115791,"type":"village"},{"id":"2121490096","name":"Betamenaka","lat":-23.5336231,"lon":44.7973505,"type":"village"},{"id":"2128027017","name":"Iotry","lat":-23.5127001,"lon":44.3292414,"type":"village"},{"id":"2143662565","name":"Andampy","lat":-14.6183177,"lon":48.9695478,"type":"village"},{"id":"2143662570","name":"Antelopolo","lat":-14.5631375,"lon":48.9427493,"type":"village"},{"id":"2155881605","name":"Maevatanana","lat":-13.8830545,"lon":48.5288647,"type":"village"},{"id":"2158146269","name":"Ambalakida","lat":-15.7192133,"lon":46.5280037,"type":"village"},{"id":"2173267790","name":"Andravony","lat":-22.4722337,"lon":43.2751834,"type":"village"},{"id":"2173267795","name":"Salary Avaratra","lat":-22.579475,"lon":43.2892602,"type":"village"},{"id":"2173267796","name":"Tampolove","lat":-22.2257376,"lon":43.2612501,"type":"village"},{"id":"2173267797","name":"Tsifota","lat":-22.8248148,"lon":43.3652877,"type":"village"},{"id":"2173292523","name":"Ankilimivony","lat":-23.8048741,"lon":43.6818772,"type":"village"},{"id":"2173296254","name":"Andranotohoka","lat":-23.7742354,"lon":43.6881648,"type":"village"},{"id":"2188540893","name":"Vohimenabe","lat":-17.3327776,"lon":48.6022412,"type":"village"},{"id":"2188540912","name":"Analanomby","lat":-17.3565479,"lon":48.6130529,"type":"village"},{"id":"2188540924","name":"Andrebakely","lat":-17.3855976,"lon":48.6306852,"type":"village"},{"id":"2189495686","name":"Tsinjoriaka","lat":-23.3080112,"lon":43.6711151,"type":"village"},{"id":"2189607710","name":"Ampihalia","lat":-23.2368164,"lon":43.855586,"type":"village"},{"id":"2189607714","name":"Behompy","lat":-23.2496481,"lon":43.8557472,"type":"village"},{"id":"2189607715","name":"Belalanda","lat":-23.3003566,"lon":43.64561,"type":"village"},{"id":"2189607718","name":"Maromiandra","lat":-23.2785814,"lon":43.7131178,"type":"village"},{"id":"2189607719","name":"Mitsinjo Betanimena","lat":-23.3341323,"lon":43.6863819,"type":"village"},{"id":"2189617022","name":"Befanamy","lat":-23.3175589,"lon":43.7088501,"type":"village"},{"id":"2189628247","name":"Andranomena","lat":-23.3733953,"lon":43.7167839,"type":"village"},{"id":"2189628248","name":"Betsinjaka Ambony","lat":-23.3618698,"lon":43.7035147,"type":"village"},{"id":"2189630723","name":"Ankilibe","lat":-23.4289626,"lon":43.7410953,"type":"village"},{"id":"2189668727","name":"Anaralava","lat":-23.5848905,"lon":44.2634032,"type":"village"},{"id":"2189668737","name":"Ianena","lat":-23.5551534,"lon":44.1644851,"type":"village"},{"id":"2189668738","name":"Ifanato","lat":-23.5396335,"lon":44.1549773,"type":"village"},{"id":"2189668740","name":"Lavainaly","lat":-23.5236878,"lon":43.8796604,"type":"village"},{"id":"2189668744","name":"Tanandava","lat":-23.4851326,"lon":43.9734873,"type":"village"},{"id":"2189689121","name":"Befaso","lat":-23.8282278,"lon":43.6633219,"type":"village"},{"id":"2189689127","name":"Beheloka","lat":-23.9102647,"lon":43.6723136,"type":"village"},{"id":"2189704799","name":"Efoetse","lat":-24.0786645,"lon":43.6996663,"type":"village"},{"id":"2189704814","name":"Tanandranto","lat":-24.3154854,"lon":43.7198405,"type":"village"},{"id":"2189854760","name":"Tanambao Mahavelo","lat":-24.7038861,"lon":43.9421266,"type":"village"},{"id":"2189854764","name":"Anbaladoda","lat":-24.9693722,"lon":44.1305527,"type":"village"},{"id":"2189854772","name":"Androimpano","lat":-24.878709,"lon":44.0500166,"type":"village"},{"id":"2189854780","name":"Ankaofaly","lat":-24.9791558,"lon":44.0710402,"type":"village"},{"id":"2189854781","name":"Ankiliambany","lat":-24.976012,"lon":44.1136801,"type":"village"},{"id":"2189854784","name":"Matangy (Itampolo 2)","lat":-24.69763,"lon":43.949659,"type":"village"},{"id":"2189854786","name":"Besely Nord","lat":-24.8368584,"lon":44.0215796,"type":"village"},{"id":"2189854787","name":"Ankamena I","lat":-24.9564266,"lon":44.1015007,"type":"village"},{"id":"2189854789","name":"Itampolo","lat":-24.6839736,"lon":43.946328,"type":"village"},{"id":"2189854791","name":"Zoenarivo","lat":-24.7417093,"lon":43.9514417,"type":"village"},{"id":"2189854792","name":"Ampasy Nord","lat":-24.9738107,"lon":44.2368966,"type":"village"},{"id":"2189854796","name":"Saodona","lat":-24.9636282,"lon":44.1499214,"type":"village"},{"id":"2189854798","name":"Tsiarindrano","lat":-24.9543619,"lon":44.2120012,"type":"village"},{"id":"2189854799","name":"Ambalabe Beavoha","lat":-24.8012064,"lon":43.9826069,"type":"village"},{"id":"2189854801","name":"Zamasy","lat":-24.9736492,"lon":44.1869394,"type":"village"},{"id":"2190364904","name":"Amparihy Bejofo","lat":-16.6642783,"lon":44.8406161,"type":"village"},{"id":"2191476671","name":"Ambohimarina I","lat":-14.8511581,"lon":49.9768925,"type":"village"},{"id":"2191476674","name":"Mahasoa Anivorano","lat":-14.8661827,"lon":49.9813817,"type":"village"},{"id":"2191476686","name":"Andriandava","lat":-14.882852,"lon":49.9621936,"type":"village"},{"id":"2191476689","name":"Antanambao Antsakondrevo","lat":-14.9015864,"lon":49.9578394,"type":"village"},{"id":"2192393537","name":"Ambalorao","lat":-22.0734709,"lon":43.2806557,"type":"village"},{"id":"2192393541","name":"Bevato","lat":-21.900633,"lon":43.2823292,"type":"village"},{"id":"2192461832","name":"Vatoavo","lat":-22.23909,"lon":43.2975929,"type":"village"},{"id":"2192491395","name":"Ambalavenoka","lat":-22.8632244,"lon":43.5774621,"type":"village"},{"id":"2192491396","name":"Ambohitsabo","lat":-22.3222206,"lon":43.2360711,"type":"village"},{"id":"2192491407","name":"Milenaka","lat":-22.8389487,"lon":43.585756,"type":"village"},{"id":"2192491408","name":"Saririaka","lat":-22.9199467,"lon":43.5815977,"type":"village"},{"id":"2192556693","name":"Ambolimailaka","lat":-23.0541251,"lon":43.5806874,"type":"village"},{"id":"2192556695","name":"Andrevo","lat":-23.032826,"lon":43.5471217,"type":"village"},{"id":"2192556696","name":"Ankilimalinika","lat":-22.9545229,"lon":43.5648995,"type":"village"},{"id":"2192556698","name":"Benetsy","lat":-22.9367264,"lon":43.5760915,"type":"village"},{"id":"2192556700","name":"Ranobe","lat":-23.0101892,"lon":43.6085135,"type":"village"},{"id":"2192556701","name":"Sangoritelo","lat":-23.2195103,"lon":43.6218045,"type":"village"},{"id":"2201431044","name":"Ambodilafa","lat":-20.5097799,"lon":48.1795197,"type":"village"},{"id":"2201431146","name":"Vohidahy","lat":-20.5590183,"lon":47.5522119,"type":"village"},{"id":"2201431327","name":"Ambavan'i Sahavato","lat":-20.6113481,"lon":48.3600551,"type":"village"},{"id":"2201431338","name":"Ambodivandrika","lat":-20.61466,"lon":48.2423255,"type":"village"},{"id":"2201431448","name":"Soanierana","lat":-20.6233206,"lon":47.5058306,"type":"village"},{"id":"2201432533","name":"Ambinanindrano","lat":-20.6802622,"lon":47.5647639,"type":"village"},{"id":"2201432885","name":"Vohilava","lat":-20.7008879,"lon":48.3424648,"type":"village"},{"id":"2201433972","name":"Ampasimaneva","lat":-20.7360291,"lon":48.4499624,"type":"village"},{"id":"2201434641","name":"Befody","lat":-20.7774351,"lon":47.9370302,"type":"village"},{"id":"2201435965","name":"Ambohitsara Est","lat":-20.8688472,"lon":48.4633487,"type":"village"},{"id":"2201436105","name":"Ambohimanga Sud","lat":-20.8764527,"lon":47.5912188,"type":"village"},{"id":"2201436300","name":"Manakana Antsindra","lat":-20.8932844,"lon":47.7688391,"type":"village"},{"id":"2201436596","name":"Ambodirafia","lat":-20.9268705,"lon":47.6548503,"type":"village"},{"id":"2201436831","name":"Ambodimanga","lat":-20.9617829,"lon":47.6099213,"type":"village"},{"id":"2202181731","name":"Amponina","lat":-17.9403956,"lon":48.5052614,"type":"village"},{"id":"2202181795","name":"Amboarabe","lat":-17.9461745,"lon":48.4989913,"type":"village"},{"id":"2203001489","name":"Marotandrano","lat":-16.179489,"lon":48.839078,"type":"village"},{"id":"2204253321","name":"Beraketa","lat":-23.5044343,"lon":44.8954797,"type":"village"},{"id":"2204336003","name":"Ambatomainty","lat":-18.221576,"lon":46.3281023,"type":"village"},{"id":"2204336916","name":"Ankadibevava","lat":-18.4612863,"lon":46.3378886,"type":"village"},{"id":"2204337978","name":"Manandaza","lat":-19.318944,"lon":45.405467,"type":"village"},{"id":"2206014299","name":"Antohabato","lat":-23.5643063,"lon":44.4369516,"type":"village"},{"id":"2206014305","name":"Behelo","lat":-23.5590222,"lon":44.4804826,"type":"village"},{"id":"2206014307","name":"Betakilitsy","lat":-23.5365664,"lon":44.5113107,"type":"village"},{"id":"2206042596","name":"Savazy Be","lat":-23.5790388,"lon":44.7962656,"type":"village"},{"id":"2207189670","name":"Mandoto","lat":-19.5790031,"lon":46.2881896,"type":"town"},{"id":"2207928433","name":"Zafindravoay","lat":-15.3459296,"lon":48.3822678,"type":"village"},{"id":"2208485565","name":"Tamborano","lat":-19.3893629,"lon":48.7749914,"type":"village"},{"id":"2208485586","name":"Maizinandro","lat":-19.401282,"lon":48.6096629,"type":"village"},{"id":"2208485641","name":"Ambohipeno","lat":-19.4215243,"lon":48.7417311,"type":"village"},{"id":"2208485762","name":"Ambalafary","lat":-19.4430551,"lon":48.7563478,"type":"village"},{"id":"2208485776","name":"Sada","lat":-19.4443253,"lon":48.9198434,"type":"village"},{"id":"2208485796","name":"Antaramanana","lat":-19.4461801,"lon":48.8088701,"type":"village"},{"id":"2208485840","name":"Andriatahofika I","lat":-19.4485434,"lon":48.7852657,"type":"village"},{"id":"2208486057","name":"Analatsara","lat":-19.6354507,"lon":48.8139992,"type":"village"},{"id":"2208486581","name":"Ambodimangatelo","lat":-19.6573016,"lon":48.7480868,"type":"village"},{"id":"2208486881","name":"Antanandava","lat":-19.675367,"lon":48.7646923,"type":"village"},{"id":"2208486886","name":"Niarovana","lat":-19.6777459,"lon":48.7485969,"type":"village"},{"id":"2208486923","name":"Marovato","lat":-19.6830474,"lon":48.7368563,"type":"village"},{"id":"2208486967","name":"Mahatsara","lat":-19.6882032,"lon":48.7351774,"type":"village"},{"id":"2208487467","name":"Ampasimbola","lat":-20.2614961,"lon":47.8985394,"type":"village"},{"id":"2208487495","name":"Vatanambora","lat":-20.2676042,"lon":47.9666896,"type":"village"},{"id":"2208487497","name":"Ambohisahatsiho","lat":-20.2676464,"lon":47.9260096,"type":"village"},{"id":"2208487515","name":"Sahakevo","lat":-20.2711501,"lon":47.8505633,"type":"village"},{"id":"2208487767","name":"Ambodimamanona","lat":-20.3175083,"lon":47.8746092,"type":"village"},{"id":"2208487826","name":"Tsarakianja","lat":-20.3315975,"lon":47.8988839,"type":"village"},{"id":"2208487951","name":"Andranovory","lat":-20.3489018,"lon":47.8381379,"type":"village"},{"id":"2208487987","name":"Ambodinonoka","lat":-20.360084,"lon":47.8074059,"type":"village"},{"id":"2208488032","name":"Ambohitsara","lat":-20.3754636,"lon":47.8208968,"type":"village"},{"id":"2208488209","name":"Ankazomasina","lat":-20.4092287,"lon":47.7998443,"type":"village"},{"id":"2208488574","name":"Ambodipaiso","lat":-20.7973669,"lon":47.9076003,"type":"village"},{"id":"2208885083","name":"Mahajeby","lat":-18.0462081,"lon":45.9971106,"type":"village"},{"id":"2208886546","name":"Kiranomena","lat":-18.296012,"lon":46.051942,"type":"village"},{"id":"2209599057","name":"Ambohimiadana","lat":-19.9085058,"lon":47.9500441,"type":"village"},{"id":"2209599279","name":"Ambohimilanja","lat":-19.9306546,"lon":47.9788702,"type":"village"},{"id":"2209599667","name":"Sahanavo","lat":-19.9446056,"lon":47.9313491,"type":"village"},{"id":"2209599997","name":"Ambodiara","lat":-19.9646199,"lon":47.9627051,"type":"village"},{"id":"2209601153","name":"Maroariana","lat":-20.0240013,"lon":47.9490537,"type":"village"},{"id":"2209601275","name":"Anosy","lat":-20.0350122,"lon":47.9515018,"type":"village"},{"id":"2209601716","name":"Ambatofisaka II","lat":-20.087595,"lon":47.8978038,"type":"village"},{"id":"2209601839","name":"Antanjomanga","lat":-20.1025639,"lon":47.886924,"type":"village"},{"id":"2209601910","name":"Ankalotra","lat":-20.1144266,"lon":47.8607987,"type":"village"},{"id":"2209602048","name":"Morarano","lat":-20.6105301,"lon":47.7168012,"type":"village"},{"id":"2209782353","name":"Andriandampy","lat":-22.7499888,"lon":45.6806188,"type":"village"},{"id":"2214374688","name":"Beambiaty","lat":-18.8821109,"lon":45.7219079,"type":"village"},{"id":"2214413570","name":"Andranondambo","lat":-24.4258127,"lon":46.587133,"type":"village"},{"id":"2214413617","name":"Marohotro","lat":-24.4790493,"lon":46.6018193,"type":"village"},{"id":"2216271784","name":"Soanierana","lat":-18.6342568,"lon":46.2513808,"type":"village"},{"id":"2219285714","name":"Vinanibe","lat":-15.4689452,"lon":49.4988651,"type":"village"},{"id":"2219459539","name":"Antondabe","lat":-23.8749582,"lon":47.119705,"type":"village"},{"id":"2221770244","name":"Maromanitra","lat":-21.5013486,"lon":48.0011301,"type":"village"},{"id":"2221770273","name":"Anosimparihy","lat":-21.5060304,"lon":47.9926379,"type":"village"},{"id":"2221770394","name":"Bac Namorona","lat":-21.5161774,"lon":47.9740649,"type":"village"},{"id":"2221770927","name":"Ambila Centre","lat":-22.0032825,"lon":47.9718195,"type":"village"},{"id":"2221771072","name":"Tamboro Ouest","lat":-22.0077765,"lon":47.9742997,"type":"village"},