[{"id":"27564954","name":"Bamako","lat":12.649319,"lon":-8.000337,"type":"city"},{"id":"89381749","name":"Tombouctou","lat":16.7719091,"lon":-3.0087272,"type":"city"},{"id":"89918976","name":"Gao","lat":16.2788129,"lon":-0.0412392,"type":"city"},{"id":"89942783","name":"Sikasso","lat":11.3165531,"lon":-5.6777526,"type":"city"},{"id":"277932033","name":"Kayes","lat":14.443406,"lon":-11.437914,"type":"city"},{"id":"277943923","name":"Koutiala","lat":12.3869501,"lon":-5.4600937,"type":"city"},{"id":"277944125","name":"Markala","lat":13.6858601,"lon":-6.0686133,"type":"town"},{"id":"277944562","name":"Kolokani","lat":13.577326,"lon":-8.031273,"type":"city"},{"id":"277945591","name":"Koulikoro","lat":12.8646318,"lon":-7.5561287,"type":"city"},{"id":"330440424","name":"Bafoulabé","lat":13.8088835,"lon":-10.8342049,"type":"town"},{"id":"330449394","name":"Mahina","lat":13.7573162,"lon":-10.8486473,"type":"town"},{"id":"343632642","name":"Kabara","lat":16.7070983,"lon":-2.9851039,"type":"town"},{"id":"343632965","name":"Yenndouma","lat":14.5560119,"lon":-3.2418667,"type":"village"},{"id":"343638854","name":"Bambara-Maoundé","lat":15.8510333,"lon":-2.7861122,"type":"town"},{"id":"358313025","name":"Niénou","lat":13.595518,"lon":-4.7287009,"type":"village"},{"id":"358313414","name":"Ngolla","lat":13.71776,"lon":-4.630205,"type":"village"},{"id":"358313549","name":"Noina","lat":13.7547152,"lon":-4.6229605,"type":"village"},{"id":"358313623","name":"Kobassa","lat":13.8049409,"lon":-4.6107273,"type":"village"},{"id":"358313938","name":"Diabolo","lat":13.8485269,"lon":-4.5306555,"type":"village"},{"id":"358313999","name":"San","lat":13.3043073,"lon":-4.8957273,"type":"city"},{"id":"379907222","name":"Tominian","lat":13.2868042,"lon":-4.5902405,"type":"city"},{"id":"469237102","name":"Andéramboukane","lat":15.4220566,"lon":3.0224703,"type":"town"},{"id":"495440728","name":"Hombori","lat":15.2831164,"lon":-1.6990741,"type":"town"},{"id":"495454624","name":"Douentza","lat":15.0068749,"lon":-2.9529649,"type":"city"},{"id":"504486257","name":"Koulekoungo","lat":13.5169191,"lon":-4.315949,"type":"village"},{"id":"504506686","name":"Siguine","lat":14.0947251,"lon":-5.8621809,"type":"village"},{"id":"504509348","name":"Djonfala","lat":13.5983601,"lon":-6.6844041,"type":"village"},{"id":"529465246","name":"Léré","lat":14.2116154,"lon":-3.0653256,"type":"village"},{"id":"529466795","name":"Arou","lat":14.4959796,"lon":-3.2465615,"type":"village"},{"id":"538454688","name":"Kangaba","lat":11.9418245,"lon":-8.4142505,"type":"city"},{"id":"538473008","name":"Nankela Bugu","lat":12.1722594,"lon":-8.293438,"type":"village"},{"id":"546898545","name":"Sangha","lat":14.468356,"lon":-3.306466,"type":"town"},{"id":"546898789","name":"Kondou","lat":14.5070623,"lon":-3.2437163,"type":"village"},{"id":"550187104","name":"Kani-Kombolé","lat":14.1488334,"lon":-3.59443,"type":"village"},{"id":"550187231","name":"Tely","lat":14.1616339,"lon":-3.5657716,"type":"village"},{"id":"550187259","name":"Oualia","lat":14.1734755,"lon":-3.5482941,"type":"village"},{"id":"550187514","name":"Konsogoulé","lat":14.271039,"lon":-3.4489433,"type":"village"},{"id":"550192342","name":"Nombory","lat":14.330886,"lon":-3.4041007,"type":"village"},{"id":"552360259","name":"Bima","lat":14.9102028,"lon":-3.7744678,"type":"village"},{"id":"552369262","name":"Bounguel","lat":14.1640805,"lon":-4.1068249,"type":"village"},{"id":"552369263","name":"Mandio","lat":14.2432059,"lon":-4.0705125,"type":"village"},{"id":"552369981","name":"Koundiala","lat":14.5196074,"lon":-3.5661911,"type":"village"},{"id":"552369984","name":"Andia","lat":14.5778513,"lon":-3.5483714,"type":"village"},{"id":"552369991","name":"Nomb","lat":14.743225,"lon":-3.4878913,"type":"village"},{"id":"552369994","name":"Dogani","lat":14.8942696,"lon":-3.4239506,"type":"village"},{"id":"552370004","name":"Nombol","lat":14.9677312,"lon":-3.3594326,"type":"village"},{"id":"552370008","name":"Kiro","lat":15.0488897,"lon":-3.3651388,"type":"village"},{"id":"552370268","name":"Bouaré","lat":15.1342523,"lon":-3.4877058,"type":"village"},{"id":"552370269","name":"Gniminama","lat":15.1476154,"lon":-3.3428805,"type":"village"},{"id":"552370317","name":"Takouti","lat":14.559049,"lon":-4.0784591,"type":"village"},{"id":"552370319","name":"Sare Soma","lat":14.75043,"lon":-3.9222363,"type":"village"},{"id":"694209026","name":"N'Galamadian Coura","lat":14.1424355,"lon":-6.0127189,"type":"village"},{"id":"694209027","name":"Moussa Were","lat":14.155982,"lon":-5.9973702,"type":"village"},{"id":"694212047","name":"Siribala Koura","lat":14.0432441,"lon":-6.0618273,"type":"town"},{"id":"694212050","name":"Chouala Were","lat":14.0744474,"lon":-6.0514272,"type":"village"},{"id":"694212051","name":"Minimana","lat":14.0953549,"lon":-6.0458379,"type":"village"},{"id":"694214525","name":"Komola-Zanfina","lat":13.8706322,"lon":-6.0907204,"type":"village"},{"id":"694218511","name":"N'Godila","lat":14.2347743,"lon":-6.2041624,"type":"village"},{"id":"694218516","name":"Diarraka Were","lat":14.2125729,"lon":-6.1016232,"type":"village"},{"id":"694218517","name":"Samba Were","lat":14.2117171,"lon":-6.0779152,"type":"village"},{"id":"694218519","name":"Molodo-Centre","lat":14.2375002,"lon":-6.02,"type":"town"},{"id":"694218520","name":"Kinzambougou","lat":14.2706052,"lon":-6.0366528,"type":"village"},{"id":"694219488","name":"Daba Camp","lat":14.5193413,"lon":-5.9298606,"type":"village"},{"id":"694219489","name":"Dianbé","lat":14.6162999,"lon":-5.8984917,"type":"village"},{"id":"695545709","name":"Diabaly","lat":14.685659,"lon":-6.022434,"type":"town"},{"id":"695549586","name":"Songo","lat":14.6396111,"lon":-5.8278068,"type":"village"},{"id":"696604485","name":"Konobougou","lat":12.9191603,"lon":-6.7591381,"type":"town"},{"id":"696604997","name":"Binko","lat":12.7523002,"lon":-7.1463178,"type":"village"},{"id":"696608086","name":"Kobalakoro","lat":12.587719,"lon":-7.7661196,"type":"town"},{"id":"696854781","name":"Molodo II","lat":14.2517164,"lon":-6.0663793,"type":"village"},{"id":"796537477","name":"Banakoro","lat":12.4691388,"lon":-7.9384742,"type":"village"},{"id":"917269252","name":"Kobou","lat":14.724284,"lon":-1.5020346,"type":"village"},{"id":"976735284","name":"Médine","lat":14.3744217,"lon":-11.3648042,"type":"village"},{"id":"1035398271","name":"Diéma","lat":14.5418661,"lon":-9.1912634,"type":"town"},{"id":"1042733263","name":"Amachach","lat":20.2581628,"lon":0.9904272,"type":"village"},{"id":"1053187064","name":"Sananfara","lat":12.7138752,"lon":-8.055054,"type":"town"},{"id":"1068774742","name":"Dérébougou","lat":12.7383697,"lon":-8.0295418,"type":"village"},{"id":"1068967039","name":"Koulouninko","lat":12.6547757,"lon":-8.0521685,"type":"village"},{"id":"1071716738","name":"Yirimandio","lat":12.6129402,"lon":-7.9110417,"type":"village"},{"id":"1071774090","name":"Kognini","lat":12.6388673,"lon":-7.835618,"type":"village"},{"id":"1071774094","name":"Sabalibougou Courani","lat":12.6539363,"lon":-7.8922346,"type":"village"},{"id":"1118567790","name":"Sangarebougou","lat":12.6840223,"lon":-7.9296408,"type":"town"},{"id":"1176735193","name":"Wolodo","lat":12.73244,"lon":-7.329009,"type":"village"},{"id":"1176736233","name":"Tingolé","lat":12.7515126,"lon":-7.1467178,"type":"village"},{"id":"1322427385","name":"Tombonka","lat":13.8356813,"lon":-4.3995738,"type":"village"},{"id":"1322656959","name":"Teriyabougou","lat":13.2068256,"lon":-5.5302964,"type":"village"},{"id":"1554886381","name":"Kimparana","lat":12.834733,"lon":-4.9244395,"type":"town"},{"id":"1611985997","name":"Endé-Toro","lat":14.1847356,"lon":-3.5326049,"type":"village"},{"id":"1703668240","name":"Andiagana-Na","lat":13.9350401,"lon":-3.3703778,"type":"village"},{"id":"1703668244","name":"Adiora","lat":16.087225,"lon":-1.263913,"type":"town"},{"id":"1703668254","name":"Agagaktem","lat":23.1514337,"lon":-6.3481923,"type":"village"},{"id":"1703668258","name":"Agawelene","lat":15.481029,"lon":-2.5736013,"type":"village"},{"id":"1703668264","name":"Aglal","lat":16.617694,"lon":-2.684206,"type":"town"},{"id":"1703668267","name":"Aglitarma","lat":16.2544802,"lon":0.9485849,"type":"village"},{"id":"1703668274","name":"Agouni","lat":17.054167,"lon":-2.997222,"type":"village"},{"id":"1703668279","name":"Aguelhok","lat":19.4641919,"lon":0.8573623,"type":"village"},{"id":"1703668285","name":"Ahel Chegui","lat":17.6717957,"lon":-2.5055944,"type":"village"},{"id":"1703668288","name":"Ahel-Boukou","lat":17.1975804,"lon":-2.8529293,"type":"village"},{"id":"1703668297","name":"Akor","lat":14.8675889,"lon":-6.9796714,"type":"village"},{"id":"1703668301","name":"Akotaf Oska","lat":15.5355357,"lon":-1.7899175,"type":"village"},{"id":"1703668304","name":"Allahina","lat":15.2269021,"lon":-8.7405152,"type":"town"},{"id":"1703668312","name":"Amakal Kalane","lat":17.2545014,"lon":-0.41366,"type":"village"},{"id":"1703668315","name":"Amalaoulaou","lat":15.4175578,"lon":1.3047208,"type":"village"},{"id":"1703668319","name":"Amassine","lat":17.7214545,"lon":1.241624,"type":"village"},{"id":"1703668322","name":"Ambidedi Poste","lat":14.5860656,"lon":-11.7904262,"type":"village"},{"id":"1703668334","name":"Ambiri-Habe","lat":15.5150182,"lon":-4.2125461,"type":"village"},{"id":"1703668338","name":"Anéfif","lat":18.04589,"lon":0.602897,"type":"village"},{"id":"1703668339","name":"Ansongo","lat":15.6639257,"lon":0.5067841,"type":"city"},{"id":"1703668340","name":"Aourou","lat":14.9646974,"lon":-11.5863394,"type":"town"},{"id":"1703668353","name":"Arham","lat":16.3798365,"lon":-3.3744879,"type":"village"},{"id":"1703668356","name":"Arouagene","lat":17.8740941,"lon":-2.5544271,"type":"village"},{"id":"1703668360","name":"Baboye","lat":14.259563,"lon":-3.951263,"type":"village"},{"id":"1703668369","name":"Bada","lat":10.6651252,"lon":-8.0675144,"type":"village"},{"id":"1703668375","name":"Bafarara","lat":15.3763959,"lon":-11.4733835,"type":"town"},{"id":"1703668403","name":"Balamassala","lat":12.1867213,"lon":-8.7594292,"type":"town"},{"id":"1703668409","name":"Bamba-Poste","lat":17.0346478,"lon":-1.4040197,"type":"town"},{"id":"1703668438","name":"Banakane","lat":14.6432349,"lon":-3.2269752,"type":"town"},{"id":"1703668439","name":"Banamba","lat":13.5485166,"lon":-7.446532,"type":"city"},{"id":"1703668453","name":"Banco","lat":12.0991693,"lon":-6.5244935,"type":"town"},{"id":"1703668460","name":"Bangassi","lat":14.4905398,"lon":-11.5084896,"type":"town"},{"id":"1703668473","name":"Banguita","lat":15.2859303,"lon":-4.353694,"type":"village"},{"id":"1703668477","name":"Banikane","lat":16.0441734,"lon":-3.5950252,"type":"town"},{"id":"1703668486","name":"Bankass","lat":14.0786136,"lon":-3.5187494,"type":"city"},{"id":"1703668490","name":"Bara","lat":15.8171581,"lon":0.3250818,"type":"town"},{"id":"1703668493","name":"Baramandougou (Pé)","lat":13.5995157,"lon":-4.592781,"type":"village"},{"id":"1703668507","name":"Baye","lat":13.6257802,"lon":-3.3696639,"type":"village"},{"id":"1703668508","name":"Beleko Soba","lat":12.4750555,"lon":-6.4079365,"type":"town"},{"id":"1703668520","name":"Bendougou","lat":14.1627656,"lon":-11.6337467,"type":"village"},{"id":"1703668542","name":"Ber","lat":16.8394668,"lon":-2.5267412,"type":"town"},{"id":"1703668551","name":"Berdosso","lat":14.7354183,"lon":-3.0544452,"type":"town"},{"id":"1703668564","name":"Bih","lat":13.9262016,"lon":-2.9110058,"type":"village"},{"id":"1703668568","name":"Bilikoïté","lat":15.5389866,"lon":-11.5892458,"type":"village"},{"id":"1703668579","name":"Bintagoungou","lat":16.7375895,"lon":-3.7310448,"type":"town"},{"id":"1703668582","name":"Bir Chali","lat":22.9810162,"lon":-4.9742511,"type":"village"},{"id":"1703668611","name":"Bobola-Zangasso","lat":12.5364096,"lon":-4.9927581,"type":"town"},{"id":"1703668618","name":"Boko Diomby","lat":14.8321612,"lon":-11.8754617,"type":"village"},{"id":"1703668640","name":"Bolibana","lat":14.4263684,"lon":-5.9278194,"type":"village"},{"id":"1703668648","name":"Bondo","lat":14.133237,"lon":-3.0067329,"type":"village"},{"id":"1703668666","name":"Boni","lat":15.0768761,"lon":-2.2211397,"type":"town"},{"id":"1703668670","name":"Borko","lat":14.9512727,"lon":-3.3546199,"type":"town"},{"id":"1703668674","name":"Boron","lat":14.0123353,"lon":-7.5145409,"type":"town"},{"id":"1703668679","name":"Bou Djebbeha","lat":18.5391283,"lon":-2.6650367,"type":"village"},{"id":"1703668680","name":"Boudofo","lat":13.0891681,"lon":-9.5062187,"type":"village"},{"id":"1703668685","name":"Bougan","lat":13.3651173,"lon":-5.5591436,"type":"village"},{"id":"1703668697","name":"ⴱⵓⵖⴰⵙⴰ","lat":20.018548,"lon":2.2572711,"type":"village"},{"id":"1703668700","name":"Bougoula","lat":12.3120992,"lon":-7.796631,"type":"village"},{"id":"1703668713","name":"Bougouni","lat":11.4194313,"lon":-7.4833878,"type":"city"},{"id":"1703668718","name":"Boulal","lat":15.0802948,"lon":-8.428071,"type":"village"},{"id":"1703668723","name":"Bouleli","lat":15.1137975,"lon":-5.2793884,"type":"village"},{"id":"1703668731","name":"Boundou-Herou","lat":14.8601493,"lon":-1.7098401,"type":"village"},{"id":"1703668751","name":"Bourem Sidi Amar","lat":16.3666623,"lon":-3.3334035,"type":"town"},{"id":"1703668759","name":"Bourem","lat":16.9575282,"lon":-0.3468008,"type":"city"},{"id":"1703668771","name":"Bourem-Inaly","lat":16.6904119,"lon":-2.8515344,"type":"town"},{"id":"1703668781","name":"Chamanamas","lat":16.9488701,"lon":2.6574292,"type":"village"},{"id":"1703668795","name":"Cherifene Arbakoira","lat":17.467229,"lon":-1.3970401,"type":"village"},{"id":"1703668802","name":"Chichane Ouest","lat":16.2982765,"lon":-2.4897348,"type":"village"},{"id":"1703668808","name":"D'Ag Assil Issil","lat":19.4392945,"lon":-0.3754969,"type":"village"},{"id":"1703668823","name":"Daféla","lat":12.9716818,"lon":-9.3995075,"type":"village"},{"id":"1703668827","name":"Dag Anga","lat":17.5319296,"lon":-3.7210319,"type":"village"},{"id":"1703668831","name":"Dag Mohamed Aly","lat":17.7067597,"lon":-2.019778,"type":"village"},{"id":"1703668841","name":"Dag-Mana","lat":17.1075302,"lon":-3.6237529,"type":"village"},{"id":"1703668842","name":"Dagabory","lat":14.917159,"lon":-5.8992744,"type":"village"},{"id":"1703668846","name":"Dagha","lat":16.8052094,"lon":-0.2494835,"type":"village"},{"id":"1703668858","name":"Daka Ali","lat":16.192826,"lon":-2.7781385,"type":"village"},{"id":"1703668862","name":"Daka Fifo","lat":16.0319359,"lon":-2.6889466,"type":"village"},{"id":"1703668865","name":"Daka","lat":16.0755558,"lon":-2.6708334,"type":"town"},{"id":"1703668887","name":"Dakassenou","lat":14.2900005,"lon":-12.0157291,"type":"village"},{"id":"1703668891","name":"Dallah","lat":15.105278,"lon":-2.6402779,"type":"town"},{"id":"1703668895","name":"Damada","lat":14.733488,"lon":-3.178771,"type":"town"},{"id":"1703668899","name":"Dampacoura","lat":14.1612764,"lon":-8.4147409,"type":"village"},{"id":"1703668907","name":"Dandoli","lat":14.3982012,"lon":-3.5444698,"type":"town"},{"id":"1703668914","name":"Dangha","lat":16.4650858,"lon":-3.1361951,"type":"town"},{"id":"1703668941","name":"Deh","lat":14.7788595,"lon":-3.2589333,"type":"town"},{"id":"1703668948","name":"Dia","lat":14.35257,"lon":-4.956674,"type":"town"},{"id":"1703668967","name":"Diakon","lat":14.471531,"lon":-10.2509078,"type":"town"},{"id":"1703668976","name":"Diala-Banlieue","lat":14.462521,"lon":-11.4901231,"type":"town"},{"id":"1703668979","name":"Dialakan","lat":13.7831768,"lon":-10.3507109,"type":"village"},{"id":"1703669013","name":"Diallassagou","lat":13.7407179,"lon":-3.626438,"type":"town"},{"id":"1703669034","name":"Diamabacourou","lat":14.8225002,"lon":-3.9752776,"type":"town"},{"id":"1703669041","name":"Diamou","lat":14.086561,"lon":-11.2624981,"type":"town"},{"id":"1703669045","name":"Diangassagou","lat":13.9963725,"lon":-3.9414254,"type":"village"},{"id":"1703669048","name":"Diankabou","lat":14.5861027,"lon":-3.0802748,"type":"town"},{"id":"1703669076","name":"Diboli","lat":14.457159,"lon":-12.200601,"type":"town"},{"id":"1703669078","name":"Digan","lat":14.7190483,"lon":-8.2766789,"type":"village"},{"id":"1703669082","name":"Digani","lat":13.5003318,"lon":-6.3142127,"type":"village"},{"id":"1703669092","name":"Dilly","lat":14.9991305,"lon":-7.6688642,"type":"town"},{"id":"1703669095","name":"Dimbal-Habbe","lat":14.0283991,"lon":-3.6176842,"type":"town"},{"id":"1703669103","name":"Dindanko","lat":14.1232879,"lon":-9.5029038,"type":"village"},{"id":"1703669111","name":"Dioïla","lat":12.4863792,"lon":-6.7948799,"type":"city"},{"id":"1703669112","name":"Dioka","lat":14.8648998,"lon":-10.0955052,"type":"village"},{"id":"1703669123","name":"Diona","lat":15.3265361,"lon":-3.234736,"type":"town"},{"id":"1703669126","name":"Diondiori","lat":14.6126052,"lon":-4.7735626,"type":"town"},{"id":"1703669131","name":"Diongaga","lat":15.074968,"lon":-10.878214,"type":"town"},{"id":"1703669143","name":"Dionki","lat":14.8598789,"lon":-2.5869719,"type":"village"},{"id":"1703669146","name":"Dionsala","lat":11.916111,"lon":-7.0405425,"type":"village"},{"id":"1703669148","name":"Dioro","lat":13.689042,"lon":-5.8313839,"type":"town"},{"id":"1703669165","name":"Diossan","lat":10.6299471,"lon":-7.418783,"type":"village"},{"id":"1703669221","name":"Dioumara Koussata","lat":14.5378493,"lon":-8.5660539,"type":"town"},{"id":"1703669227","name":"Diouna","lat":13.4323675,"lon":-5.8200101,"type":"village"},{"id":"1703669265","name":"Dioungani-Peulh","lat":14.3155804,"lon":-2.7402973,"type":"town"},{"id":"1703669276","name":"Dioungo","lat":14.2443122,"lon":-10.9267954,"type":"village"},{"id":"1703669285","name":"Dioura","lat":14.8254246,"lon":-5.2506187,"type":"town"},{"id":"1703669313","name":"Djebock","lat":16.3428288,"lon":0.2783994,"type":"town"},{"id":"1703669330","name":"Djoulouna","lat":14.5436511,"lon":-1.9489384,"type":"town"},{"id":"1703669360","name":"Dogo","lat":15.168402,"lon":-4.431335,"type":"town"},{"id":"1703669382","name":"Dogofry","lat":15.0124998,"lon":-10.9405555,"type":"town"},{"id":"1703669402","name":"Dogofryba K12","lat":14.7797794,"lon":-6.0295618,"type":"village"},{"id":"1703669413","name":"Dogoni","lat":12.1433829,"lon":-6.0044046,"type":"town"},{"id":"1703669457","name":"Dombila","lat":12.7618096,"lon":-8.2782002,"type":"village"},{"id":"1703669465","name":"Dorey","lat":15.81908,"lon":-0.4130326,"type":"village"},{"id":"1703669487","name":"Douaya","lat":17.6496361,"lon":-3.1596259,"type":"village"},{"id":"1703669524","name":"Dougabougou","lat":13.8201359,"lon":-6.1249245,"type":"town"},{"id":"1703669597","name":"Doura","lat":13.9284551,"lon":-6.2078637,"type":"town"},{"id":"1703669625","name":"El Gueleita","lat":15.3843443,"lon":-11.1939526,"type":"village"},{"id":"1703669629","name":"El Ghetara","lat":22.0322517,"lon":-2.9778439,"type":"village"},{"id":"1703669641","name":"El Ksaib","lat":21.2882847,"lon":-5.6253724,"type":"village"},{"id":"1703669643","name":"El Mraiti","lat":19.2477869,"lon":-2.1754274,"type":"village"},{"id":"1703669648","name":"El Mzereb","lat":24.7481837,"lon":-6.3850445,"type":"village"},{"id":"1703669655","name":"Essakane","lat":16.781011,"lon":-3.6346771,"type":"town"},{"id":"1703669670","name":"Essouk","lat":18.7519953,"lon":1.1750824,"type":"village"},{"id":"1703669688","name":"Falako","lat":12.5692914,"lon":-7.1846598,"type":"village"},{"id":"1703669692","name":"Fallou","lat":14.5990697,"lon":-7.9327928,"type":"village"},{"id":"1703669732","name":"Fanga","lat":15.0055886,"lon":-10.4164219,"type":"town"},{"id":"1703669736","name":"Fangasso","lat":13.5270139,"lon":-4.4464747,"type":"village"},{"id":"1703669751","name":"Farabana","lat":14.2946999,"lon":-7.8959339,"type":"village"},{"id":"1703669806","name":"Farindinia Falkoure","lat":12.0431828,"lon":-11.2896826,"type":"village"},{"id":"1703669843","name":"Folomana","lat":13.6022836,"lon":-5.1538371,"type":"village"},{"id":"1703669850","name":"Forgho Sonrhai","lat":16.5077908,"lon":-0.0733067,"type":"town"},{"id":"1703669866","name":"Founia Moribougou","lat":12.8970363,"lon":-9.4748098,"type":"village"},{"id":"1703669877","name":"Fraction Lalladji","lat":15.3892358,"lon":-4.839924,"type":"village"},{"id":"1703669879","name":"Gagna","lat":14.0114217,"lon":-4.5108597,"type":"town"},{"id":"1703669886","name":"Gakoura Rive Droite","lat":14.6132852,"lon":-11.842134,"type":"village"},{"id":"1703669895","name":"Gaminakoira","lat":16.975296,"lon":-0.033007,"type":"village"},{"id":"1703669902","name":"Garbakoira","lat":16.5074036,"lon":-3.1820102,"type":"town"},{"id":"1703669905","name":"Gargando","lat":16.4677932,"lon":-4.1688615,"type":"town"},{"id":"1703669912","name":"Gathi-Loumo","lat":15.4693603,"lon":-4.6116866,"type":"town"},{"id":"1703669916","name":"Gomitogo","lat":13.911383,"lon":-4.652222,"type":"village"},{"id":"1703669985","name":"Gongasso","lat":11.5314066,"lon":-5.7967064,"type":"village"},{"id":"1703669995","name":"Gonkourou","lat":14.0864539,"lon":-9.2487072,"type":"village"},{"id":"1703669999","name":"Gory Diafounou","lat":15.1056409,"lon":-10.7576645,"type":"town"},{"id":"1703670003","name":"Gossi","lat":15.819721,"lon":-1.3101051,"type":"town"},{"id":"1703670022","name":"Goumbou","lat":14.989494,"lon":-7.454688,"type":"town"},{"id":"1703670026","name":"Goumera","lat":14.5579209,"lon":-11.2986086,"type":"town"},{"id":"1703670035","name":"Goundam","lat":16.4168533,"lon":-3.6636275,"type":"city"},{"id":"1703670039","name":"Goundara","lat":14.0391658,"lon":-10.3669088,"type":"village"},{"id":"1703670057","name":"Gouranko","lat":10.6122614,"lon":-7.0197012,"type":"village"},{"id":"1703670061","name":"Gourma-Rharous","lat":16.8776652,"lon":-1.925352,"type":"city"},{"id":"1703670067","name":"Grouméra","lat":14.8288308,"lon":-9.1395387,"type":"town"},{"id":"1703670081","name":"Guémoukouraba","lat":14.2618413,"lon":-9.3217104,"type":"town"},{"id":"1703670085","name":"Guihoyo","lat":13.5035552,"lon":-8.2436813,"type":"town"},{"id":"1703670089","name":"Guirel","lat":15.450521,"lon":-7.1062639,"type":"village"},{"id":"1703670099","name":"Haibongo","lat":16.2229165,"lon":-3.2460603,"type":"village"},{"id":"1703670101","name":"Hamou","lat":15.0746478,"lon":-11.2691737,"type":"village"},{"id":"1703670110","name":"Hangabera","lat":16.5875088,"lon":-3.7258075,"type":"town"},{"id":"1703670114","name":"Haoussa-Foulane","lat":15.9950335,"lon":0.1318031,"type":"village"},{"id":"1703670120","name":"Hel Check Hamed","lat":16.562546,"lon":-5.1604695,"type":"village"},{"id":"1703670131","name":"Horokoto","lat":13.6225385,"lon":-11.3525862,"type":"village"},{"id":"1703670133","name":"Ichamaratene","lat":17.3824272,"lon":1.1463577,"type":"village"},{"id":"1703670141","name":"Icherifen","lat":17.3174942,"lon":2.2785751,"type":"village"},{"id":"1703670160","name":"Ichourad","lat":20.4740945,"lon":-1.154974,"type":"village"},{"id":"1703670162","name":"Idarfane","lat":17.0072114,"lon":0.943233,"type":"village"},{"id":"1703670164","name":"Idnane","lat":17.3768895,"lon":-1.8142413,"type":"village"},{"id":"1703670174","name":"Igawelene","lat":17.046916,"lon":1.2981556,"type":"village"},{"id":"1703670182","name":"Ikadeyane","lat":16.7422259,"lon":0.7609874,"type":"village"},{"id":"1703670186","name":"Ikanabassane","lat":16.322173,"lon":3.4780441,"type":"village"},{"id":"1703670193","name":"Ilokane Samit","lat":17.2368826,"lon":0.7769157,"type":"village"},{"id":"1703670198","name":"Imagrane Tikli","lat":16.9778974,"lon":0.4699427,"type":"village"},{"id":"1703670199","name":"Imagrane","lat":17.4189836,"lon":2.2409955,"type":"village"},{"id":"1703670203","name":"Imrad I","lat":15.4335301,"lon":0.1024841,"type":"village"},{"id":"1703670206","name":"In Amazzag","lat":16.8221017,"lon":-4.5997399,"type":"village"},{"id":"1703670209","name":"In Dagouber","lat":22.2349762,"lon":-2.6156878,"type":"village"},{"id":"1703670217","name":"In Delimane","lat":15.8685987,"lon":1.5275576,"type":"village"},{"id":"1703670220","name":"In Echai","lat":20.0735772,"lon":-1.9668205,"type":"village"},{"id":"1703670228","name":"In Tebezas","lat":17.8276632,"lon":1.8663596,"type":"village"},{"id":"1703670231","name":"In Techerene","lat":20.8983955,"lon":-0.1190596,"type":"village"},{"id":"1703670237","name":"Inabag","lat":19.3460999,"lon":-1.233645,"type":"town"},{"id":"1703670240","name":"Inadiatafane","lat":15.6418702,"lon":-2.152832,"type":"town"},{"id":"1703670243","name":"Iradjanatene","lat":19.6643227,"lon":2.2161189,"type":"village"},{"id":"1703670252","name":"Irayakane","lat":18.2475214,"lon":2.2494529,"type":"village"},{"id":"1703670262","name":"Kabakoro","lat":14.698233,"lon":-9.8529167,"type":"village"},{"id":"1703670283","name":"Gadiaba-Kadiel","lat":15.1269159,"lon":-9.6482088,"type":"village"},{"id":"1703670287","name":"Kadial","lat":14.6515405,"lon":-4.4375219,"type":"village"},{"id":"1703670303","name":"Kakoulou","lat":14.282668,"lon":-11.266184,"type":"village"},{"id":"1703670304","name":"Kal Affala","lat":17.9918017,"lon":2.5001058,"type":"village"},{"id":"1703670333","name":"Kal Tessalit","lat":20.2477016,"lon":0.7328075,"type":"village"},{"id":"1703670347","name":"Kalinioro","lat":15.363071,"lon":-11.7514166,"type":"town"},{"id":"1703670350","name":"Kaloumba","lat":14.8603422,"lon":-7.496625,"type":"village"},{"id":"1703670370","name":"Kani-Bonzon I","lat":14.1427217,"lon":-3.6190109,"type":"village"},{"id":"1703670397","name":"Karangana","lat":12.2209962,"lon":-5.0330985,"type":"town"},{"id":"1703670419","name":"Kargué","lat":14.7934385,"lon":-3.8144087,"type":"town"},{"id":"1703670425","name":"Kassaro","lat":12.9548819,"lon":-8.8751696,"type":"town"},{"id":"1703670426","name":"Kati","lat":12.7389091,"lon":-8.0684052,"type":"city"},{"id":"1703670428","name":"Kel Agayok","lat":17.2234789,"lon":3.6058389,"type":"village"},{"id":"1703670429","name":"Kel Agueris","lat":17.8442437,"lon":2.2839435,"type":"village"},{"id":"1703670430","name":"Kel Aharas","lat":16.2566792,"lon":1.9498155,"type":"village"},{"id":"1703670431","name":"Kel Azarh","lat":16.3093221,"lon":2.320294,"type":"village"},{"id":"1703670435","name":"Kel Eguitte","lat":15.1108512,"lon":1.0107265,"type":"village"},{"id":"1703670449","name":"Intikorayte","lat":15.6435083,"lon":3.3025504,"type":"village"},{"id":"1703670455","name":"Kel Tachaharte","lat":16.6615533,"lon":-1.8645327,"type":"village"},{"id":"1703670459","name":"Kel Tagho","lat":17.3734611,"lon":-0.9784886,"type":"village"},{"id":"1703670462","name":"Kel Taitof","lat":16.1962557,"lon":3.7400381,"type":"village"},{"id":"1703670466","name":"Kel Takaraghate","lat":17.373015,"lon":0.6291184,"type":"village"},{"id":"1703670476","name":"Kel Tinakawat","lat":17.1640791,"lon":-2.0171266,"type":"village"},{"id":"1703670478","name":"Kel-Razaf","lat":17.0934472,"lon":-4.4647953,"type":"village"},{"id":"1703670494","name":"Kiban","lat":13.578154,"lon":-7.3529765,"type":"town"},{"id":"1703670498","name":"Kiffosso I","lat":12.5020155,"lon":-4.9012854,"type":"town"},{"id":"1703670512","name":"Kirchamba","lat":16.3623701,"lon":-3.2473424,"type":"town"},{"id":"1703670519","name":"Kita","lat":13.0408383,"lon":-9.4889798,"type":"city"},{"id":"1703670544","name":"Kokry-Centre","lat":13.9591893,"lon":-5.5137777,"type":"village"},{"id":"1703670552","name":"Kola Sokoro","lat":11.4234235,"lon":-7.4434812,"type":"village"},{"id":"1703670556","name":"Kollah","lat":14.6148576,"lon":-7.2619959,"type":"village"},{"id":"1703670574","name":"Kolongo-Tomo","lat":13.8790243,"lon":-5.6860695,"type":"town"},{"id":"1703670594","name":"Kondi","lat":16.367709,"lon":-3.4760714,"type":"town"},{"id":"1703670598","name":"Kondo","lat":14.5460937,"lon":-4.8535814,"type":"village"},{"id":"1703670606","name":"Koniakary","lat":14.5776623,"lon":-10.8998515,"type":"town"},{"id":"1703670622","name":"Koporo-Na","lat":14.1295487,"lon":-3.3587246,"type":"village"},{"id":"1703670623","name":"Koporo Pen","lat":14.226349,"lon":-3.2993466,"type":"town"},{"id":"1703670629","name":"Kora","lat":14.5343116,"lon":-4.8855114,"type":"village"},{"id":"1703670632","name":"Kormou","lat":15.6753151,"lon":-4.2194059,"type":"town"},{"id":"1703670641","name":"Koro","lat":14.069845,"lon":-3.080698,"type":"city"},{"id":"1703670643","name":"Koronga","lat":15.3331931,"lon":-7.6149776,"type":"town"},{"id":"1703670644","name":"Kotouba","lat":13.4765123,"lon":-8.7254904,"type":"village"},{"id":"1703670654","name":"Kouakourou","lat":14.2222703,"lon":-4.4928822,"type":"village"},{"id":"1703670657","name":"Koubaye","lat":14.416084,"lon":-4.4299338,"type":"village"},{"id":"1703670664","name":"Koubi","lat":14.394167,"lon":-4.866944,"type":"village"},{"id":"1703670688","name":"Kouloum","lat":14.4509454,"lon":-11.3702068,"type":"village"},{"id":"1703670703","name":"Koumbewel","lat":14.986181,"lon":-3.0053898,"type":"village"},{"id":"1703670705","name":"Koumbia","lat":12.5948025,"lon":-4.6893918,"type":"town"},{"id":"1703670727","name":"Kourouba","lat":12.0099922,"lon":-8.2902631,"type":"town"},{"id":"1703670745","name":"Kourouninkoto","lat":13.8570985,"lon":-9.5759085,"type":"town"},{"id":"1703670755","name":"Koury","lat":12.181178,"lon":-4.8016714,"type":"town"},{"id":"1703670756","name":"Koutiala","lat":12.3894818,"lon":-5.4639199,"type":"town"},{"id":"1703670763","name":"Lambidou","lat":14.3132691,"lon":-9.5499244,"type":"town"},{"id":"1703670774","name":"Lany-Tounka","lat":14.7162227,"lon":-12.0549165,"type":"village"},{"id":"1703670777","name":"Lerneb","lat":16.3275802,"lon":-4.9641551,"type":"village"},{"id":"1703670791","name":"M'Bedïat","lat":15.4523108,"lon":-8.807004,"type":"village"},{"id":"1703670799","name":"M'Pessoba","lat":12.6654805,"lon":-5.7206908,"type":"town"},{"id":"1703670808","name":"Ke Macina","lat":13.962189,"lon":-5.3594898,"type":"town"},{"id":"1703670820","name":"Madiakoye","lat":16.7503708,"lon":-2.3647567,"type":"town"},{"id":"1703670836","name":"Madiama","lat":13.7943525,"lon":-4.3935074,"type":"town"},{"id":"1703670852","name":"Madina Sacko","lat":13.7845692,"lon":-7.5459009,"type":"town"},{"id":"1703670857","name":"Madougou-Dogon","lat":14.4006675,"lon":-3.0815234,"type":"town"},{"id":"1703670868","name":"Mamadou Tallatou","lat":15.8140482,"lon":0.9403062,"type":"village"},{"id":"1703670871","name":"Mamé-Yadass","lat":15.4436451,"lon":-6.799217,"type":"village"},{"id":"1703670881","name":"Mantionga","lat":15.4686994,"lon":-8.1247138,"type":"village"},{"id":"1703670889","name":"Maritoumania","lat":14.5831548,"lon":-10.8654174,"type":"village"},{"id":"1703670893","name":"Markabougou","lat":13.913119,"lon":-6.3433028,"type":"village"},{"id":"1703670896","name":"Markanibougou","lat":13.5941201,"lon":-6.1587805,"type":"village"},{"id":"1703670921","name":"Miniko-Soba","lat":11.1751639,"lon":-6.3344383,"type":"town"},{"id":"1703670924","name":"Minkiéri","lat":16.7572939,"lon":-2.4449878,"type":"town"},{"id":"1703670927","name":"Missidougou","lat":11.2640868,"lon":-5.2681151,"type":"village"},{"id":"1703670944","name":"Mongoro","lat":14.8183526,"lon":-10.7225813,"type":"village"},{"id":"1703670946","name":"Moribabougou","lat":12.6890841,"lon":-7.8666682,"type":"town"},{"id":"1703670980","name":"Mountougoula","lat":12.5295297,"lon":-7.8188365,"type":"town"},{"id":"1703670982","name":"Mourrah","lat":14.3296912,"lon":-4.5985843,"type":"village"},{"id":"1703670983","name":"Mourdiah","lat":14.4719244,"lon":-7.4716314,"type":"town"},{"id":"1703670984","name":"N'Daki","lat":15.35565,"lon":-0.9592044,"type":"village"},{"id":"1703670993","name":"N'Gabakoro-Droit","lat":12.6867186,"lon":-7.8385082,"type":"town"},{"id":"1703671001","name":"N'Gara","lat":12.372875,"lon":-6.8710867,"type":"town"},{"id":"1703671010","name":"N'Goa","lat":13.2430582,"lon":-5.1422133,"type":"village"},{"id":"1703671026","name":"N'Gorkou","lat":15.6584655,"lon":-3.7177201,"type":"town"},{"id":"1703671027","name":"N'Gouma","lat":15.63789,"lon":-3.370612,"type":"town"},{"id":"1703671033","name":"N'Goutjina","lat":12.2967454,"lon":-5.4785681,"type":"town"},{"id":"1703671050","name":"N'Tillit","lat":15.5223868,"lon":-0.4770194,"type":"village"},{"id":"1703671051","name":"N'Tjibougou","lat":14.4507278,"lon":-6.8626487,"type":"village"},{"id":"1703671086","name":"Nagara","lat":15.3716758,"lon":-11.6085468,"type":"village"},{"id":"1703671088","name":"Nampala","lat":15.2792405,"lon":-5.5517559,"type":"town"},{"id":"1703671092","name":"Nara","lat":15.1681858,"lon":-7.2870856,"type":"city"},{"id":"1703671095","name":"Ngoumèl","lat":15.415871,"lon":-7.3742422,"type":"village"},{"id":"1703671110","name":"Niantjila","lat":11.7985634,"lon":-6.5493885,"type":"town"},{"id":"1703671124","name":"Niono-Socoura","lat":14.2515197,"lon":-5.9783345,"type":"town"},{"id":"1703671134","name":"Nokara","lat":15.1748903,"lon":-2.3950321,"type":"village"},{"id":"1703671147","name":"Nonongo","lat":13.7003073,"lon":-5.5164341,"type":"village"},{"id":"1703671156","name":"Nouagis","lat":18.4048224,"lon":-3.0852373,"type":"village"},{"id":"1703671179","name":"Oussoubidiandia","lat":14.2493976,"lon":-10.4619937,"type":"town"},{"id":"1703671193","name":"Oualia","lat":13.5930067,"lon":-10.3794304,"type":"village"},{"id":"1703671216","name":"Ouaritoufoulout","lat":16.2215917,"lon":3.1537824,"type":"village"},{"id":"1703671220","name":"Ouattagouna","lat":15.1822008,"lon":0.722326,"type":"town"},{"id":"1703671226","name":"Ouenzzindougou","lat":12.5454764,"lon":-8.0856537,"type":"town"},{"id":"1703671249","name":"Oulad Boxib","lat":17.2974202,"lon":-2.5837751,"type":"village"},{"id":"1703671268","name":"Oulad-Mahame","lat":18.9160912,"lon":-2.3700438,"type":"village"},{"id":"1703671272","name":"Oullad Mellouk","lat":15.4639176,"lon":-2.3671155,"type":"village"},{"id":"1703671286","name":"Oumm El Jeyem","lat":21.4394672,"lon":-4.9069403,"type":"village"},{"id":"1703671315","name":"Ouolon","lat":13.5004989,"lon":-4.8615211,"type":"village"},{"id":"1703671323","name":"Ouro Modi","lat":14.2791497,"lon":-4.59924,"type":"village"},{"id":"1703671370","name":"Peulguelgobe","lat":16.2122497,"lon":-0.5127773,"type":"village"},{"id":"1703671392","name":"Pogo","lat":13.8987036,"lon":-5.9108719,"type":"village"},{"id":"1703671395","name":"Razelma","lat":16.5923828,"lon":-4.4596346,"type":"town"},{"id":"1703671411","name":"Rékerkaye","lat":15.0147523,"lon":-6.6783489,"type":"village"},{"id":"1703671417","name":"Sabary","lat":15.1636487,"lon":-6.998796,"type":"village"},{"id":"1703671419","name":"Sadiola","lat":13.891613,"lon":-11.7054385,"type":"town"},{"id":"1703671467","name":"Sagabala","lat":14.0849904,"lon":-8.1004728,"type":"village"},{"id":"1703671493","name":"Sagala","lat":14.1133092,"lon":-6.7274353,"type":"village"},{"id":"1703671512","name":"Sah","lat":15.6244231,"lon":-4.0487253,"type":"town"},{"id":"1703671517","name":"Salakoira","lat":16.0594431,"lon":-3.4593678,"type":"town"},{"id":"1703671566","name":"Sampaka","lat":15.1926426,"lon":-8.2737029,"type":"village"},{"id":"1703671569","name":"Sampara","lat":14.703444,"lon":-4.0440724,"type":"village"},{"id":"1703671616","name":"Sansanding","lat":13.7241613,"lon":-6.0051266,"type":"town"},{"id":"1703671636","name":"Sarro","lat":13.7208606,"lon":-5.2386041,"type":"town"},{"id":"1703671655","name":"Saye","lat":13.8289971,"lon":-4.9928342,"type":"town"},{"id":"1703671675","name":"Sebougou","lat":13.4169056,"lon":-6.3171625,"type":"town"},{"id":"1703671691","name":"Ségala Ndi","lat":14.5629536,"lon":-10.9726565,"type":"town"},{"id":"1703671700","name":"Selinkegny","lat":14.0959426,"lon":-10.7818534,"type":"town"},{"id":"1703671718","name":"Semmi","lat":14.9712461,"lon":-5.0952456,"type":"village"},{"id":"1703671766","name":"Sero","lat":14.811431,"lon":-11.062153,"type":"town"},{"id":"1703671815","name":"Sincina","lat":12.3521853,"lon":-5.4414486,"type":"village"},{"id":"1703671832","name":"Siradjouba","lat":10.9753254,"lon":-8.6607582,"type":"village"},{"id":"1703671861","name":"Sobougou","lat":14.8611718,"lon":-8.5458775,"type":"village"},{"id":"1703671866","name":"Socoura","lat":14.5380605,"lon":-4.0903538,"type":"town"},{"id":"1703671890","name":"Soignebougou","lat":13.2155028,"lon":-6.3483738,"type":"village"},{"id":"1703671899","name":"Sokolo","lat":14.7414252,"lon":-6.1209335,"type":"town"},{"id":"1703671912","name":"Sokora","lat":14.8112544,"lon":-4.9392471,"type":"village"},{"id":"1703671926","name":"Sokoura","lat":13.5059577,"lon":-3.7664481,"type":"town"},{"id":"1703671938","name":"Soloba","lat":11.2023806,"lon":-8.4500835,"type":"village"},{"id":"1703671954","name":"Somankidi","lat":14.5466671,"lon":-11.6077777,"type":"town"},{"id":"1703672032","name":"Soroly","lat":14.4402805,"lon":-3.486293,"type":"town"},{"id":"1703672045","name":"Soubala","lat":13.8636647,"lon":-3.5021139,"type":"town"},{"id":"1703672112","name":"Souleye","lat":13.8771867,"lon":-5.2433322,"type":"town"},{"id":"1703672116","name":"Soumpi","lat":15.8437212,"lon":-4.3242639,"type":"town"},{"id":"1703672141","name":"Soye","lat":14.2303347,"lon":-4.2790939,"type":"village"},{"id":"1703672159","name":"Sy","lat":13.6004327,"lon":-4.978182,"type":"village"},{"id":"1703672165","name":"Tabankort","lat":15.3912497,"lon":2.1054518,"type":"village"},{"id":"1703672176","name":"Taboye","lat":16.7147217,"lon":-0.2586111,"type":"town"},{"id":"1703672184","name":"Tafacirga","lat":14.7570027,"lon":-12.1904562,"type":"village"},{"id":"1703672190","name":"Tafez Fez","lat":17.3057674,"lon":3.7994246,"type":"village"},{"id":"1703672202","name":"Taga-Tellela","lat":13.9698943,"lon":-4.3977854,"type":"village"},{"id":"1703672223","name":"Tagnout Chagueret","lat":21.2810174,"lon":-0.6930709,"type":"village"},{"id":"1703672229","name":"Takaba","lat":15.03684,"lon":-10.477153,"type":"town"},{"id":"1703672240","name":"Tamanieret","lat":21.4306708,"lon":-2.3231777,"type":"village"},{"id":"1703672241","name":"Tambacara","lat":15.070127,"lon":-10.838926,"type":"town"},{"id":"1703672255","name":"Tanal","lat":15.3364548,"lon":-3.1302111,"type":"village"},{"id":"1703672262","name":"Taounnant","lat":20.0689685,"lon":-0.3401099,"type":"village"},{"id":"1703672268","name":"Tarkint","lat":17.4789259,"lon":0.1147599,"type":"town"},{"id":"1703672271","name":"Tassiga C-Boura","lat":15.4737531,"lon":0.7091097,"type":"town"},{"id":"1703672275","name":"Tazouikert","lat":21.4628286,"lon":-1.249285,"type":"village"},{"id":"1703672291","name":"Teghaza","lat":23.6122311,"lon":-4.9908983,"type":"village"},{"id":"1703672297","name":"Teichibe","lat":15.274217,"lon":-11.706231,"type":"town"},{"id":"1703672303","name":"Temakest","lat":17.843066,"lon":3.8225972,"type":"village"},{"id":"1703672307","name":"Tenikert","lat":17.8060482,"lon":3.1760111,"type":"village"},{"id":"1703672318","name":"Tin-Essako","lat":18.4509602,"lon":2.4897883,"type":"village"},{"id":"1703672320","name":"Tienkour","lat":16.2547195,"lon":-3.3291338,"type":"town"},{"id":"1703672321","name":"Tigana","lat":14.2620089,"lon":-10.7594224,"type":"village"},{"id":"1703672323","name":"Timissa","lat":13.8233609,"lon":-4.2062595,"type":"village"},{"id":"1703672326","name":"Tin Hama","lat":15.5808071,"lon":0.8901832,"type":"town"},{"id":"1703672327","name":"Tin Tehoune","lat":17.2851841,"lon":-2.770146,"type":"village"},{"id":"1703672329","name":"Tin Tersi","lat":19.6686182,"lon":-0.7314134,"type":"village"},{"id":"1703672331","name":"Tindirma","lat":16.1323283,"lon":-3.636287,"type":"town"},{"id":"1703672334","name":"Tingoura","lat":15.9508621,"lon":-3.3872632,"type":"village"},{"id":"1703672343","name":"Tiraraouine","lat":19.2283394,"lon":-0.5217805,"type":"village"},{"id":"1703672350","name":"Togou","lat":13.5911931,"lon":-5.9989037,"type":"town"},{"id":"1703672353","name":"Tombona","lat":13.9341179,"lon":-4.3176277,"type":"village"},{"id":"1703672356","name":"Tondidarou Ouro","lat":16.0095946,"lon":-4.1154888,"type":"village"},{"id":"1703672364","name":"Tongo-Tongo","lat":14.846378,"lon":-3.164139,"type":"town"},{"id":"1703672367","name":"Tonka","lat":16.1370414,"lon":-3.7490541,"type":"town"},{"id":"1703672388","name":"Tori","lat":13.6186213,"lon":-3.7080054,"type":"village"},{"id":"1703672389","name":"Tormose Est","lat":17.0288904,"lon":-4.8315574,"type":"village"},{"id":"1703672400","name":"Toroli","lat":13.9219465,"lon":-3.2204653,"type":"village"},{"id":"1703672423","name":"Toukabangou Tao","lat":16.7236147,"lon":-3.7802836,"type":"town"},{"id":"1703672434","name":"Toukoroba","lat":13.6105342,"lon":-7.0395654,"type":"town"},{"id":"1703672437","name":"Toumbouding","lat":12.7586893,"lon":-10.5663056,"type":"village"},{"id":"1703672443","name":"Tounbouba","lat":13.6816499,"lon":-12.0055398,"type":"village"},{"id":"1703672451","name":"Toungourou","lat":14.1430586,"lon":-2.6786571,"type":"town"},{"id":"1703672460","name":"Toutiala","lat":10.9689769,"lon":-7.1006862,"type":"town"},{"id":"1703672461","name":"Toya","lat":16.6568091,"lon":-3.0494148,"type":"town"},{"id":"1703672467","name":"Trolo II","lat":12.7879483,"lon":-8.8540976,"type":"village"},{"id":"1703672469","name":"Wabaria","lat":16.190782,"lon":-0.032205,"type":"town"},{"id":"1703672493","name":"Yanfolila","lat":11.174901,"lon":-8.152292,"type":"city"},{"id":"1703672507","name":"Yoro","lat":14.2452433,"lon":-2.8844832,"type":"village"},{"id":"1703672511","name":"Yoro","lat":14.279411,"lon":-2.135705,"type":"town"},{"id":"1703672531","name":"Yorosso","lat":12.3524881,"lon":-4.7768451,"type":"town"},{"id":"1703672532","name":"Youdiou","lat":14.2777837,"lon":-3.1715342,"type":"town"},{"id":"1703672543","name":"Youwarou","lat":15.3706088,"lon":-4.2615466,"type":"city"},{"id":"1703672548","name":"Zangaradougou","lat":11.3871621,"lon":-5.5969863,"type":"town"},{"id":"1704902387","name":"Somadougou","lat":14.2856012,"lon":-4.0642537,"type":"village"},{"id":"1707219318","name":"Léré","lat":15.7160981,"lon":-4.9021643,"type":"town"},{"id":"1707219327","name":"Niafunké","lat":15.931,"lon":-3.99,"type":"city"},{"id":"1707621787","name":"Diré","lat":16.2678091,"lon":-3.3971368,"type":"city"},{"id":"1707621789","name":"Inekar","lat":15.9486791,"lon":3.1572826,"type":"town"},{"id":"1707621796","name":"Ménaka","lat":15.9167,"lon":2.4,"type":"city"},{"id":"1716391919","name":"Taghlit","lat":19.7204324,"lon":0.9315069,"type":"village"},{"id":"1717464519","name":"Konna","lat":14.9441399,"lon":-3.8903866,"type":"town"},{"id":"1717464540","name":"Mopti","lat":14.4877275,"lon":-4.1892469,"type":"city"},{"id":"1717466865","name":"Ténenkou","lat":14.4547633,"lon":-4.9164995,"type":"city"},{"id":"1717506745","name":"Ségou","lat":13.441518,"lon":-6.268147,"type":"city"},{"id":"1723398511","name":"Sinde-Korbo","lat":14.4976756,"lon":-4.8223822,"type":"village"},{"id":"1723398516","name":"Daka","lat":14.5069573,"lon":-4.8252611,"type":"village"},{"id":"1723398534","name":"Samina","lat":14.5634018,"lon":-4.8844175,"type":"village"},{"id":"1723398550","name":"Saré-Toumou","lat":14.644549,"lon":-4.7453512,"type":"village"},{"id":"1723398557","name":"Sabéré","lat":14.6507684,"lon":-4.7609216,"type":"village"},{"id":"1723398564","name":"Bouta","lat":14.6765069,"lon":-4.683797,"type":"village"},{"id":"1723398575","name":"Diougui-Maoude","lat":14.6961353,"lon":-4.728216,"type":"village"},{"id":"1723398577","name":"Kombe","lat":14.7112182,"lon":-4.683723,"type":"village"},{"id":"1723398579","name":"Niasso-Tidde","lat":14.7190701,"lon":-4.7039652,"type":"village"},{"id":"1723398592","name":"Kamaka-Debele","lat":14.7713213,"lon":-4.6815892,"type":"village"},{"id":"1723398599","name":"Guélédié","lat":14.7907024,"lon":-4.8495027,"type":"village"},{"id":"1723398601","name":"Koubitéra","lat":14.8226388,"lon":-4.6894933,"type":"village"},{"id":"1723404372","name":"Koumba-Saré","lat":14.8984576,"lon":-4.6067581,"type":"village"},{"id":"1723404375","name":"Koumboulou","lat":14.9049272,"lon":-4.603666,"type":"village"},{"id":"1723404378","name":"Toguéré-Koumbé","lat":14.9196237,"lon":-4.5922612,"type":"village"},{"id":"1723414521","name":"Kamaka-Sebe","lat":14.8006567,"lon":-4.6351834,"type":"village"},{"id":"1723555185","name":"Sangha","lat":14.3918568,"lon":-4.8599389,"type":"village"},{"id":"1723555845","name":"Niga","lat":14.4477611,"lon":-4.7261216,"type":"village"},{"id":"1723556149","name":"Kéba","lat":14.4858985,"lon":-4.7904215,"type":"village"},{"id":"1723557647","name":"Sossobe","lat":14.5618259,"lon":-4.6736599,"type":"village"},{"id":"1724424985","name":"Bourasso","lat":13.6832504,"lon":-4.39643,"type":"village"},{"id":"1724424992","name":"Kessedougou","lat":13.7679198,"lon":-4.3688041,"type":"village"},{"id":"1724424993","name":"Kouin","lat":13.7887948,"lon":-4.5001855,"type":"village"},{"id":"1724424996","name":"Soula","lat":13.7981146,"lon":-4.5316149,"type":"village"},{"id":"1724424997","name":"Siragourou","lat":13.8174312,"lon":-4.3417002,"type":"village"},{"id":"1724424998","name":"Torokoro A","lat":13.8580829,"lon":-4.3023132,"type":"village"},{"id":"1724425003","name":"Balle Seyna","lat":13.9079078,"lon":-4.4627202,"type":"village"},{"id":"1724425006","name":"Kera","lat":13.9172279,"lon":-4.4557777,"type":"village"},{"id":"1724425013","name":"Gomnikouboye","lat":13.9393049,"lon":-4.5458575,"type":"village"},{"id":"1724425014","name":"Sirimou","lat":13.9398693,"lon":-4.6058835,"type":"village"},{"id":"1724425016","name":"Senossa","lat":13.9555036,"lon":-4.5688567,"type":"village"},{"id":"1724425017","name":"Wono","lat":13.9592253,"lon":-4.6153697,"type":"village"},{"id":"1724425019","name":"Taga-Marka","lat":13.9615318,"lon":-4.3982666,"type":"village"},{"id":"1724425020","name":"Weraka","lat":13.9701277,"lon":-4.6142518,"type":"village"},{"id":"1724425021","name":"Koumaga-Peulh","lat":13.9837218,"lon":-4.3971726,"type":"village"},{"id":"1724425046","name":"Fangadougou","lat":14.1538596,"lon":-4.0628361,"type":"village"},{"id":"1724425047","name":"Bambarawel","lat":14.1638591,"lon":-4.1233596,"type":"village"},{"id":"1724425052","name":"Soungalobougou","lat":14.1710557,"lon":-4.1116787,"type":"village"},{"id":"1724425055","name":"Tondaka","lat":14.1805535,"lon":-4.1204626,"type":"village"},{"id":"1724425058","name":"Tomikoro","lat":14.1831896,"lon":-4.1018675,"type":"village"},{"id":"1724425060","name":"Allaye Daga ou Dianat","lat":14.2046095,"lon":-4.1077322,"type":"village"},{"id":"1724425120","name":"Sinankoro","lat":14.3264376,"lon":-4.0765456,"type":"village"},{"id":"1724425121","name":"Karamani","lat":14.330426,"lon":-4.0427129,"type":"village"},{"id":"1724425127","name":"Sare-Mah","lat":14.5370011,"lon":-4.0654761,"type":"village"},{"id":"1724425128","name":"Doundou","lat":14.5405237,"lon":-4.0459683,"type":"village"},{"id":"1724425129","name":"Pare","lat":14.5503397,"lon":-4.0687602,"type":"village"},{"id":"1724425132","name":"Sinakoro","lat":14.5730198,"lon":-4.0522307,"type":"village"},{"id":"1724425136","name":"Diambadougou","lat":14.6011812,"lon":-4.0380908,"type":"village"},{"id":"1724425137","name":"Thy","lat":14.6032666,"lon":-4.0640039,"type":"village"},{"id":"1724425142","name":"Sassolo","lat":14.6267121,"lon":-4.0513114,"type":"village"},{"id":"1724425147","name":"Dalédougou","lat":14.6321894,"lon":-4.026928,"type":"village"},{"id":"1724425148","name":"Kourga","lat":14.6355052,"lon":-4.0641654,"type":"village"},{"id":"1724425149","name":"Souma","lat":14.6403721,"lon":-4.0275589,"type":"village"},{"id":"1724425150","name":"Tiaboli Aldiouma","lat":14.6540326,"lon":-4.0168132,"type":"village"},{"id":"1724425197","name":"Fafa","lat":15.3217878,"lon":0.7464849,"type":"village"},{"id":"1724425211","name":"Bentia","lat":15.3513592,"lon":0.7587086,"type":"village"},{"id":"1724425225","name":"Firthindi","lat":15.4056991,"lon":0.7474074,"type":"village"},{"id":"1724425226","name":"Youni","lat":15.4241369,"lon":0.7410458,"type":"village"},{"id":"1724565033","name":"Tiokani","lat":14.1258238,"lon":-4.0908613,"type":"village"},{"id":"1724565153","name":"Mouna","lat":14.2512819,"lon":-4.0968347,"type":"village"},{"id":"1724565508","name":"Diabi","lat":14.4398854,"lon":-4.1305564,"type":"village"},{"id":"1724565517","name":"Ouornion","lat":14.4478685,"lon":-4.0863932,"type":"village"},{"id":"1724565758","name":"Diondiori","lat":14.5425515,"lon":-4.1152642,"type":"village"},{"id":"1724565771","name":"Sakarel","lat":14.5662088,"lon":-4.1059669,"type":"village"},{"id":"1724565772","name":"Bacoro","lat":14.5671821,"lon":-4.0859474,"type":"village"},{"id":"1724613528","name":"Sorguéré","lat":14.2630252,"lon":-4.2686214,"type":"village"},{"id":"1724613570","name":"Neima","lat":14.2753761,"lon":-4.1837747,"type":"village"},{"id":"1724613777","name":"Songopa Ouro Hamadi","lat":14.3040255,"lon":-4.2659054,"type":"village"},{"id":"1724613912","name":"Saré-Mala","lat":14.3166627,"lon":-4.2330877,"type":"village"},{"id":"1724614187","name":"Téké","lat":14.3450948,"lon":-4.2706256,"type":"village"},{"id":"1724614365","name":"Sare-Guida","lat":14.3682344,"lon":-4.1934591,"type":"village"},{"id":"1724635489","name":"Nianangali","lat":14.4559221,"lon":-4.0139385,"type":"village"},{"id":"1725476862","name":"Wailirde","lat":14.5312693,"lon":-4.0774781,"type":"village"},{"id":"1725480494","name":"Bomboukoré","lat":14.5270282,"lon":-3.9882061,"type":"village"},{"id":"1725490750","name":"Mamourou","lat":14.5712722,"lon":-4.0362254,"type":"village"},{"id":"1725490807","name":"Komboko","lat":14.5899565,"lon":-4.013043,"type":"village"},{"id":"1725490971","name":"Koana","lat":14.7438992,"lon":-4.0802433,"type":"village"},{"id":"1725490993","name":"Komio","lat":14.7570434,"lon":-4.0808206,"type":"village"},{"id":"1725491020","name":"Sensé","lat":14.817886,"lon":-4.0870575,"type":"village"},{"id":"1725491029","name":"Sensé-Ladji","lat":14.8433184,"lon":-4.0662767,"type":"village"},{"id":"1725491064","name":"Kotaka","lat":14.8936648,"lon":-3.999527,"type":"village"},{"id":"1725491069","name":"Saré Mama","lat":14.8957961,"lon":-4.0395972,"type":"village"},{"id":"1725491075","name":"Ninga","lat":14.9156136,"lon":-4.0069429,"type":"village"},{"id":"1725811097","name":"Sévaré","lat":14.5224127,"lon":-4.0921345,"type":"town"},{"id":"1726667406","name":"Oualo","lat":14.7471274,"lon":-4.5716513,"type":"village"},{"id":"1726667410","name":"Tanda","lat":14.7542383,"lon":-4.5537102,"type":"village"},{"id":"1727328276","name":"Ioure","lat":14.7866993,"lon":-4.5989455,"type":"village"},{"id":"1728164051","name":"Sormé","lat":14.8707602,"lon":-4.40656,"type":"village"},{"id":"1728165468","name":"Koundoubadje","lat":14.8783587,"lon":-4.3527662,"type":"village"},{"id":"1728224469","name":"Kakagnan-Bozo","lat":14.9199951,"lon":-4.3277838,"type":"village"},{"id":"1728476319","name":"Tina","lat":14.6401586,"lon":-4.676909,"type":"village"},{"id":"1729072316","name":"Kana","lat":14.8118753,"lon":-4.5428277,"type":"village"},{"id":"1742182538","name":"N'Dienso","lat":13.5278181,"lon":-4.3825024,"type":"village"},{"id":"1752732381","name":"Séguéra","lat":14.1308144,"lon":-4.2760139,"type":"village"},{"id":"1754375076","name":"Boundoure-Timissa","lat":13.9325714,"lon":-4.2012243,"type":"village"},{"id":"1754375081","name":"Boundoure-Fakala","lat":13.9367231,"lon":-4.1990289,"type":"village"},{"id":"1754375094","name":"Woro Amadou Guindo","lat":13.9527315,"lon":-4.2104733,"type":"village"},{"id":"1754375098","name":"Nema","lat":13.9566944,"lon":-4.2077877,"type":"village"},{"id":"1754375178","name":"Kombaka","lat":13.9663003,"lon":-4.2375881,"type":"village"},{"id":"1754375565","name":"Diaba-Allaye","lat":14.0024529,"lon":-4.2012859,"type":"village"},{"id":"1754375725","name":"Kaka","lat":14.0166461,"lon":-4.241223,"type":"village"},{"id":"1754375794","name":"Guidiowel","lat":14.0715385,"lon":-4.1979422,"type":"village"},{"id":"1754376066","name":"Sanguira","lat":14.2916112,"lon":-4.4186609,"type":"village"},{"id":"1754386051","name":"Djiguene","lat":13.9718472,"lon":-4.3088959,"type":"village"},{"id":"1754386264","name":"Kounti-Bambara","lat":13.9819051,"lon":-4.2883147,"type":"village"},{"id":"1754386451","name":"Ndobougou","lat":13.99431,"lon":-4.293594,"type":"village"},{"id":"1754386488","name":"Dorobougou","lat":13.9918804,"lon":-4.3308027,"type":"village"},{"id":"1754422294","name":"Goundaka","lat":14.0674977,"lon":-4.180806,"type":"village"},{"id":"1754422371","name":"Tedawouro","lat":14.1126407,"lon":-4.2203973,"type":"village"},{"id":"1755221185","name":"Sofara","lat":14.0171201,"lon":-4.2312194,"type":"town"},{"id":"1755300716","name":"Montorobougou","lat":14.0427086,"lon":-4.2456761,"type":"village"},{"id":"1756248504","name":"Nouna","lat":13.8537394,"lon":-4.3929239,"type":"village"},{"id":"1756453078","name":"Sarantomo","lat":13.7599688,"lon":-4.4616287,"type":"village"},{"id":"1756454697","name":"Nerecoro","lat":13.8039024,"lon":-4.3693963,"type":"village"},{"id":"1757289848","name":"Balaguina-Habe","lat":13.9824173,"lon":-4.036489,"type":"village"},{"id":"1757289891","name":"Sine-Kanda","lat":14.0075081,"lon":-4.066633,"type":"village"},{"id":"1757289908","name":"Sissébougou","lat":13.7552129,"lon":-4.2529334,"type":"village"},{"id":"1757291717","name":"Balaguina-Foulbe","lat":13.9868573,"lon":-4.0230829,"type":"village"},{"id":"1757475868","name":"Koundaraka","lat":13.9122271,"lon":-4.2771567,"type":"village"},{"id":"1757475874","name":"Sikoroni Boundourou","lat":13.8978075,"lon":-4.2164535,"type":"village"},{"id":"1757803987","name":"Diorobougou","lat":13.9898045,"lon":-4.3741196,"type":"village"},{"id":"1757803990","name":"Kabio","lat":14.0706692,"lon":-4.2520581,"type":"village"},{"id":"1757803993","name":"Konda","lat":13.9619187,"lon":-4.3438992,"type":"village"},{"id":"1757803994","name":"Moupa-Kabio","lat":14.0953662,"lon":-4.2763526,"type":"village"},{"id":"1757803995","name":"Mégou","lat":14.1331741,"lon":-4.3397826,"type":"village"},{"id":"1757803996","name":"Niala","lat":13.9158429,"lon":-4.5307034,"type":"village"},{"id":"1757803997","name":"Waya","lat":13.9619106,"lon":-4.4319725,"type":"village"},{"id":"1757803998","name":"Perta","lat":13.9773844,"lon":-4.4291887,"type":"village"},{"id":"1757804000","name":"Sare Heyre","lat":14.1354944,"lon":-4.3187075,"type":"village"},{"id":"1757804001","name":"Saré-Koura","lat":14.1071462,"lon":-4.2676325,"type":"village"},{"id":"1757804005","name":"Toumayé","lat":14.2279246,"lon":-4.3488465,"type":"village"},{"id":"1757804006","name":"Tékétia","lat":14.2669759,"lon":-4.2023262,"type":"village"},{"id":"1757804007","name":"Yomi","lat":13.9605348,"lon":-4.3675977,"type":"village"},{"id":"1762944455","name":"Baratou","lat":13.9417836,"lon":-4.3898661,"type":"village"},{"id":"1796489476","name":"Aljanagounga","lat":16.6398004,"lon":-0.2205878,"type":"village"},{"id":"1797296610","name":"Aguinaouiaoui","lat":16.4009833,"lon":-0.1001584,"type":"village"},{"id":"1797296643","name":"Bartaga","lat":16.3712998,"lon":-0.0796936,"type":"village"},{"id":"1797296679","name":"Chembé","lat":16.2623893,"lon":-0.095365,"type":"village"},{"id":"1797296725","name":"Gabamé","lat":16.4515515,"lon":-0.1188735,"type":"village"},{"id":"1797296735","name":"Garat","lat":16.8181971,"lon":-0.2523908,"type":"village"},{"id":"1797296755","name":"Korchakari","lat":16.4308922,"lon":-0.116741,"type":"village"},{"id":"1797296773","name":"Koïma","lat":16.3215359,"lon":-0.0718213,"type":"village"},{"id":"1797296777","name":"Minyo Souba","lat":16.4231627,"lon":-0.1125929,"type":"village"},{"id":"1797296780","name":"Ouakari","lat":16.1274847,"lon":0.034842,"type":"village"},{"id":"1797296801","name":"Tinel","lat":16.3039196,"lon":-0.0838116,"type":"village"},{"id":"1797342720","name":"Abaladougou Kéniéba","lat":12.0432496,"lon":-8.6312561,"type":"village"},{"id":"1797342875","name":"Adounkambe","lat":14.2109109,"lon":-3.0298296,"type":"village"},{"id":"1797343062","name":"Akabar","lat":15.3520268,"lon":1.9961466,"type":"village"},{"id":"1797343068","name":"Akor Tagdaouss","lat":15.4045492,"lon":-6.9277638,"type":"village"},{"id":"1797343153","name":"Allasso","lat":14.9227276,"lon":-8.0237228,"type":"village"},{"id":"1797343164","name":"Alahina","lat":14.6643301,"lon":-11.1860808,"type":"village"},{"id":"1797343173","name":"Alfo","lat":16.6414418,"lon":-3.7518652,"type":"village"},{"id":"1797343249","name":"Almaniana","lat":14.8305374,"lon":-5.3229889,"type":"village"},{"id":"1797343253","name":"Almi","lat":15.0244318,"lon":-2.8489518,"type":"village"},{"id":"1797343294","name":"Ama-Koyra","lat":16.0251503,"lon":-3.857231,"type":"village"},{"id":"1797343342","name":"Amadilimane","lat":14.7826706,"lon":-5.8308864,"type":"village"},{"id":"1797343423","name":"Hamar Ould Sidi","lat":15.0149645,"lon":-9.0827976,"type":"village"},{"id":"1797343466","name":"Amba","lat":14.7916022,"lon":-2.9707389,"type":"village"},{"id":"1797343519","name":"Ambassa-Habbe","lat":14.0063984,"lon":-3.6616124,"type":"village"},{"id":"1797343543","name":"Ambidedi Khoré","lat":14.5899172,"lon":-11.756933,"type":"village"},{"id":"1797343696","name":"Anagara","lat":13.8354793,"lon":-3.4014791,"type":"village"},{"id":"1797343737","name":"Anakadié","lat":14.453854,"lon":-3.0724618,"type":"village"},{"id":"1797343828","name":"Anakila","lat":14.5757117,"lon":-3.0662111,"type":"village"},{"id":"1797343868","name":"Anamouila","lat":14.1238525,"lon":-3.3637727,"type":"village"},{"id":"1797343873","name":"Anamoila","lat":13.8778795,"lon":-3.5320575,"type":"village"},{"id":"1797343929","name":"Andiamana","lat":14.0553684,"lon":-3.4023358,"type":"village"},{"id":"1797344147","name":"Toumbinassou","lat":14.0891013,"lon":-10.3177337,"type":"village"},{"id":"1797344228","name":"Louady Chérif","lat":14.7479693,"lon":-6.5611223,"type":"village"},{"id":"1797344266","name":"Aouguiné","lat":14.7830876,"lon":-2.9843879,"type":"village"},{"id":"1797344271","name":"Aoune","lat":15.8848,"lon":-3.7848,"type":"village"},{"id":"1797344292","name":"Aouré","lat":15.5218,"lon":-4.3117,"type":"village"},{"id":"1797556141","name":"Dongame","lat":15.9638831,"lon":0.1201892,"type":"village"},{"id":"1797556169","name":"Kardjimé","lat":15.9741134,"lon":0.1111166,"type":"village"},{"id":"1797556175","name":"Koissa","lat":15.9413846,"lon":0.1609158,"type":"village"},{"id":"1797556177","name":"Marga","lat":16.1036504,"lon":0.0694994,"type":"village"},{"id":"1797556178","name":"Saina goumba jindé","lat":16.3564414,"lon":-0.019676,"type":"village"},{"id":"1797556198","name":"Alkoïra","lat":16.1639886,"lon":0.0658757,"type":"village"},{"id":"1797556203","name":"Todyel Gargouna","lat":15.971086,"lon":0.1706347,"type":"village"},{"id":"1797556208","name":"Zinda","lat":16.0140447,"lon":0.0817088,"type":"village"},{"id":"1824345826","name":"In Aoukert","lat":16.7990491,"lon":0.1677802,"type":"village"},{"id":"1824395006","name":"Amasrakad","lat":17.0818307,"lon":0.7639577,"type":"village"},{"id":"1824843420","name":"Tacharane","lat":16.1515156,"lon":0.0708137,"type":"village"},{"id":"1838656755","name":"Bakaribougou","lat":12.6520047,"lon":-7.9705171,"type":"village"},{"id":"1896773064","name":"Doro","lat":16.1137949,"lon":-0.8606071,"type":"village"},{"id":"1985528796","name":"Diabou Gou","lat":14.5406409,"lon":-12.2139953,"type":"village"},{"id":"1986223980","name":"Kondonya","lat":12.3577147,"lon":-11.0501429,"type":"town"},{"id":"1986253719","name":"Kéniéba","lat":12.8407105,"lon":-11.232153,"type":"city"},{"id":"1986296458","name":"Babaya","lat":13.6108396,"lon":-12.0131237,"type":"village"},{"id":"1986296800","name":"Dialambi","lat":14.5121413,"lon":-12.2138547,"type":"village"},{"id":"1986296808","name":"Dramané","lat":14.5657618,"lon":-12.1833882,"type":"village"},{"id":"1986296839","name":"Fégui","lat":14.6218504,"lon":-12.1478707,"type":"town"},{"id":"1986296863","name":"Goundiamou","lat":14.6630623,"lon":-12.1656306,"type":"village"},{"id":"1986296886","name":"Sangalou","lat":14.7207926,"lon":-12.2077509,"type":"village"},{"id":"1986296887","name":"Kabou","lat":14.7323448,"lon":-12.091438,"type":"village"},{"id":"1986296896","name":"Gouthioube","lat":14.7580352,"lon":-12.2293898,"type":"village"},{"id":"1986296897","name":"Kotera","lat":14.7593256,"lon":-12.1760517,"type":"village"},{"id":"1986296898","name":"Ségala","lat":14.7608134,"lon":-12.1238616,"type":"village"},{"id":"1987739106","name":"Digokory","lat":14.6767382,"lon":-12.00078,"type":"village"},{"id":"1996765796","name":"Makadougou","lat":14.2319812,"lon":-10.800393,"type":"village"},{"id":"1996788829","name":"Diakadromou","lat":15.0283555,"lon":-10.8929394,"type":"village"},{"id":"1996788897","name":"Kersignané","lat":14.992796,"lon":-10.984952,"type":"town"},{"id":"1996788901","name":"Dyabougou","lat":14.9897685,"lon":-10.9449249,"type":"village"},{"id":"1996806344","name":"Yaguiné","lat":15.1254828,"lon":-10.7249786,"type":"town"},{"id":"1996806356","name":"Yarka","lat":15.0962363,"lon":-10.5988032,"type":"village"},{"id":"1996806372","name":"Yélimané","lat":15.1189,"lon":-10.572839,"type":"city"},{"id":"1996806437","name":"Dionkoulané","lat":15.1027414,"lon":-10.6446819,"type":"town"},{"id":"1996812388","name":"Topokoné","lat":15.0367319,"lon":-10.576549,"type":"village"},{"id":"1996815710","name":"Ségué","lat":15.339154,"lon":-9.2437083,"type":"village"},{"id":"1996815732","name":"Khoudatiou","lat":15.291805,"lon":-9.2782584,"type":"village"},{"id":"1996815773","name":"Nomo Madina","lat":15.3903568,"lon":-9.2426103,"type":"village"},{"id":"1996825940","name":"Diandioumé","lat":15.3984984,"lon":-9.3762094,"type":"town"},{"id":"1997892643","name":"Tongorongo","lat":14.5994083,"lon":-4.1688808,"type":"village"},{"id":"1997892795","name":"Missila","lat":14.6972421,"lon":-4.1016793,"type":"village"},{"id":"1997892882","name":"Foussi","lat":14.7284563,"lon":-4.004612,"type":"village"},{"id":"2015825863","name":"Kéniédifé","lat":13.8076207,"lon":-9.8562852,"type":"village"},{"id":"2021706226","name":"Dourou","lat":14.3038891,"lon":-3.4321668,"type":"village"},{"id":"2021706988","name":"Wédié","lat":14.3604247,"lon":-3.4776788,"type":"village"},{"id":"2032098356","name":"Kidal","lat":18.4408358,"lon":1.4075395,"type":"city"},{"id":"2074398729","name":"I-n-Guiba","lat":17.6326622,"lon":-1.4735308,"type":"village"},{"id":"2074399151","name":"T-in-Tates","lat":17.2801106,"lon":-1.3277291,"type":"village"},{"id":"2074486765","name":"Tougouma","lat":14.1165568,"lon":-5.5500411,"type":"village"},{"id":"2100137782","name":"Diakoya","lat":15.4050668,"lon":-7.4214501,"type":"village"},{"id":"2105668263","name":"Kinani","lat":15.0141039,"lon":-3.8553232,"type":"village"},{"id":"2106468624","name":"Kouentza","lat":15.0557444,"lon":-3.8732363,"type":"village"},{"id":"2106476436","name":"Ouméré","lat":15.1179186,"lon":-3.8891695,"type":"village"},{"id":"2106476449","name":"Doï","lat":15.1895847,"lon":-3.8708049,"type":"village"},{"id":"2106476451","name":"Wangala","lat":15.2682204,"lon":-3.8454848,"type":"village"},{"id":"2106476452","name":"Gouloumbo","lat":15.2762746,"lon":-3.7625339,"type":"village"},{"id":"2106476453","name":"Bokore","lat":15.2805351,"lon":-3.865058,"type":"village"},{"id":"2109710118","name":"Attara","lat":15.6605528,"lon":-4.3511695,"type":"village"},{"id":"2109710121","name":"Bia","lat":15.6482855,"lon":-4.3432987,"type":"village"},{"id":"2109710144","name":"Mayel Bourgou","lat":15.6199554,"lon":-4.2895791,"type":"village"},{"id":"2109714287","name":"Sa Touskel","lat":15.6760387,"lon":-4.3036514,"type":"village"},{"id":"2110422215","name":"Dianké","lat":15.7265378,"lon":-4.6419549,"type":"village"},{"id":"2111677023","name":"Diakoro","lat":13.5281328,"lon":-6.1506425,"type":"village"},{"id":"2111690963","name":"Kama-Sokala","lat":13.5463902,"lon":-6.0326186,"type":"village"},{"id":"2111691051","name":"Zanabougou","lat":13.5545151,"lon":-6.0619496,"type":"village"},{"id":"2111691681","name":"Dougouba","lat":13.5754829,"lon":-6.1113913,"type":"village"},{"id":"2113391577","name":"Barkérou","lat":15.2632581,"lon":-5.5849998,"type":"village"},{"id":"2113391592","name":"Dianwéli","lat":15.2239056,"lon":-5.5973327,"type":"village"},{"id":"2113391603","name":"N'Doupa","lat":15.2912795,"lon":-5.5143685,"type":"village"},{"id":"2113392956","name":"Rangabé","lat":15.1919979,"lon":-5.5889286,"type":"village"},{"id":"2113392957","name":"Toulé","lat":15.1488441,"lon":-5.574761,"type":"village"},{"id":"2113449176","name":"Dembaka","lat":14.7675369,"lon":-5.1062387,"type":"village"},{"id":"2113449186","name":"Diaratoula","lat":14.8895857,"lon":-5.219873,"type":"village"},{"id":"2113449191","name":"Diguiciré","lat":14.6678878,"lon":-5.0719529,"type":"village"},{"id":"2113449193","name":"Diolli","lat":15.4374394,"lon":-4.3863329,"type":"village"},{"id":"2113449213","name":"Doungoura","lat":15.0440835,"lon":-4.766542,"type":"village"},{"id":"2113449231","name":"Finadji","lat":14.8658793,"lon":-5.3075011,"type":"village"},{"id":"2113449294","name":"Koroguiri","lat":14.7394624,"lon":-5.3277458,"type":"village"},{"id":"2113449307","name":"Kourmoussana","lat":14.7456493,"lon":-5.0358529,"type":"village"},{"id":"2113449356","name":"Mayel-Kondo","lat":15.0413211,"lon":-4.7124278,"type":"village"},{"id":"2113450616","name":"Tintirabe","lat":15.2033417,"lon":-5.614459,"type":"village"},{"id":"2113450667","name":"Soribougou","lat":14.851526,"lon":-5.3189882,"type":"village"},{"id":"2113450684","name":"Toladji","lat":15.221899,"lon":-5.3833669,"type":"village"},{"id":"2113450687","name":"Tomoro","lat":15.0731247,"lon":-4.7216946,"type":"village"},{"id":"2113450701","name":"Tioudy","lat":14.8730098,"lon":-5.2828287,"type":"village"},{"id":"2113450709","name":"Yassalam","lat":14.6071406,"lon":-5.0925116,"type":"village"},{"id":"2113450711","name":"Yéré-Yéré","lat":15.0635145,"lon":-4.4539789,"type":"village"},{"id":"2115201028","name":"Dandougou","lat":14.1988625,"lon":-6.9242881,"type":"village"},{"id":"2115201707","name":"Madina Konaré","lat":14.1255652,"lon":-7.0116819,"type":"village"},{"id":"2115271901","name":"Tablénko","lat":14.6365197,"lon":-6.5324994,"type":"village"},{"id":"2115340549","name":"Dampha","lat":14.1497638,"lon":-7.4989014,"type":"village"},{"id":"2115889645","name":"Diartou","lat":15.7892619,"lon":-4.5821674,"type":"village"},{"id":"2115889663","name":"Dialamaka","lat":15.6837226,"lon":-4.7271806,"type":"village"},{"id":"2115889669","name":"Diéna","lat":15.6630349,"lon":-4.4391905,"type":"village"},{"id":"2115889690","name":"Kokonto","lat":15.8216328,"lon":-4.5141208,"type":"village"},{"id":"2115895716","name":"Sanbani","lat":15.7504203,"lon":-4.5478692,"type":"village"},{"id":"2115895723","name":"Tringa","lat":15.6954917,"lon":-4.739585,"type":"village"},{"id":"2116994023","name":"Barkabougou","lat":14.2800689,"lon":-5.5580527,"type":"village"},{"id":"2117726661","name":"N'Débougou","lat":14.3740654,"lon":-5.9774113,"type":"village"},{"id":"2119539202","name":"Douokou","lat":15.6984467,"lon":-4.1848127,"type":"village"},{"id":"2119539218","name":"Owa","lat":15.6293927,"lon":-4.1785485,"type":"village"},{"id":"2120550176","name":"Sare Seini","lat":14.4877842,"lon":-4.2434515,"type":"village"},{"id":"2120569300","name":"Tondougou","lat":14.3651815,"lon":-4.2755259,"type":"village"},{"id":"2120569355","name":"Toumoura","lat":14.4175227,"lon":-4.3102139,"type":"village"},{"id":"2120601204","name":"Yogonsire","lat":14.3942177,"lon":-4.407599,"type":"village"},{"id":"2120718340","name":"Bargondaga II","lat":14.5347304,"lon":-4.1992359,"type":"village"},{"id":"2120718373","name":"Kobaka","lat":14.527868,"lon":-4.2100843,"type":"village"},{"id":"2120718550","name":"Nantaka","lat":14.5390013,"lon":-4.2131088,"type":"village"},{"id":"2120748161","name":"Dianlokai","lat":14.9689183,"lon":-3.9202399,"type":"village"},{"id":"2120748162","name":"Koubi","lat":14.9249865,"lon":-3.9549149,"type":"village"},{"id":"2120877540","name":"Severy-Ouro","lat":14.7560205,"lon":-4.1929128,"type":"village"},{"id":"2120877809","name":"Nemende","lat":14.6637926,"lon":-4.1713885,"type":"village"},{"id":"2120877966","name":"Payonna II","lat":14.8440093,"lon":-4.337906,"type":"village"},{"id":"2120878594","name":"Wandiaka","lat":14.7012999,"lon":-4.1436787,"type":"village"},{"id":"2120878972","name":"Sina","lat":14.6088659,"lon":-4.1457831,"type":"village"},{"id":"2120879266","name":"Dayebe","lat":14.7309734,"lon":-4.1518376,"type":"village"},{"id":"2120879345","name":"Poutchy","lat":14.6778218,"lon":-4.1866051,"type":"village"},{"id":"2121033480","name":"Niemakoré","lat":15.0760764,"lon":-7.3232947,"type":"village"},{"id":"2121033520","name":"Soutourabougou","lat":14.9827477,"lon":-7.3554665,"type":"village"},{"id":"2121033672","name":"Toulel","lat":14.8791854,"lon":-7.4394454,"type":"village"},{"id":"2121033715","name":"Nima Bélabougou","lat":15.0647223,"lon":-7.3048156,"type":"village"},{"id":"2121033885","name":"Tassirima","lat":15.0968352,"lon":-7.2866624,"type":"village"},{"id":"2121040137","name":"Guire","lat":14.6417223,"lon":-6.6918547,"type":"town"},{"id":"2121051890","name":"Tougou","lat":14.4860738,"lon":-5.6276258,"type":"village"},{"id":"2121573492","name":"Dioukaina","lat":15.8717575,"lon":-3.7756109,"type":"village"},{"id":"2121573913","name":"Saraféré","lat":15.823207,"lon":-3.696052,"type":"town"},{"id":"2122109724","name":"Diarabougou","lat":13.5023344,"lon":-6.1080957,"type":"village"},{"id":"2122109915","name":"Banabougounikoro","lat":13.6178442,"lon":-6.0929923,"type":"village"},{"id":"2122110196","name":"Thio","lat":13.7165065,"lon":-6.0338389,"type":"village"},{"id":"2122122839","name":"Kominé","lat":13.6606362,"lon":-5.8715679,"type":"town"},{"id":"2122122948","name":"Baka-Were","lat":13.6808974,"lon":-6.0388882,"type":"village"},{"id":"2122124379","name":"N'Gassan-Were","lat":13.5393768,"lon":-6.0055733,"type":"village"},{"id":"2122451212","name":"Gonda","lat":15.5152696,"lon":-3.89892,"type":"village"},{"id":"2124112211","name":"Binian","lat":12.9541635,"lon":-7.5636951,"type":"village"},{"id":"2124113192","name":"Missira","lat":12.9518382,"lon":-7.5570961,"type":"village"},{"id":"2124257020","name":"Belebougou","lat":14.1409848,"lon":-5.6000601,"type":"village"},{"id":"2124257529","name":"Kolongo","lat":14.1715654,"lon":-5.4759612,"type":"village"},{"id":"2124263211","name":"Korta I","lat":15.476097,"lon":-7.6204111,"type":"village"},{"id":"2124263235","name":"Tioffi","lat":15.3918801,"lon":-7.4726235,"type":"village"},{"id":"2124304275","name":"Diambana","lat":15.3392943,"lon":-8.3964011,"type":"village"},{"id":"2124304459","name":"Gassambarou","lat":15.3754083,"lon":-8.2852118,"type":"town"},{"id":"2124304856","name":"Dioka","lat":15.3187449,"lon":-8.4321635,"type":"village"},{"id":"2124311726","name":"Saréra","lat":15.3177817,"lon":-8.1711312,"type":"village"},{"id":"2124350144","name":"Fofara","lat":14.9987588,"lon":-8.3425457,"type":"village"},{"id":"2124350247","name":"Woyina","lat":14.8692188,"lon":-8.3871008,"type":"village"},{"id":"2124350272","name":"Balabougou","lat":14.8257271,"lon":-8.3525979,"type":"village"},{"id":"2124350289","name":"Doubala","lat":14.7705018,"lon":-8.3791865,"type":"village"},{"id":"2124350320","name":"Diadiébougou","lat":14.8443229,"lon":-8.432096,"type":"village"},{"id":"2124350326","name":"Ntjibougou Fallou","lat":14.7005158,"lon":-8.4355788,"type":"village"},{"id":"2124350344","name":"Ouaourou","lat":14.8276814,"lon":-8.3923715,"type":"village"},{"id":"2124409030","name":"N'Bouei","lat":15.4547561,"lon":-9.3522425,"type":"village"},{"id":"2124431809","name":"Hamdallayé","lat":15.2640438,"lon":-9.0273125,"type":"village"},{"id":"2124453974","name":"Darsalam","lat":14.7100407,"lon":-9.1987169,"type":"village"},{"id":"2124453992","name":"Bilibani","lat":14.7062218,"lon":-9.2027402,"type":"village"},{"id":"2124454011","name":"Kamico","lat":14.7757135,"lon":-9.1681766,"type":"village"},{"id":"2124582836","name":"Séroumé","lat":14.062319,"lon":-9.5393339,"type":"village"},{"id":"2124582896","name":"Guétala","lat":13.9922671,"lon":-9.5532148,"type":"village"},{"id":"2124594951","name":"Dalibéra","lat":14.5118867,"lon":-9.7239774,"type":"village"},{"id":"2124594955","name":"Diéoura","lat":14.2997031,"lon":-9.8505129,"type":"town"},{"id":"2124611420","name":"Diangounté-Kamara","lat":14.5452967,"lon":-9.5143828,"type":"town"},{"id":"2124611434","name":"Kobokoto","lat":14.1000028,"lon":-9.6173835,"type":"village"},{"id":"2124611439","name":"Séféto","lat":14.13972,"lon":-9.8272874,"type":"town"},{"id":"2124611440","name":"Fangoumba","lat":14.6365411,"lon":-9.5290888,"type":"village"},{"id":"2124611467","name":"Mountan-Kagoro","lat":14.1879822,"lon":-9.4988594,"type":"village"},{"id":"2124611565","name":"Wataga","lat":14.507026,"lon":-9.5959442,"type":"village"},{"id":"2124611645","name":"Bougoutintin","lat":14.519746,"lon":-9.8160799,"type":"village"},{"id":"2124611647","name":"Karéga","lat":14.136784,"lon":-9.7242778,"type":"village"},{"id":"2124611650","name":"Kobokoto Flawere","lat":14.1001414,"lon":-9.6058565,"type":"village"},{"id":"2124611658","name":"Sorongolé","lat":14.1057709,"lon":-9.5982516,"type":"village"},{"id":"2124619639","name":"Siraouma","lat":14.278152,"lon":-5.7473709,"type":"village"},{"id":"2125295239","name":"Ndoukala","lat":14.7885762,"lon":-5.9961445,"type":"village"},{"id":"2126601949","name":"El Khalil","lat":21.1884739,"lon":1.0454394,"type":"village"},{"id":"2127611818","name":"Kourmangoubé","lat":14.9087047,"lon":-6.0469034,"type":"village"},{"id":"2127971497","name":"Diadia","lat":14.8132601,"lon":-6.1332078,"type":"village"},{"id":"2127971506","name":"Kandyourou","lat":14.605866,"lon":-6.1333389,"type":"village"},{"id":"2127971512","name":"Kogoni","lat":14.7362558,"lon":-6.0264924,"type":"village"},{"id":"2127971519","name":"Kourouma","lat":14.6549549,"lon":-6.0007905,"type":"village"},{"id":"2127971671","name":"Séguindara","lat":14.8062958,"lon":-6.1889177,"type":"village"},{"id":"2127978388","name":"Korya","lat":16.4466344,"lon":-3.173991,"type":"village"},{"id":"2127978390","name":"Samdiar","lat":16.5049129,"lon":-3.1263796,"type":"village"},{"id":"2128155010","name":"Tiarabougou","lat":14.8094875,"lon":-5.8493287,"type":"village"},{"id":"2128158110","name":"Korientzé","lat":15.393401,"lon":-3.78304,"type":"town"},{"id":"2128978177","name":"Bossi-Tomo","lat":14.6881,"lon":-5.9374907,"type":"village"},{"id":"2128978178","name":"Ngolobani","lat":14.6687946,"lon":-5.9217004,"type":"village"},{"id":"2128979046","name":"Tiekéré","lat":14.7356168,"lon":-5.8852194,"type":"village"},{"id":"2128986336","name":"Barikoro","lat":14.7232736,"lon":-5.870648,"type":"village"},{"id":"2128986473","name":"Roundé-Madi","lat":14.7182398,"lon":-5.9661838,"type":"village"},{"id":"2128986474","name":"Wéré-Oro","lat":14.7639861,"lon":-5.8799629,"type":"village"},{"id":"2129482084","name":"Madina Km39","lat":14.3513839,"lon":-5.987208,"type":"village"},{"id":"2129504955","name":"Kanassako","lat":14.4480742,"lon":-5.9184442,"type":"village"},{"id":"2129758813","name":"Siengo","lat":14.3961326,"lon":-5.9749424,"type":"village"},{"id":"2129822742","name":"Bagui","lat":15.4214751,"lon":-3.7544254,"type":"village"},{"id":"2129822743","name":"Ngorodian","lat":15.4379759,"lon":-3.7143688,"type":"village"},{"id":"2130931872","name":"Bla","lat":12.949364,"lon":-5.7620576,"type":"town"},{"id":"2131515413","name":"Dyabali Koura","lat":14.6965,"lon":-6.0612,"type":"village"},{"id":"2131943666","name":"Sirakoroba","lat":13.5339536,"lon":-7.6443221,"type":"village"},{"id":"2131946949","name":"Barsafa","lat":13.8336403,"lon":-7.6998048,"type":"village"},{"id":"2131953358","name":"N'Tomodo","lat":14.4754836,"lon":-7.8612309,"type":"village"},{"id":"2131953410","name":"Tallan","lat":14.2407536,"lon":-7.7216659,"type":"village"},{"id":"2131953613","name":"Kegnebougou","lat":14.0030712,"lon":-7.7093513,"type":"village"},{"id":"2131953632","name":"Soya Fitobe","lat":14.030909,"lon":-7.6774684,"type":"village"},{"id":"2131953698","name":"Sirado","lat":14.0208112,"lon":-7.7317123,"type":"village"},{"id":"2131962941","name":"Tomikoro","lat":14.8469895,"lon":-7.596218,"type":"village"},{"id":"2131963133","name":"Sabougou","lat":14.9825517,"lon":-7.5513742,"type":"village"},{"id":"2131963238","name":"Dembassala","lat":14.9978554,"lon":-7.5162828,"type":"village"},{"id":"2131963275","name":"Ganki","lat":14.8486669,"lon":-7.5536154,"type":"village"},{"id":"2132008677","name":"Goumbi","lat":15.1216976,"lon":-10.8038098,"type":"village"},{"id":"2132008768","name":"Diomakha","lat":15.1256136,"lon":-10.8142382,"type":"village"},{"id":"2132008846","name":"Moussala","lat":15.1813697,"lon":-10.7919002,"type":"village"},{"id":"2132021075","name":"Sambaga","lat":15.0937333,"lon":-10.8012546,"type":"town"},{"id":"2132021432","name":"Koméoulou","lat":15.0923349,"lon":-10.8130886,"type":"town"},{"id":"2132047535","name":"Guinanour","lat":15.0984155,"lon":-10.9150651,"type":"village"},{"id":"2132060459","name":"Sorofa","lat":15.1546955,"lon":-10.9483149,"type":"village"},{"id":"2132060532","name":"Kardidi","lat":15.1826339,"lon":-10.9705547,"type":"village"},{"id":"2132085275","name":"Saboucire","lat":15.2821784,"lon":-10.710639,"type":"village"},{"id":"2132085291","name":"Bidadji","lat":15.1954511,"lon":-10.6961021,"type":"town"},{"id":"2132085351","name":"Takoutallah","lat":15.292393,"lon":-10.6654186,"type":"village"},{"id":"2132085455","name":"Guemou","lat":15.2534468,"lon":-10.6113571,"type":"village"},{"id":"2132120074","name":"Tangadonga","lat":15.0079411,"lon":-10.4629075,"type":"village"},{"id":"2132120078","name":"Tango","lat":15.0104964,"lon":-10.3799277,"type":"village"},{"id":"2132144518","name":"Ouologuela","lat":14.9227272,"lon":-10.7987445,"type":"village"},{"id":"2132144565","name":"Yaguiné Banda","lat":14.9762143,"lon":-10.6044217,"type":"village"},{"id":"2132144727","name":"Kanguessanou","lat":14.8865543,"lon":-10.5954082,"type":"village"},{"id":"2132144804","name":"Bangassi","lat":14.9212443,"lon":-10.7890325,"type":"village"},{"id":"2132144898","name":"Gninangouha","lat":14.8882428,"lon":-10.6452781,"type":"village"},{"id":"2132144944","name":"Sakaradji","lat":14.9028207,"lon":-10.7051461,"type":"village"},{"id":"2132256524","name":"Makana","lat":15.0810217,"lon":-10.5297428,"type":"village"},{"id":"2132289026","name":"Manthia","lat":15.3542597,"lon":-10.0035271,"type":"village"},{"id":"2132421620","name":"Tomoni 1","lat":14.8205371,"lon":-5.961767,"type":"village"},{"id":"2132421626","name":"Tomoni 2","lat":14.8102573,"lon":-5.9573215,"type":"village"},{"id":"2132945819","name":"Namatié","lat":15.6566162,"lon":-3.6002302,"type":"village"},{"id":"2133198006","name":"Damba-Tiarki el Boukari","lat":14.912755,"lon":-7.7255458,"type":"village"},{"id":"2133198028","name":"Karakoulou-Peulh","lat":14.98971,"lon":-7.686403,"type":"village"},{"id":"2133198035","name":"Demba-Diguila Wodébé","lat":14.9241082,"lon":-7.7162158,"type":"village"},{"id":"2133198036","name":"Dembadiawara","lat":14.9182458,"lon":-7.7160904,"type":"village"},{"id":"2133198140","name":"Bira I","lat":14.9565611,"lon":-7.6946767,"type":"village"},{"id":"2133198172","name":"Dina Koura","lat":14.896187,"lon":-7.8588233,"type":"village"},{"id":"2133242404","name":"Gourao","lat":15.3130393,"lon":-4.0337742,"type":"village"},{"id":"2134106055","name":"Diafarabé","lat":14.1392796,"lon":-5.0184516,"type":"town"},{"id":"2134145754","name":"N'Gounando","lat":14.516114,"lon":-5.9859128,"type":"village"},{"id":"2134145769","name":"Tigabougou","lat":14.4940203,"lon":-5.9904011,"type":"village"},{"id":"2134261963","name":"Dabi","lat":15.9060003,"lon":-4.1427076,"type":"village"},{"id":"2134261964","name":"Gombatou","lat":15.8975135,"lon":-4.1261818,"type":"village"},{"id":"2134313811","name":"Fangala","lat":13.5564081,"lon":-10.0789007,"type":"village"},{"id":"2134375498","name":"Karaga","lat":14.0871716,"lon":-10.803446,"type":"village"},{"id":"2134375554","name":"Dar-Salam","lat":14.1113543,"lon":-10.7733419,"type":"village"},{"id":"2134375558","name":"Batasso","lat":13.8284532,"lon":-10.8971269,"type":"village"},{"id":"2134375616","name":"Soria","lat":13.9696752,"lon":-10.7504198,"type":"village"},{"id":"2134766469","name":"Tirou","lat":15.2213759,"lon":-7.4040215,"type":"village"},{"id":"2134766476","name":"Chédèm-Tamba","lat":15.2454694,"lon":-7.8473085,"type":"village"},{"id":"2134766477","name":"Balal","lat":15.3511647,"lon":-7.7527516,"type":"village"},{"id":"2134770321","name":"Ngouma-Dama","lat":15.3515622,"lon":-7.3491254,"type":"village"},{"id":"2134787280","name":"Boudjiguiré","lat":14.8811999,"lon":-6.8445815,"type":"village"},{"id":"2135355790","name":"Ngoumèl Marad","lat":15.3722387,"lon":-7.3763617,"type":"village"},{"id":"2135355858","name":"Mabrouk","lat":15.2390929,"lon":-7.3145486,"type":"village"},{"id":"2135376085","name":"Noun-Ourdy","lat":15.4353147,"lon":-7.3383672,"type":"village"},{"id":"2135412842","name":"Mborié","lat":15.4098546,"lon":-7.0392766,"type":"village"},{"id":"2135412882","name":"Sèye","lat":15.4602284,"lon":-7.0246788,"type":"village"},{"id":"2135422903","name":"Guéneibé","lat":15.2831244,"lon":-7.0859172,"type":"village"},{"id":"2135422907","name":"Takomiat","lat":15.3700586,"lon":-7.0501835,"type":"village"},{"id":"2135502303","name":"Seye","lat":15.2424356,"lon":-9.3500251,"type":"village"},{"id":"2135502378","name":"Mérémidy","lat":15.2244097,"lon":-9.2848923,"type":"village"},{"id":"2135502448","name":"Gourel Beye","lat":15.1787393,"lon":-9.3627898,"type":"village"},{"id":"2135502498","name":"Karsala","lat":15.1762546,"lon":-9.3735361,"type":"village"},{"id":"2135502634","name":"Kérégué","lat":15.1935757,"lon":-9.2932094,"type":"village"},{"id":"2135506029","name":"Tagoutala","lat":15.3045431,"lon":-9.0820473,"type":"village"},{"id":"2138663335","name":"Tourougoumbé","lat":15.2653967,"lon":-9.2299573,"type":"town"},{"id":"2139634699","name":"Gomabougou","lat":13.7500988,"lon":-5.9239966,"type":"village"},{"id":"2139929844","name":"Djebitaka","lat":14.4418397,"lon":-4.1998825,"type":"village"},{"id":"2141092088","name":"Sinko Rangaba","lat":14.788185,"lon":-6.070887,"type":"village"},{"id":"2141292145","name":"Kamissara","lat":14.2020356,"lon":-7.5650972,"type":"village"},{"id":"2141292355","name":"Djedje","lat":14.1018729,"lon":-7.5762869,"type":"village"},{"id":"2141372702","name":"Rigandé ou Siranissaba","lat":14.4371238,"lon":-5.9777829,"type":"village"},{"id":"2141372862","name":"Siguiwoucé","lat":14.4560524,"lon":-5.9821175,"type":"village"},{"id":"2141373036","name":"Nara","lat":14.4761679,"lon":-5.9901902,"type":"village"},{"id":"2141373091","name":"Fassoum ou Riziam","lat":14.4811123,"lon":-5.9897682,"type":"village"},{"id":"2141394908","name":"Heremakono Km50","lat":14.4162944,"lon":-5.9796684,"type":"village"},{"id":"2141575675","name":"Kouyan-N'Golobala","lat":14.2447618,"lon":-5.9868991,"type":"village"},{"id":"2141575684","name":"Nango du Sahel","lat":14.2755786,"lon":-5.9617962,"type":"village"},{"id":"2141576243","name":"N'Débougou-Diora","lat":14.3675746,"lon":-5.9806837,"type":"village"},{"id":"2142179638","name":"Toumoudrané","lat":15.207274,"lon":-7.2621591,"type":"village"},{"id":"2142179642","name":"Debaye","lat":15.2095924,"lon":-7.2399074,"type":"village"},{"id":"2142182469","name":"Zangarbala","lat":14.5344003,"lon":-8.0767025,"type":"village"},{"id":"2142182473","name":"Karfabougou","lat":14.5410005,"lon":-8.0460875,"type":"village"},{"id":"2142182522","name":"Sampaga-Koura","lat":14.644086,"lon":-8.0593115,"type":"village"},{"id":"2142182524","name":"Borodio","lat":14.6292672,"lon":-8.0087786,"type":"village"},{"id":"2142182533","name":"Koron","lat":14.6259965,"lon":-7.9850116,"type":"village"},{"id":"2142183608","name":"Katiela","lat":14.2413191,"lon":-8.0710459,"type":"village"},{"id":"2142183628","name":"Namandiguila","lat":14.2344775,"lon":-8.0153847,"type":"village"},{"id":"2142183693","name":"Kwa","lat":14.2352886,"lon":-8.0199122,"type":"village"},{"id":"2142435283","name":"N'Galamadian Coro","lat":14.1580806,"lon":-6.0318521,"type":"village"},{"id":"2142607869","name":"Kolodougou Coro","lat":14.1400164,"lon":-5.9777044,"type":"village"},{"id":"2142607871","name":"N'Djicorobougou","lat":14.195903,"lon":-5.9574998,"type":"village"},{"id":"2142607872","name":"Siribala-Koro","lat":14.0432,"lon":-6.1067,"type":"village"},{"id":"2142608764","name":"Sériwala","lat":14.2873005,"lon":-6.0166089,"type":"village"},{"id":"2142630605","name":"Fiébougou","lat":14.0302794,"lon":-6.0373448,"type":"village"},{"id":"2142630608","name":"Massala","lat":13.9623847,"lon":-6.0585045,"type":"village"},{"id":"2142630612","name":"Niougou","lat":13.8467128,"lon":-6.0860945,"type":"village"},{"id":"2142630614","name":"Sissako","lat":13.8847406,"lon":-6.1053532,"type":"village"},{"id":"2142630615","name":"Soualani","lat":13.9915175,"lon":-6.0473414,"type":"village"},{"id":"2142726918","name":"Tabankort","lat":17.8472148,"lon":0.3232687,"type":"village"},{"id":"2142726919","name":"Télabit","lat":19.0691741,"lon":0.9990906,"type":"village"},{"id":"2143150626","name":"Kera","lat":14.2225037,"lon":-4.9983284,"type":"village"},{"id":"2143150634","name":"Diaou","lat":14.1381258,"lon":-4.9283889,"type":"village"},{"id":"2143227799","name":"Ahamboubar","lat":20.0369742,"lon":0.9596813,"type":"village"},{"id":"2143482870","name":"Ti Guéroui","lat":16.6172837,"lon":0.1308746,"type":"village"},{"id":"2143550310","name":"Nouh-Bozo","lat":14.1697351,"lon":-4.8886278,"type":"village"},{"id":"2143667981","name":"Larole Bally","lat":14.3559214,"lon":-4.397235,"type":"village"},{"id":"2144210860","name":"Tédié","lat":14.848162,"lon":-3.1673188,"type":"village"},{"id":"2144389179","name":"Dembéré","lat":14.9928383,"lon":-3.1206914,"type":"village"},{"id":"2144389183","name":"Doumpara","lat":15.0774419,"lon":-3.2500047,"type":"village"},{"id":"2144389185","name":"Fombori","lat":14.9796738,"lon":-2.9416948,"type":"village"},{"id":"2144389188","name":"Korabéri","lat":15.0403083,"lon":-3.1961471,"type":"village"},{"id":"2144389189","name":"Koubel-Koundia","lat":14.9861313,"lon":-3.0341798,"type":"village"},{"id":"2144389191","name":"Mongui","lat":15.0088456,"lon":-3.1549347,"type":"village"},{"id":"2144389197","name":"Ourodou","lat":14.9708856,"lon":-3.0734684,"type":"village"},{"id":"2144389205","name":"Temmba","lat":14.9423065,"lon":-3.1923858,"type":"village"},{"id":"2144429257","name":"Diougoni","lat":14.2122601,"lon":-4.7367556,"type":"village"},{"id":"2144429261","name":"Makame-Rimaibe","lat":14.2462111,"lon":-4.6972215,"type":"village"},{"id":"2144433324","name":"Bondokoli","lat":15.1046821,"lon":-3.0282501,"type":"village"},{"id":"2144433325","name":"Dimitéro","lat":15.0377313,"lon":-3.1034289,"type":"village"},{"id":"2144433326","name":"Débéré","lat":15.1051109,"lon":-3.0106193,"type":"village"},{"id":"2144433327","name":"Siba","lat":15.0272302,"lon":-3.076108,"type":"village"},{"id":"2144433328","name":"Sinda","lat":15.0329481,"lon":-3.0802367,"type":"village"},{"id":"2144517631","name":"Mountou","lat":14.2910008,"lon":-4.6251582,"type":"village"},{"id":"2144517634","name":"Tossa","lat":14.3013278,"lon":-4.631899,"type":"village"},{"id":"2144517636","name":"Wandjere","lat":14.2805164,"lon":-4.6399429,"type":"village"},{"id":"2144517716","name":"Daka-Digani","lat":14.2726885,"lon":-4.5633218,"type":"village"},{"id":"2144682048","name":"Baraoussi","lat":15.1382788,"lon":-2.5712753,"type":"village"},{"id":"2144682049","name":"Boumban","lat":15.0886411,"lon":-2.6306636,"type":"village"},{"id":"2144682050","name":"Bousauma","lat":15.11631,"lon":-2.5947426,"type":"village"},{"id":"2144682052","name":"Danza","lat":15.0896159,"lon":-2.7416153,"type":"village"},{"id":"2144682068","name":"Kolongo","lat":15.091782,"lon":-2.6561099,"type":"village"},{"id":"2144772696","name":"Kopa","lat":13.5970839,"lon":-4.5351819,"type":"village"},{"id":"2144947682","name":"Bougouni-Daga","lat":14.1144311,"lon":-4.1173357,"type":"village"},{"id":"2144949085","name":"Koé Lèye","lat":14.2104351,"lon":-4.0523989,"type":"village"},{"id":"2144976684","name":"Madina UP5","lat":14.456893,"lon":-6.0107016,"type":"town"},{"id":"2144983440","name":"Niafassi-Bambara","lat":14.1986794,"lon":-6.0512468,"type":"village"},{"id":"2144985346","name":"Dogobougou","lat":14.1589921,"lon":-6.1290205,"type":"village"},{"id":"2144985402","name":"Dogobougou ou Bouboba","lat":14.1761042,"lon":-6.1356344,"type":"village"},{"id":"2144985405","name":"Maraka-Were","lat":14.1971275,"lon":-6.1031096,"type":"village"},{"id":"2144985408","name":"Tiemedely Coro","lat":14.1497831,"lon":-6.0956405,"type":"village"},{"id":"2144986505","name":"Niafassi-Marka","lat":14.2036277,"lon":-6.0554552,"type":"village"},{"id":"2144993939","name":"Founebougou","lat":13.7582733,"lon":-6.1048858,"type":"village"},{"id":"2145101564","name":"Yangha-Bozo","lat":14.1392714,"lon":-4.5909541,"type":"village"},{"id":"2145101565","name":"Yangha-Peulh","lat":14.1450004,"lon":-4.6017756,"type":"village"},{"id":"2145172126","name":"Koulenze","lat":14.2258238,"lon":-4.6190321,"type":"village"},{"id":"2145329922","name":"Mangha-Peulh","lat":14.1521737,"lon":-4.5052527,"type":"village"},{"id":"2145329923","name":"Méou","lat":14.1410072,"lon":-4.4583605,"type":"village"},{"id":"2145329924","name":"Pora-Bozo","lat":14.1983515,"lon":-4.5261711,"type":"village"},{"id":"2145329925","name":"Pora-Somono","lat":14.2062435,"lon":-4.5350411,"type":"village"},{"id":"2145431882","name":"Meou-Nantinore","lat":14.1608415,"lon":-4.4100056,"type":"village"},{"id":"2145505458","name":"Lanaoué","lat":14.1055412,"lon":-4.4904926,"type":"village"},{"id":"2145548222","name":"Togo Taye","lat":14.644197,"lon":-3.1014013,"type":"village"},{"id":"2145548283","name":"Nissanata","lat":15.1033316,"lon":-2.2254702,"type":"village"},{"id":"2145548304","name":"Sogou","lat":14.7535134,"lon":-3.0030748,"type":"village"},{"id":"2145600432","name":"Makadje","lat":14.287818,"lon":-4.4926914,"type":"village"},{"id":"2145600440","name":"N'Gourema Bacoure","lat":14.41508,"lon":-4.5424421,"type":"village"},{"id":"2145611896","name":"Gai","lat":15.1023734,"lon":-2.11714,"type":"village"},{"id":"2145611897","name":"Guittiram","lat":15.0857357,"lon":-2.3522318,"type":"village"},{"id":"2145611901","name":"Loro","lat":15.0863362,"lon":-2.1731849,"type":"village"},{"id":"2145611907","name":"Piringa","lat":15.1073209,"lon":-2.1491942,"type":"village"},{"id":"2145736216","name":"Taneredji","lat":15.1068772,"lon":-4.305522,"type":"village"},{"id":"2145751477","name":"Touara","lat":13.6813986,"lon":-4.5421439,"type":"village"},{"id":"2145905813","name":"Sirabougou-Bambara","lat":13.7400005,"lon":-4.5486228,"type":"village"},{"id":"2145926326","name":"Ouro Fassi","lat":15.1712783,"lon":-2.0215867,"type":"village"},{"id":"2145926341","name":"Tabi","lat":15.0282876,"lon":-2.0498009,"type":"village"},{"id":"2145926352","name":"Toupéré","lat":15.0060908,"lon":-2.0824306,"type":"village"},{"id":"2145943093","name":"Ouro-Alfaka","lat":14.9419312,"lon":-4.3183514,"type":"village"},{"id":"2146005971","name":"Orokamba","lat":14.4599732,"lon":-3.096149,"type":"village"},{"id":"2146005975","name":"Simérou","lat":14.4430085,"lon":-3.0870823,"type":"village"},{"id":"2146005992","name":"Soye","lat":14.4905695,"lon":-3.0848023,"type":"village"},{"id":"2146005996","name":"Siguimara-Peulh","lat":14.5243749,"lon":-3.0800952,"type":"village"},{"id":"2146038206","name":"Dialloube","lat":15.0171185,"lon":-4.2289605,"type":"town"},{"id":"2146057236","name":"Pourali","lat":14.3671157,"lon":-3.1160465,"type":"village"},{"id":"2146057238","name":"Sogou-Yaguem","lat":14.3493107,"lon":-3.0236796,"type":"village"},{"id":"2146106481","name":"Dana","lat":14.1799358,"lon":-3.0493443,"type":"village"},{"id":"2146106482","name":"Danadoungourou","lat":14.1893171,"lon":-3.064813,"type":"village"},{"id":"2146106485","name":"Kamokoro","lat":14.2348192,"lon":-3.0305453,"type":"village"},{"id":"2146106487","name":"Nabene","lat":14.3058054,"lon":-3.1396547,"type":"village"},{"id":"2146106488","name":"Nangadourou","lat":14.3350513,"lon":-3.1209828,"type":"village"},{"id":"2146106489","name":"Ogodourouna","lat":14.223122,"lon":-3.1207199,"type":"village"},{"id":"2146106490","name":"Ogotèné","lat":14.3144424,"lon":-2.9708973,"type":"village"},{"id":"2146106491","name":"Ourokoum","lat":14.2505383,"lon":-3.0589775,"type":"village"},{"id":"2146106492","name":"Patin","lat":14.2694011,"lon":-3.1071399,"type":"village"},{"id":"2146106493","name":"Somanagoro","lat":14.2924564,"lon":-3.0812746,"type":"village"},{"id":"2146106495","name":"Souan","lat":14.2398297,"lon":-3.1130399,"type":"village"},{"id":"2146106496","name":"Sédourou","lat":14.3223644,"lon":-3.1268928,"type":"village"},{"id":"2146106497","name":"Ségouma-Sogou","lat":14.2394576,"lon":-3.0751929,"type":"village"},{"id":"2146106498","name":"Tantouma","lat":14.3145615,"lon":-2.9987244,"type":"village"},{"id":"2146106499","name":"Tourou","lat":14.2024611,"lon":-3.12933,"type":"village"},{"id":"2146106500","name":"Yassing","lat":14.2800213,"lon":-3.0490798,"type":"village"},{"id":"2146638510","name":"Dèmbéré ti-n-Alabi","lat":15.1832129,"lon":-1.564182,"type":"village"},{"id":"2146685342","name":"Boula","lat":15.2130586,"lon":-2.6845737,"type":"village"},{"id":"2146685346","name":"Bounti","lat":15.2082054,"lon":-2.5834349,"type":"village"},{"id":"2146685362","name":"Gana","lat":15.2031663,"lon":-2.5173964,"type":"village"},{"id":"2146685374","name":"Kikara","lat":15.2106689,"lon":-2.7488866,"type":"village"},{"id":"2146721422","name":"Bounti","lat":15.2376669,"lon":-2.5392823,"type":"village"},{"id":"2146721428","name":"Kéréna","lat":15.0314843,"lon":-2.6865506,"type":"village"},{"id":"2146721429","name":"Nani","lat":15.0659823,"lon":-2.5337576,"type":"village"},{"id":"2146721434","name":"Torobani","lat":15.1125706,"lon":-2.5266142,"type":"village"},{"id":"2146721435","name":"Toua","lat":15.2208297,"lon":-2.5076477,"type":"village"},{"id":"2146721437","name":"Tébi Maoundé","lat":15.007013,"lon":-2.7114553,"type":"village"},{"id":"2146850861","name":"Sono-Ma","lat":14.2890977,"lon":-3.2658833,"type":"village"},{"id":"2146850877","name":"Sorou","lat":14.4131654,"lon":-3.1481062,"type":"village"},{"id":"2146850891","name":"Tanouma","lat":14.3190269,"lon":-3.2362928,"type":"village"},{"id":"2146850898","name":"Tendji-Nenni","lat":14.3682501,"lon":-3.1853521,"type":"village"},{"id":"2146873485","name":"Tié Kouraré","lat":15.3249454,"lon":-3.7375198,"type":"village"},{"id":"2146873623","name":"Messéna","lat":15.3314268,"lon":-3.7507627,"type":"village"},{"id":"2147165475","name":"Dougousa","lat":15.0077193,"lon":-1.8305248,"type":"village"},{"id":"2147165476","name":"Fété Noti","lat":14.9962442,"lon":-1.8697107,"type":"village"},{"id":"2147473031","name":"Kadiolo","lat":10.5540365,"lon":-5.7592858,"type":"city"},{"id":"2147542645","name":"Tiokombougou Ouest","lat":13.6749296,"lon":-8.4210249,"type":"village"},{"id":"2147569983","name":"Toulobani","lat":14.0460492,"lon":-8.3608114,"type":"village"},{"id":"2147570064","name":"Sanankoro-Maréla","lat":14.1150129,"lon":-8.3891957,"type":"village"},{"id":"2147643028","name":"Poure","lat":13.6182918,"lon":-4.5081127,"type":"village"},{"id":"2147798354","name":"Sahona","lat":14.3347608,"lon":-4.3762579,"type":"village"},{"id":"2147939028","name":"Mbiabougou","lat":13.6980238,"lon":-4.5617337,"type":"village"},{"id":"2148122704","name":"Don","lat":14.184087,"lon":-3.2866256,"type":"village"},{"id":"2148122711","name":"Douna","lat":14.1820478,"lon":-3.189216,"type":"village"},{"id":"2148122721","name":"Ené","lat":14.1445499,"lon":-3.053318,"type":"village"},{"id":"2148122740","name":"Guéourou-Dogon","lat":14.1688065,"lon":-3.2401085,"type":"village"},{"id":"2148122762","name":"Kombogourou-Dogon","lat":14.2401696,"lon":-3.2496578,"type":"village"},{"id":"2148122770","name":"Ogodengou","lat":14.2117548,"lon":-3.1794162,"type":"village"},{"id":"2148122788","name":"Oropa","lat":14.1998334,"lon":-3.2624581,"type":"village"},{"id":"2148122789","name":"Pomboro-Dodiou Koun","lat":14.1604094,"lon":-3.1595828,"type":"village"},{"id":"2148122792","name":"Péné","lat":14.1451433,"lon":-3.1248467,"type":"village"},{"id":"2148122806","name":"Samani-Dogon","lat":14.2190238,"lon":-3.2226086,"type":"village"},{"id":"2148122820","name":"Sassagou","lat":14.1374791,"lon":-3.1904036,"type":"village"},{"id":"2148122826","name":"Seguebengou","lat":14.1518261,"lon":-3.0774669,"type":"village"},{"id":"2148122839","name":"Torou","lat":14.2174077,"lon":-2.9902108,"type":"village"},{"id":"2148314289","name":"Bangadié","lat":14.5877953,"lon":-2.1058464,"type":"town"},{"id":"2148314305","name":"Sardina","lat":14.7692797,"lon":-1.8395204,"type":"village"},{"id":"2148381607","name":"Bougoula","lat":13.7247721,"lon":-4.5022399,"type":"village"},{"id":"2148483894","name":"Kien","lat":13.5160609,"lon":-4.4628417,"type":"village"},{"id":"2148484129","name":"Togo","lat":13.5252979,"lon":-4.519262,"type":"village"},{"id":"2148484707","name":"Dimana","lat":13.5517086,"lon":-4.4417614,"type":"village"},{"id":"2148484851","name":"Tia-Bankouma","lat":13.5574626,"lon":-4.4865793,"type":"village"},{"id":"2148485100","name":"Kerebere","lat":13.5716554,"lon":-4.5248328,"type":"village"},{"id":"2148485203","name":"Bankouma-Peulh","lat":13.5797617,"lon":-4.5033579,"type":"village"},{"id":"2148485261","name":"Toumoussegue","lat":13.5894136,"lon":-4.5736003,"type":"village"},{"id":"2148485638","name":"Bouta","lat":13.6219477,"lon":-4.4550749,"type":"village"},{"id":"2148485818","name":"Bouani","lat":13.6377079,"lon":-4.4755798,"type":"village"},{"id":"2148486465","name":"Poromou","lat":13.6750487,"lon":-4.4424567,"type":"village"},{"id":"2148637672","name":"Gninakou","lat":14.7797773,"lon":-3.9136427,"type":"village"},{"id":"2148637679","name":"Sambéré","lat":14.7775087,"lon":-3.9200745,"type":"village"},{"id":"2148637681","name":"Sandigui","lat":14.9538682,"lon":-3.876619,"type":"village"},{"id":"2148677476","name":"Bingata","lat":16.227955,"lon":-3.4649366,"type":"village"},{"id":"2148677478","name":"El Oualadji","lat":16.1917525,"lon":-3.4447088,"type":"village"},{"id":"2148677481","name":"Kongoïber","lat":16.1380999,"lon":-3.4906525,"type":"village"},{"id":"2148853482","name":"Kokoro","lat":14.3557255,"lon":-5.4895344,"type":"village"},{"id":"2148896159","name":"Emn Alher","lat":14.4713146,"lon":-4.086893,"type":"village"},{"id":"2149056495","name":"Masso","lat":13.5989845,"lon":-4.4403881,"type":"village"},{"id":"2149110760","name":"Mampe","lat":13.5947762,"lon":-4.4225414,"type":"village"},{"id":"2149139927","name":"Bachiridugu","lat":13.6348383,"lon":-4.4199555,"type":"village"},{"id":"2149140019","name":"Ouena","lat":13.6493944,"lon":-4.4386098,"type":"village"},{"id":"2149166215","name":"Baré Sémé","lat":15.3079641,"lon":-3.8898109,"type":"village"},{"id":"2149166218","name":"Déra","lat":15.236895,"lon":-3.932714,"type":"village"},{"id":"2149166229","name":"Sansani","lat":15.2439958,"lon":-3.2872614,"type":"village"},{"id":"2149166230","name":"Sendégué","lat":15.2614148,"lon":-3.9487001,"type":"town"},{"id":"2149166235","name":"Tondimina","lat":15.2172805,"lon":-3.9218041,"type":"village"},{"id":"2149627242","name":"Ebagaw","lat":16.6494272,"lon":0.2511663,"type":"village"},{"id":"2149644211","name":"Gatié-Djirma","lat":15.728772,"lon":-4.8197584,"type":"village"},{"id":"2149644218","name":"Sio","lat":15.6287292,"lon":-4.2054417,"type":"village"},{"id":"2149750882","name":"Gounki","lat":15.4648565,"lon":-3.9852967,"type":"village"},{"id":"2149750889","name":"Kokoro","lat":15.467466,"lon":-4.0792543,"type":"village"},{"id":"2149750891","name":"Kéra","lat":15.3861735,"lon":-3.7946793,"type":"village"},{"id":"2149750894","name":"Modioko","lat":15.4561063,"lon":-4.0838409,"type":"village"},{"id":"2149826658","name":"Diam Koko","lat":15.5476016,"lon":-4.2179345,"type":"village"},{"id":"2149826664","name":"Kom","lat":15.5064739,"lon":-4.1023767,"type":"village"},{"id":"2149859753","name":"Bougourinké Saré","lat":15.4464521,"lon":-3.8004531,"type":"village"},{"id":"2149859761","name":"Dissoré","lat":15.4404602,"lon":-3.8350504,"type":"village"},{"id":"2149859764","name":"Doumpa","lat":15.4126427,"lon":-3.2420336,"type":"village"},