[{"id":"27565113","name":"Blantyre","lat":-15.7862543,"lon":35.0035694,"type":"city"},{"id":"258849558","name":"Chilumba","lat":-10.4339594,"lon":34.2556,"type":"town"},{"id":"258849781","name":"Karonga","lat":-9.9393499,"lon":33.9271368,"type":"town"},{"id":"261051594","name":"Nkhotakota","lat":-12.9269733,"lon":34.2967127,"type":"town"},{"id":"262183934","name":"Mzuzu","lat":-11.4607518,"lon":34.0226422,"type":"city"},{"id":"262287368","name":"Ekwendeni","lat":-11.3723169,"lon":33.8818408,"type":"town"},{"id":"262307441","name":"Chitipa","lat":-9.7026075,"lon":33.274819,"type":"town"},{"id":"262432645","name":"Mzimba","lat":-11.8989563,"lon":33.5951593,"type":"town"},{"id":"262678951","name":"Salima","lat":-13.7766347,"lon":34.4482507,"type":"town"},{"id":"262760716","name":"Kasungu","lat":-13.0395452,"lon":33.4784085,"type":"town"},{"id":"264185575","name":"Mangochi","lat":-14.4805084,"lon":35.2606129,"type":"town"},{"id":"264190138","name":"Malindi","lat":-14.3385086,"lon":35.2879346,"type":"village"},{"id":"264191316","name":"Chiponde","lat":-14.3708027,"lon":35.6010136,"type":"village"},{"id":"264951312","name":"Limbe","lat":-15.8074399,"lon":35.0525005,"type":"city"},{"id":"264956932","name":"Balaka","lat":-14.9858678,"lon":34.9602966,"type":"town"},{"id":"265120340","name":"Dedza","lat":-14.3807275,"lon":34.3282385,"type":"town"},{"id":"265361856","name":"Monkey Bay","lat":-14.0831457,"lon":34.9145436,"type":"town"},{"id":"265543837","name":"Mchinji","lat":-13.7971726,"lon":32.8874963,"type":"town"},{"id":"265772769","name":"Zomba","lat":-15.3863208,"lon":35.3268273,"type":"city"},{"id":"266187955","name":"Chikwina","lat":-11.3973061,"lon":34.1718267,"type":"village"},{"id":"269400402","name":"Euthini","lat":-11.4505714,"lon":33.426604,"type":"village"},{"id":"269579681","name":"Domasi","lat":-15.2827052,"lon":35.3992023,"type":"town"},{"id":"269730874","name":"Phalombe","lat":-15.806557,"lon":35.6480673,"type":"town"},{"id":"269731944","name":"Lirangwe","lat":-15.5287305,"lon":35.0256193,"type":"town"},{"id":"269870596","name":"Rumphi","lat":-11.0159927,"lon":33.8587703,"type":"town"},{"id":"270053320","name":"Kaporo","lat":-9.764549,"lon":33.8758364,"type":"town"},{"id":"270054509","name":"Kameme","lat":-9.5692058,"lon":33.092603,"type":"town"},{"id":"270056470","name":"Chendo","lat":-9.8878063,"lon":33.4115013,"type":"village"},{"id":"270057162","name":"Bwengu","lat":-11.0542824,"lon":33.9206422,"type":"village"},{"id":"270057299","name":"Mwasizi","lat":-10.918838,"lon":33.5845349,"type":"village"},{"id":"270500661","name":"Mwanza","lat":-15.6092182,"lon":34.5234238,"type":"town"},{"id":"270501556","name":"Chikwawa","lat":-16.0271313,"lon":34.7912153,"type":"town"},{"id":"270503034","name":"Bangula","lat":-16.5751399,"lon":35.1177792,"type":"town"},{"id":"271962331","name":"Lunzu","lat":-15.6449781,"lon":35.0182753,"type":"village"},{"id":"271966499","name":"Masasa","lat":-14.4334041,"lon":34.4222838,"type":"village"},{"id":"273915157","name":"Mua","lat":-14.2836583,"lon":34.5110091,"type":"village"},{"id":"274086308","name":"Kamwendo","lat":-13.8302494,"lon":33.0450285,"type":"village"},{"id":"274257294","name":"Chiromo","lat":-16.5249906,"lon":35.1738395,"type":"village"},{"id":"274259933","name":"Tuchila","lat":-15.9138457,"lon":35.3584915,"type":"village"},{"id":"274681182","name":"Luchenza","lat":-16.0051495,"lon":35.3089264,"type":"town"},{"id":"274686807","name":"Chintheche","lat":-11.8313824,"lon":34.1693013,"type":"town"},{"id":"275658419","name":"Chiradzulu","lat":-15.7046189,"lon":35.182269,"type":"village"},{"id":"276402493","name":"Mponela","lat":-13.5297184,"lon":33.7371277,"type":"town"},{"id":"276402634","name":"Chipoka","lat":-13.990296,"lon":34.5153346,"type":"town"},{"id":"276403856","name":"Ntcheu","lat":-14.8178745,"lon":34.6384332,"type":"town"},{"id":"276404163","name":"Nsanje","lat":-16.9232359,"lon":35.261946,"type":"town"},{"id":"277223625","name":"Benga","lat":-13.3750504,"lon":34.2589241,"type":"town"},{"id":"277231411","name":"Edingeni","lat":-12.0452993,"lon":33.3118602,"type":"town"},{"id":"277233596","name":"Katumbi","lat":-10.813366,"lon":33.5221881,"type":"town"},{"id":"277269080","name":"Lizulu","lat":-14.51783,"lon":34.4654651,"type":"village"},{"id":"277269400","name":"Dowa","lat":-13.6576733,"lon":33.9302091,"type":"town"},{"id":"277270182","name":"Bolero","lat":-10.9811424,"lon":33.7412437,"type":"village"},{"id":"277344235","name":"Ehlehleni","lat":-12.2542777,"lon":33.5801576,"type":"village"},{"id":"277608574","name":"Balakas","lat":-14.9241643,"lon":34.8750137,"type":"village"},{"id":"277780822","name":"Kalinde","lat":-13.7198342,"lon":33.1867694,"type":"village"},{"id":"277782511","name":"Gandali","lat":-13.7043362,"lon":33.1357211,"type":"village"},{"id":"277785091","name":"Lombwa","lat":-13.462827,"lon":33.0764514,"type":"village"},{"id":"278536457","name":"Chitundu","lat":-14.0947927,"lon":34.2566545,"type":"village"},{"id":"278536836","name":"Mphomwa","lat":-12.8156932,"lon":33.4333704,"type":"village"},{"id":"278764670","name":"Timbenao","lat":-16.0943599,"lon":34.6192445,"type":"village"},{"id":"278764757","name":"Phwadzi","lat":-16.0168261,"lon":34.5141878,"type":"village"},{"id":"279326629","name":"Kalonga","lat":-14.9015698,"lon":34.5837577,"type":"village"},{"id":"279327009","name":"Hawilani","lat":-14.8204836,"lon":34.7534332,"type":"village"},{"id":"285437645","name":"Manyamula","lat":-11.9383718,"lon":33.4410581,"type":"village"},{"id":"285440531","name":"Embangweni","lat":-12.1420534,"lon":33.4717291,"type":"village"},{"id":"285444803","name":"Chibaka","lat":-11.6624638,"lon":34.2439763,"type":"village"},{"id":"285757164","name":"Chisokowo","lat":-10.9078967,"lon":34.0303609,"type":"village"},{"id":"285757675","name":"Kliwawa","lat":-10.5443324,"lon":34.2005906,"type":"village"},{"id":"285763282","name":"Mlali","lat":-10.1768378,"lon":34.0422264,"type":"village"},{"id":"285764098","name":"Nyungwe","lat":-10.28916,"lon":34.1086844,"type":"village"},{"id":"285764512","name":"Bunganiro","lat":-10.3202133,"lon":34.0517011,"type":"village"},{"id":"285765670","name":"Kapika","lat":-10.4431144,"lon":34.0925855,"type":"village"},{"id":"285769985","name":"Chagwambala","lat":-10.2253365,"lon":33.6599719,"type":"village"},{"id":"285771450","name":"Mwenewenya","lat":-10.1104139,"lon":33.5647939,"type":"village"},{"id":"285771568","name":"Kama","lat":-10.186424,"lon":33.5510664,"type":"village"},{"id":"285772892","name":"Nthalire","lat":-10.3506755,"lon":33.6414169,"type":"village"},{"id":"285775940","name":"Mporo","lat":-10.8991572,"lon":33.557397,"type":"village"},{"id":"285776351","name":"Chitango","lat":-10.92676,"lon":33.627684,"type":"village"},{"id":"285779005","name":"N'gonga","lat":-10.9430899,"lon":33.9407147,"type":"village"},{"id":"285779527","name":"Phwangwa","lat":-10.867196,"lon":33.9916041,"type":"village"},{"id":"285780423","name":"Chiwerewere","lat":-10.7289741,"lon":34.0367081,"type":"village"},{"id":"285781633","name":"Chiwato Jere","lat":-11.1749187,"lon":33.8475967,"type":"village"},{"id":"285793519","name":"Chiweta","lat":-10.6967346,"lon":34.1861245,"type":"village"},{"id":"285994187","name":"Thondwe","lat":-15.4973533,"lon":35.4687111,"type":"village"},{"id":"285997286","name":"Machinga","lat":-15.1766425,"lon":35.2982098,"type":"town"},{"id":"285998196","name":"Mposa","lat":-15.1474279,"lon":35.529874,"type":"village"},{"id":"285998677","name":"Mlomba","lat":-15.0420006,"lon":35.4653262,"type":"village"},{"id":"285999186","name":"Nathenje","lat":-14.080234,"lon":33.9067081,"type":"village"},{"id":"286001906","name":"Kasinje","lat":-14.5311731,"lon":34.6774968,"type":"village"},{"id":"286002566","name":"Fort Mlangeni","lat":-14.6843296,"lon":34.522862,"type":"village"},{"id":"286013797","name":"Linthipe","lat":-14.1748697,"lon":34.1243749,"type":"village"},{"id":"286015303","name":"Kaphuka","lat":-14.1821928,"lon":34.2249684,"type":"village"},{"id":"286018396","name":"Chipasi","lat":-14.2993543,"lon":34.277067,"type":"village"},{"id":"286019559","name":"Chiluzi","lat":-14.2014931,"lon":34.2841852,"type":"village"},{"id":"286021589","name":"Lobi","lat":-14.3824528,"lon":34.0759732,"type":"town"},{"id":"286022780","name":"Thete","lat":-14.3145997,"lon":34.0964009,"type":"village"},{"id":"286027502","name":"Sinyala","lat":-14.1706612,"lon":33.6401998,"type":"village"},{"id":"286030007","name":"Ngabu","lat":-16.4584355,"lon":34.8866104,"type":"town"},{"id":"286097802","name":"Malomo","lat":-13.1473254,"lon":33.8362182,"type":"village"},{"id":"286097936","name":"Mbobo","lat":-13.1309399,"lon":33.953457,"type":"village"},{"id":"286251750","name":"Mwenda","lat":-14.1596541,"lon":33.7567103,"type":"village"},{"id":"286801825","name":"Chavara","lat":-15.8323917,"lon":34.8345016,"type":"village"},{"id":"286803281","name":"Mulima","lat":-15.8151036,"lon":34.8716623,"type":"village"},{"id":"286803825","name":"Kaiawo","lat":-15.7770494,"lon":34.8855046,"type":"village"},{"id":"286933418","name":"Sosola","lat":-14.4140399,"lon":34.7875915,"type":"village"},{"id":"287009456","name":"Bandawe","lat":-11.9203574,"lon":34.1678572,"type":"village"},{"id":"287056706","name":"Msochi","lat":-13.6218386,"lon":33.9326467,"type":"village"},{"id":"287071772","name":"Mbalame","lat":-13.6890542,"lon":33.8410248,"type":"village"},{"id":"287206334","name":"Lumbadzi","lat":-13.7717291,"lon":33.8134907,"type":"village"},{"id":"312956900","name":"Nkhata Bay","lat":-11.606995,"lon":34.2983907,"type":"town"},{"id":"313275428","name":"Mkule","lat":-14.0890114,"lon":33.7939763,"type":"village"},{"id":"313910985","name":"Chitika","lat":-11.9142955,"lon":34.1479079,"type":"village"},{"id":"313911062","name":"Kande","lat":-11.9360941,"lon":34.1073143,"type":"village"},{"id":"313911084","name":"Kachere","lat":-12.003887,"lon":34.0489924,"type":"village"},{"id":"313911788","name":"Enukweni","lat":-11.1752201,"lon":33.8818028,"type":"village"},{"id":"313960538","name":"Masangi","lat":-14.2624102,"lon":35.0786423,"type":"village"},{"id":"313961106","name":"Nankwhali Mission","lat":-14.1350478,"lon":34.8488927,"type":"village"},{"id":"313961200","name":"Nkopo","lat":-14.2182396,"lon":35.035111,"type":"village"},{"id":"313961484","name":"Nganja","lat":-14.4178922,"lon":34.5198113,"type":"village"},{"id":"313964646","name":"Chileka","lat":-11.9136187,"lon":34.1478575,"type":"village"},{"id":"313964689","name":"Kande","lat":-11.9360877,"lon":34.1073062,"type":"village"},{"id":"313967633","name":"Ngodzi","lat":-14.0955151,"lon":34.5154182,"type":"village"},{"id":"313983582","name":"Mazamba","lat":-11.6954366,"lon":33.9099564,"type":"village"},{"id":"316050043","name":"Ntanja","lat":-14.8719847,"lon":35.5278216,"type":"village"},{"id":"316050204","name":"Namadzi","lat":-15.6397818,"lon":35.1553963,"type":"village"},{"id":"316050457","name":"Makanjila","lat":-13.7098897,"lon":35.0454853,"type":"village"},{"id":"316054125","name":"Chitimba","lat":-10.5942175,"lon":34.1682325,"type":"village"},{"id":"316060575","name":"Malembo","lat":-14.2289889,"lon":34.8144253,"type":"village"},{"id":"316060801","name":"Mtakataka","lat":-14.2248472,"lon":34.5166667,"type":"village"},{"id":"316177994","name":"Mangwina","lat":-11.4547949,"lon":34.2745106,"type":"village"},{"id":"316178015","name":"Usisya","lat":-11.2455589,"lon":34.2235427,"type":"village"},{"id":"316178022","name":"Ruarwe","lat":-11.1105335,"lon":34.2312126,"type":"village"},{"id":"316178146","name":"Mlowe","lat":-10.7620556,"lon":34.2035679,"type":"village"},{"id":"316182865","name":"Kamuzu Academy","lat":-13.0300072,"lon":33.6873554,"type":"village"},{"id":"316916129","name":"Nkhoma","lat":-14.0472065,"lon":34.1063032,"type":"village"},{"id":"316932758","name":"Nazombe","lat":-15.7731991,"lon":35.7669166,"type":"village"},{"id":"316933141","name":"Chambe","lat":-15.9041583,"lon":35.4917435,"type":"village"},{"id":"316933293","name":"Chisitu","lat":-15.9979078,"lon":35.4368118,"type":"village"},{"id":"317370342","name":"Kafukule","lat":-11.4675832,"lon":33.629223,"type":"village"},{"id":"317370657","name":"Timbiri","lat":-11.5462158,"lon":34.1887073,"type":"village"},{"id":"317370884","name":"Pelete","lat":-12.9077807,"lon":33.9072933,"type":"village"},{"id":"317371103","name":"Mpalawe","lat":-13.4717584,"lon":33.6389981,"type":"village"},{"id":"317371286","name":"Mabulabo","lat":-12.5969845,"lon":33.6036049,"type":"village"},{"id":"317371313","name":"Chipoza","lat":-13.4137643,"lon":33.3935139,"type":"village"},{"id":"317397413","name":"Mnyanga","lat":-14.3090985,"lon":34.1794709,"type":"village"},{"id":"317434435","name":"Nkwazi","lat":-13.9227483,"lon":33.2288701,"type":"village"},{"id":"317519962","name":"Njuli","lat":-15.6930929,"lon":35.1274624,"type":"village"},{"id":"317704492","name":"Mpokosa","lat":-14.1522666,"lon":33.884345,"type":"village"},{"id":"317704534","name":"Kalumbu","lat":-14.1352143,"lon":33.9475109,"type":"village"},{"id":"317786349","name":"Lozi","lat":-12.8528364,"lon":34.2490137,"type":"village"},{"id":"317931061","name":"Thyolo","lat":-16.0668788,"lon":35.1485842,"type":"town"},{"id":"318556886","name":"Chongole","lat":-13.1296664,"lon":34.3289997,"type":"village"},{"id":"318558601","name":"Jenda","lat":-12.3560576,"lon":33.5497146,"type":"village"},{"id":"319675526","name":"Songani","lat":-15.3156552,"lon":35.3923359,"type":"village"},{"id":"319675562","name":"Malosa","lat":-15.2113233,"lon":35.355257,"type":"village"},{"id":"321199833","name":"Walkers Ferry","lat":-15.5124887,"lon":34.8326134,"type":"village"},{"id":"321431472","name":"Ngara","lat":-10.2298702,"lon":34.1062812,"type":"village"},{"id":"321431743","name":"Nchewere","lat":-10.3428659,"lon":34.1897086,"type":"village"},{"id":"321816966","name":"Mwase","lat":-13.0664159,"lon":33.4387406,"type":"village"},{"id":"322040441","name":"Chilanga","lat":-14.0934608,"lon":34.1957147,"type":"village"},{"id":"322040501","name":"Konka","lat":-14.082251,"lon":34.1667525,"type":"village"},{"id":"322042240","name":"Kasina Mission","lat":-14.1390213,"lon":34.1317336,"type":"village"},{"id":"322766653","name":"Wovwe","lat":-10.3141923,"lon":34.1380728,"type":"village"},{"id":"323662953","name":"Chana","lat":-13.8700832,"lon":34.4528634,"type":"village"},{"id":"323689290","name":"Mchokela","lat":-14.0809733,"lon":34.1188104,"type":"village"},{"id":"323689313","name":"Mikundi","lat":-14.072315,"lon":34.1352899,"type":"village"},{"id":"323690943","name":"Mapemba","lat":-14.0972899,"lon":34.2221422,"type":"village"},{"id":"323693003","name":"Khombe","lat":-14.182185,"lon":34.3182809,"type":"village"},{"id":"323699384","name":"Mlinga","lat":-14.2136379,"lon":34.0867097,"type":"village"},{"id":"323699538","name":"Chule","lat":-14.2495788,"lon":34.0873963,"type":"village"},{"id":"323699558","name":"Kambuzi","lat":-14.2612251,"lon":34.0834481,"type":"village"},{"id":"323700112","name":"Kamonga","lat":-14.2839104,"lon":34.0776325,"type":"village"},{"id":"323708456","name":"Abrahamu","lat":-14.3275975,"lon":34.5460755,"type":"village"},{"id":"323711529","name":"Ndindi","lat":-13.9645474,"lon":34.5137174,"type":"village"},{"id":"323713591","name":"Ngolomi","lat":-13.8279154,"lon":34.4401605,"type":"village"},{"id":"323760859","name":"Mwankundi","lat":-13.7682706,"lon":34.3679903,"type":"village"},{"id":"323790492","name":"Kapesi","lat":-14.2441247,"lon":34.3774317,"type":"village"},{"id":"323791935","name":"Chimphando","lat":-14.18555,"lon":34.281473,"type":"village"},{"id":"323792810","name":"Milonde","lat":-14.166743,"lon":34.2090319,"type":"village"},{"id":"323940917","name":"Mpata","lat":-14.1659697,"lon":34.1735345,"type":"village"},{"id":"328857938","name":"Kabindiza","lat":-13.3576127,"lon":33.8214757,"type":"village"},{"id":"339172326","name":"Njuci","lat":-14.3378744,"lon":33.8955701,"type":"village"},{"id":"351233343","name":"Chilima","lat":-13.793948,"lon":34.116131,"type":"village"},{"id":"351303899","name":"Chitekwele","lat":-13.9565372,"lon":34.1159703,"type":"village"},{"id":"351306011","name":"Mpeya","lat":-13.9971825,"lon":34.0924527,"type":"village"},{"id":"351311224","name":"Chimamba","lat":-14.1518685,"lon":34.158199,"type":"village"},{"id":"351311452","name":"Linyama","lat":-14.1077546,"lon":34.168327,"type":"village"},{"id":"351316128","name":"Mayani","lat":-14.0909391,"lon":34.2483212,"type":"village"},{"id":"351316843","name":"Maganga","lat":-14.0538074,"lon":34.2603375,"type":"village"},{"id":"351318301","name":"Kapazila","lat":-14.0141715,"lon":34.2630841,"type":"village"},{"id":"351320137","name":"Kalibe","lat":-13.8288912,"lon":34.331062,"type":"village"},{"id":"351322173","name":"Mphinzi","lat":-13.8427257,"lon":34.3073727,"type":"village"},{"id":"351325510","name":"Kambwiri","lat":-13.7877162,"lon":34.4098545,"type":"village"},{"id":"351404258","name":"Mkulamwendo","lat":-14.1884849,"lon":34.3578411,"type":"village"},{"id":"351404680","name":"Kanyenda","lat":-14.2104519,"lon":34.3600727,"type":"village"},{"id":"351405710","name":"Magunditsa","lat":-14.2690202,"lon":34.3324353,"type":"village"},{"id":"351412853","name":"Nkomeko","lat":-14.2547123,"lon":34.2956997,"type":"village"},{"id":"351413397","name":"Chitimba","lat":-14.2405699,"lon":34.2699505,"type":"village"},{"id":"351413671","name":"Kankhumba","lat":-14.2344135,"lon":34.2706372,"type":"village"},{"id":"353292012","name":"Fort Lister","lat":-15.8482521,"lon":35.7050457,"type":"village"},{"id":"359882414","name":"Abele","lat":-14.1357399,"lon":33.6623966,"type":"village"},{"id":"373327781","name":"Uliwa","lat":-10.4524968,"lon":34.2106778,"type":"town"},{"id":"373337944","name":"Chowe","lat":-14.4225853,"lon":35.3809199,"type":"village"},{"id":"373338019","name":"Idulusi","lat":-14.3595671,"lon":35.3972962,"type":"village"},{"id":"373339044","name":"Namwera","lat":-14.3639217,"lon":35.5054899,"type":"village"},{"id":"373339559","name":"Chilokoti","lat":-14.3244243,"lon":35.5392246,"type":"village"},{"id":"373345072","name":"Mpingo","lat":-15.8913146,"lon":34.8928195,"type":"village"},{"id":"373345610","name":"Mphatiku","lat":-15.9284589,"lon":34.8650962,"type":"village"},{"id":"373348177","name":"Imbwa","lat":-15.8529715,"lon":34.8697794,"type":"village"},{"id":"373402373","name":"Chibinya","lat":-13.2246843,"lon":33.9180805,"type":"village"},{"id":"373402732","name":"Nyalabvi","lat":-13.458524,"lon":33.8851216,"type":"village"},{"id":"373403374","name":"Chinkhandwe","lat":-13.4087686,"lon":33.9369633,"type":"village"},{"id":"373404040","name":"Chinthembwe","lat":-13.4331467,"lon":33.9706089,"type":"village"},{"id":"374205745","name":"Bowe","lat":-13.2871394,"lon":33.6912015,"type":"village"},{"id":"388304867","name":"Mpira","lat":-14.855282,"lon":34.6432451,"type":"village"},{"id":"388491317","name":"Nkudzi","lat":-14.176294,"lon":34.9988224,"type":"village"},{"id":"388491954","name":"Kasankha","lat":-14.1172451,"lon":34.8627481,"type":"village"},{"id":"388492045","name":"Chimphamba","lat":-14.0686453,"lon":34.8445177,"type":"village"},{"id":"388492835","name":"Chirombo","lat":-14.1209613,"lon":34.9336977,"type":"village"},{"id":"388493476","name":"Mvunguti","lat":-14.0362346,"lon":34.90184,"type":"village"},{"id":"388498041","name":"Chembe","lat":-14.0165869,"lon":34.8492592,"type":"village"},{"id":"388593283","name":"Chapola","lat":-15.3376043,"lon":35.4887073,"type":"village"},{"id":"388597658","name":"Zolokere","lat":-10.8549294,"lon":33.4813519,"type":"village"},{"id":"389681824","name":"Nkopola","lat":-14.3176478,"lon":35.1296521,"type":"village"},{"id":"390156427","name":"Tukombo","lat":-12.08565,"lon":34.0545979,"type":"village"},{"id":"390280659","name":"Mbawa","lat":-12.0874661,"lon":33.3869229,"type":"village"},{"id":"390341586","name":"Dwangwa","lat":-12.506334,"lon":34.1096334,"type":"village"},{"id":"390341741","name":"Liwaladzi","lat":-12.615159,"lon":34.1626327,"type":"village"},{"id":"390343738","name":"Nkhunga","lat":-12.4755986,"lon":34.1048992,"type":"village"},{"id":"390743122","name":"Wimbe","lat":-12.9853902,"lon":33.6923324,"type":"village"},{"id":"390745564","name":"Chamama","lat":-12.9214576,"lon":33.7648579,"type":"village"},{"id":"390747162","name":"Nsipe","lat":-14.8710636,"lon":34.7484271,"type":"village"},{"id":"390753883","name":"Ntela","lat":-14.6161678,"lon":35.1830724,"type":"village"},{"id":"390823928","name":"Kankao","lat":-15.0541412,"lon":34.9218335,"type":"village"},{"id":"390824329","name":"Phalula","lat":-15.2249522,"lon":34.8896848,"type":"village"},{"id":"390827471","name":"Tengani","lat":-16.7324541,"lon":35.2596072,"type":"village"},{"id":"390925265","name":"Nselema","lat":-14.7178064,"lon":35.5517022,"type":"village"},{"id":"390946174","name":"Bembeke","lat":-14.3461749,"lon":34.4208546,"type":"village"},{"id":"391020027","name":"Langeni","lat":-12.5797284,"lon":33.6071239,"type":"village"},{"id":"391020352","name":"Kaluluma","lat":-12.5817922,"lon":33.5190174,"type":"village"},{"id":"391020467","name":"Zikheta","lat":-12.5943573,"lon":33.5176441,"type":"village"},{"id":"391020502","name":"Chisemphere","lat":-12.6266887,"lon":33.5155842,"type":"village"},{"id":"391020630","name":"Jere","lat":-12.6307089,"lon":33.498933,"type":"village"},{"id":"391021453","name":"Mponda","lat":-14.4583889,"lon":35.2446415,"type":"village"},{"id":"391023508","name":"Nkope","lat":-14.1967449,"lon":35.0358396,"type":"village"},{"id":"391024977","name":"Namalaka","lat":-14.121235,"lon":35.1937929,"type":"village"},{"id":"391026242","name":"Bamantha","lat":-10.948229,"lon":33.7449001,"type":"village"},{"id":"391026677","name":"Mwachanda","lat":-10.9586781,"lon":33.6497997,"type":"village"},{"id":"391026815","name":"Lularwe","lat":-10.9450267,"lon":33.5802768,"type":"village"},{"id":"391027303","name":"Zunguza","lat":-11.0222074,"lon":33.5821651,"type":"village"},{"id":"391029084","name":"Msowoya","lat":-11.0375401,"lon":33.9349292,"type":"village"},{"id":"391029684","name":"Luwagha","lat":-10.8898301,"lon":33.9797212,"type":"village"},{"id":"391029862","name":"Engucwini","lat":-11.1985322,"lon":33.8216907,"type":"village"},{"id":"391030929","name":"Mpherapi","lat":-11.1582793,"lon":33.6523174,"type":"village"},{"id":"391031536","name":"Malisawa Ngwira","lat":-11.1099156,"lon":33.7256992,"type":"village"},{"id":"391032222","name":"Mujuma Nyasulu","lat":-11.1429262,"lon":33.7142109,"type":"village"},{"id":"391259793","name":"Chimzinga","lat":-12.3938625,"lon":33.5392712,"type":"village"},{"id":"391259825","name":"Eheleni","lat":-12.3115314,"lon":33.6035191,"type":"village"},{"id":"391260678","name":"Kamando","lat":-12.4606658,"lon":33.6715923,"type":"village"},{"id":"391261143","name":"Makhuwila Nkhoma","lat":-12.423741,"lon":33.7592327,"type":"village"},{"id":"391262467","name":"Kamdidi","lat":-12.5132313,"lon":33.4642634,"type":"village"},{"id":"391263782","name":"Kasichi","lat":-12.5329649,"lon":33.4949419,"type":"village"},{"id":"391263905","name":"Chimenya","lat":-12.4329647,"lon":33.5308109,"type":"village"},{"id":"391264631","name":"Silimoni","lat":-12.5317919,"lon":33.6052357,"type":"village"},{"id":"391275990","name":"Mazweni","lat":-12.5575401,"lon":33.5842441,"type":"village"},{"id":"391276267","name":"Kalioka","lat":-12.5351433,"lon":33.5124514,"type":"village"},{"id":"391289237","name":"Kapindula","lat":-12.41955,"lon":33.7128376,"type":"village"},{"id":"391290514","name":"Nkhata","lat":-12.6590445,"lon":33.6826992,"type":"village"},{"id":"391290594","name":"Chiwandauka","lat":-12.6548573,"lon":33.657465,"type":"village"},{"id":"391290741","name":"Chirwa","lat":-12.6449751,"lon":33.5108661,"type":"village"},{"id":"391290771","name":"Kelula","lat":-12.5843337,"lon":33.5074329,"type":"village"},{"id":"391290822","name":"Emfeni","lat":-12.5929354,"lon":33.5839041,"type":"village"},{"id":"391290994","name":"Deni","lat":-12.4863168,"lon":33.6094044,"type":"village"},{"id":"391291251","name":"Kakware","lat":-12.5053324,"lon":33.5284608,"type":"village"},{"id":"391305967","name":"Warika","lat":-11.2772396,"lon":33.4351024,"type":"village"},{"id":"391305968","name":"Bota","lat":-11.2632664,"lon":33.4086666,"type":"village"},{"id":"391306162","name":"Emcisweni","lat":-11.2863849,"lon":33.6077708,"type":"village"},{"id":"391306201","name":"Daniel Jere","lat":-11.2415501,"lon":33.6173008,"type":"village"},{"id":"391306232","name":"Zebediya Makwakwa","lat":-11.2272746,"lon":33.7073112,"type":"village"},{"id":"391307347","name":"Ziwuya Lungu","lat":-11.2279481,"lon":33.6607288,"type":"village"},{"id":"391743542","name":"Namanja","lat":-14.9648425,"lon":35.6782693,"type":"village"},{"id":"391758781","name":"Chamba","lat":-15.9052829,"lon":34.9162279,"type":"village"},{"id":"391766729","name":"Padzuwa","lat":-15.8926088,"lon":34.8409441,"type":"village"},{"id":"391771997","name":"Mubanga","lat":-9.7848309,"lon":33.3287247,"type":"village"},{"id":"391844069","name":"Mitundu","lat":-14.248669,"lon":33.7787688,"type":"town"},{"id":"391845663","name":"Pemba","lat":-13.8242178,"lon":34.520734,"type":"village"},{"id":"391846349","name":"Kachulu","lat":-13.6353497,"lon":34.5223648,"type":"village"},{"id":"416633187","name":"Kasina","lat":-14.0641607,"lon":33.9594489,"type":"village"},{"id":"417021490","name":"Mchochoma","lat":-14.3990934,"lon":34.4365838,"type":"village"},{"id":"417022030","name":"Kalilombe","lat":-14.3877444,"lon":34.4099628,"type":"village"},{"id":"417022697","name":"Mwala wa Nkhondo","lat":-14.3941067,"lon":34.3912287,"type":"village"},{"id":"417023694","name":"Kamwenya Gwaza","lat":-14.3669346,"lon":34.440349,"type":"village"},{"id":"417024900","name":"Ngonoonda","lat":-14.3241932,"lon":34.4432672,"type":"village"},{"id":"417026268","name":"Kasumbu","lat":-14.3050734,"lon":34.3519741,"type":"village"},{"id":"417028849","name":"Kabulika","lat":-14.4262322,"lon":34.5800555,"type":"village"},{"id":"417051225","name":"Kawinga","lat":-14.85336,"lon":35.5720988,"type":"village"},{"id":"417057034","name":"Nambuma","lat":-13.704086,"lon":33.6014591,"type":"village"},{"id":"417058859","name":"Kachebere","lat":-13.7726165,"lon":32.8253542,"type":"village"},{"id":"417059514","name":"Nguludi","lat":-15.8018995,"lon":35.1674725,"type":"village"},{"id":"417064511","name":"Nkaya","lat":-15.1339997,"lon":35.0274451,"type":"village"},{"id":"417091726","name":"Donjia Nkhoma","lat":-12.1736805,"lon":33.6954673,"type":"village"},{"id":"417582373","name":"Njewa","lat":-13.71447,"lon":33.8952178,"type":"village"},{"id":"417587008","name":"Chimombo","lat":-13.5529484,"lon":33.8952158,"type":"village"},{"id":"417603894","name":"Mbingwa","lat":-13.5532068,"lon":33.5119381,"type":"village"},{"id":"417635471","name":"Nakutepa","lat":-13.5795491,"lon":33.8679803,"type":"village"},{"id":"417636303","name":"Kazembe","lat":-12.6498072,"lon":33.7006012,"type":"village"},{"id":"418117926","name":"Zowe","lat":-14.0258296,"lon":33.9534423,"type":"village"},{"id":"418120247","name":"Makata","lat":-15.6299561,"lon":35.0791474,"type":"village"},{"id":"418341442","name":"Chiwengo","lat":-13.0907476,"lon":33.5306858,"type":"village"},{"id":"418341759","name":"Mphunga","lat":-13.6522632,"lon":34.2833597,"type":"village"},{"id":"418347140","name":"Dzoole","lat":-14.0313093,"lon":33.4825359,"type":"village"},{"id":"418348197","name":"Khonjeni","lat":-16.0989201,"lon":35.2691777,"type":"village"},{"id":"418352352","name":"Katimba","lat":-13.282874,"lon":33.7640307,"type":"village"},{"id":"418353711","name":"Kaphuka","lat":-14.1485093,"lon":34.1818563,"type":"village"},{"id":"418356182","name":"Nankumba","lat":-14.3653661,"lon":34.8167,"type":"village"},{"id":"418357683","name":"Maganga","lat":-13.8516166,"lon":34.5627858,"type":"village"},{"id":"418359900","name":"Chiwaula","lat":-13.912951,"lon":33.0150692,"type":"village"},{"id":"418360568","name":"Kafulama","lat":-13.9041197,"lon":32.9906933,"type":"village"},{"id":"418360986","name":"Mpomba","lat":-13.8761239,"lon":33.0052845,"type":"village"},{"id":"418361302","name":"Mlonyeni","lat":-13.8597914,"lon":33.0281155,"type":"village"},{"id":"418361991","name":"Sampale","lat":-13.86075,"lon":32.9579774,"type":"village"},{"id":"418732147","name":"Malambo","lat":-13.2167836,"lon":33.7623226,"type":"village"},{"id":"418732587","name":"Kadifula","lat":-13.1578012,"lon":33.6205608,"type":"village"},{"id":"418733007","name":"Mphekesa","lat":-13.1964068,"lon":33.6583744,"type":"village"},{"id":"418735902","name":"Nduwa","lat":-12.9610759,"lon":33.6208157,"type":"village"},{"id":"418739473","name":"Magomero","lat":-15.6068614,"lon":35.2658298,"type":"village"},{"id":"418761810","name":"Chiwale","lat":-14.2177816,"lon":33.6500858,"type":"village"},{"id":"418762096","name":"Kulizamimba","lat":-14.1962759,"lon":33.6391437,"type":"village"},{"id":"418762128","name":"Chasowa","lat":-14.2008524,"lon":33.6005199,"type":"village"},{"id":"418762364","name":"Tenga","lat":-14.1137866,"lon":33.6813259,"type":"village"},{"id":"418762563","name":"Malili","lat":-14.0823086,"lon":33.6950437,"type":"village"},{"id":"418766386","name":"Chirinza","lat":-14.0218936,"lon":33.6302089,"type":"village"},{"id":"418767756","name":"Bwatalika","lat":-13.982976,"lon":33.5667344,"type":"village"},{"id":"418800052","name":"Hangeni","lat":-12.498653,"lon":33.5701494,"type":"village"},{"id":"418801152","name":"Kajosi","lat":-12.5664356,"lon":33.4995108,"type":"village"},{"id":"418802456","name":"Magunje","lat":-12.5820461,"lon":33.3815591,"type":"village"},{"id":"418807188","name":"Benula","lat":-12.7464003,"lon":33.5487125,"type":"village"},{"id":"418820124","name":"Chauwa","lat":-13.7350509,"lon":33.8997425,"type":"village"},{"id":"418822028","name":"Bvumbwe","lat":-15.9428201,"lon":35.026691,"type":"village"},{"id":"419134912","name":"Chingali","lat":-15.4005792,"lon":35.1816692,"type":"village"},{"id":"419134956","name":"Sangala","lat":-15.3782359,"lon":35.1255359,"type":"village"},{"id":"419135838","name":"Machinjiri","lat":-15.2355766,"lon":35.4172953,"type":"village"},{"id":"419543778","name":"Mtandizi","lat":-14.8461007,"lon":34.6856174,"type":"village"},{"id":"419544698","name":"Katumba","lat":-14.7238882,"lon":34.6853406,"type":"village"},{"id":"419545332","name":"Chakhumbira","lat":-14.570571,"lon":34.7042057,"type":"village"},{"id":"419545343","name":"Citsulu","lat":-14.6747541,"lon":34.7856174,"type":"village"},{"id":"419563567","name":"Mkutumula","lat":-14.8442651,"lon":34.8951721,"type":"village"},{"id":"419567298","name":"Nsonde","lat":-14.7659768,"lon":35.6703943,"type":"village"},{"id":"419697005","name":"Chulu","lat":-12.8241485,"lon":33.3069523,"type":"village"},{"id":"419710833","name":"Kawamba","lat":-13.2961994,"lon":33.341411,"type":"village"},{"id":"419710849","name":"Mtanga","lat":-13.2808294,"lon":33.3863863,"type":"village"},{"id":"419711146","name":"Maripela","lat":-13.2642773,"lon":33.2681591,"type":"village"},{"id":"419711291","name":"Linyangwa","lat":-13.1197929,"lon":33.2912823,"type":"village"},{"id":"419750860","name":"Bokosi Dindi","lat":-11.9312426,"lon":33.5044203,"type":"village"},{"id":"419758632","name":"Mbambo","lat":-12.7002599,"lon":33.4885268,"type":"village"},{"id":"419759090","name":"Chandiwira Moyo","lat":-11.0635833,"lon":33.9166142,"type":"village"},{"id":"419760011","name":"Nkhamenya","lat":-12.5666162,"lon":33.5136959,"type":"village"},{"id":"419760261","name":"Madisi","lat":-13.4157816,"lon":33.6074673,"type":"village"},{"id":"419760734","name":"Madisi","lat":-11.2644272,"lon":33.7820125,"type":"village"},{"id":"420076437","name":"Chisi Point","lat":-11.663926,"lon":34.3265193,"type":"village"},{"id":"427620953","name":"Chipalanje","lat":-15.3994208,"lon":34.9397373,"type":"village"},{"id":"427622655","name":"Ndelema","lat":-15.51364,"lon":34.7335575,"type":"village"},{"id":"427623637","name":"Kunthembwe","lat":-15.6654604,"lon":34.8837292,"type":"village"},{"id":"429172007","name":"Katema","lat":-14.5150382,"lon":35.0531269,"type":"village"},{"id":"430167905","name":"Masaula","lat":-15.3236536,"lon":35.1165283,"type":"village"},{"id":"430168178","name":"Namatunu","lat":-15.3951626,"lon":35.0670899,"type":"village"},{"id":"430169150","name":"Kweneza","lat":-15.2529443,"lon":34.5989889,"type":"village"},{"id":"430170896","name":"Kamchocho","lat":-11.6646826,"lon":33.4113785,"type":"village"},{"id":"430178164","name":"Migowi","lat":-15.7190171,"lon":35.6864215,"type":"village"},{"id":"430211389","name":"Muona","lat":-16.4096194,"lon":35.1641251,"type":"village"},{"id":"463907498","name":"Kenan Ngomba","lat":-10.0678816,"lon":33.6813274,"type":"village"},{"id":"475939861","name":"Thekerani","lat":-16.322881,"lon":35.2053284,"type":"village"},{"id":"476282567","name":"Nansadi","lat":-15.8875844,"lon":35.1981969,"type":"village"},{"id":"476487263","name":"Mkanda","lat":-13.5182022,"lon":32.9553215,"type":"village"},{"id":"476492068","name":"Santhe","lat":-13.9316339,"lon":33.4308967,"type":"village"},{"id":"476496899","name":"Mvera Mission","lat":-13.731966,"lon":34.1272919,"type":"village"},{"id":"476500969","name":"Mpamba","lat":-13.5950779,"lon":33.9640392,"type":"village"},{"id":"476503929","name":"Ndunde","lat":-15.6995484,"lon":35.2413148,"type":"village"},{"id":"476506082","name":"Matope Bridge","lat":-15.3869728,"lon":34.9035976,"type":"village"},{"id":"476507839","name":"Mtaja","lat":-15.595212,"lon":35.3714928,"type":"village"},{"id":"476648323","name":"Mdoka","lat":-10.2893,"lon":34.1756283,"type":"village"},{"id":"476658883","name":"Dyanyama","lat":-15.6750598,"lon":35.4403163,"type":"village"},{"id":"476660436","name":"Chitenjere","lat":-15.1950303,"lon":35.3778068,"type":"village"},{"id":"476661948","name":"Chawesa","lat":-15.5380963,"lon":35.5784935,"type":"village"},{"id":"477369584","name":"Limbuli Trading Center","lat":-16.073266,"lon":35.7152358,"type":"village"},{"id":"477399119","name":"Mibanga","lat":-10.1281203,"lon":33.7067065,"type":"village"},{"id":"477399272","name":"Mahowe","lat":-10.1811776,"lon":33.6941752,"type":"village"},{"id":"477399638","name":"Karopa","lat":-10.2139539,"lon":33.6454234,"type":"village"},{"id":"477405202","name":"Gondoli","lat":-11.9138446,"lon":34.0972534,"type":"village"},{"id":"477414121","name":"Kavuzi Trading Center","lat":-11.5262223,"lon":34.0839234,"type":"village"},{"id":"477422384","name":"Kapeska","lat":-11.9079281,"lon":34.1570425,"type":"village"},{"id":"477423252","name":"Mutchaya","lat":-11.9107836,"lon":34.1621065,"type":"village"},{"id":"477423367","name":"Kamwala","lat":-11.9281674,"lon":34.1696596,"type":"village"},{"id":"480048125","name":"Chigukumile Trading Center","lat":-15.5472712,"lon":35.5753177,"type":"village"},{"id":"480055585","name":"Visanza","lat":-13.3495824,"lon":33.9205624,"type":"village"},{"id":"480143821","name":"Somba","lat":-14.6529064,"lon":35.5438572,"type":"village"},{"id":"480232279","name":"Mpalo","lat":-13.4835835,"lon":33.8424627,"type":"village"},{"id":"480270170","name":"Mvera","lat":-13.7553512,"lon":34.2554907,"type":"village"},{"id":"480289694","name":"Thambani","lat":-15.7273579,"lon":34.4002575,"type":"village"},{"id":"486274305","name":"Mtemwende","lat":-14.157407,"lon":34.2719357,"type":"village"},{"id":"486283254","name":"Taweya","lat":-14.1993812,"lon":34.2481287,"type":"village"},{"id":"486288561","name":"Kanchitu","lat":-14.3488321,"lon":34.3962299,"type":"village"},{"id":"486289592","name":"Chinkwita","lat":-14.3007063,"lon":34.4197901,"type":"village"},{"id":"486295125","name":"Gwenembe","lat":-14.0621208,"lon":34.1076389,"type":"village"},{"id":"486296170","name":"Mchirazaguru","lat":-14.0141589,"lon":34.1057507,"type":"village"},{"id":"486296717","name":"Chingodi","lat":-14.0606222,"lon":34.0599171,"type":"village"},{"id":"486297208","name":"Mkhalala","lat":-14.0927579,"lon":34.0899578,"type":"village"},{"id":"486298275","name":"Nadulu","lat":-14.2131019,"lon":34.0672985,"type":"village"},{"id":"486298903","name":"Nyombe","lat":-14.2611883,"lon":34.1091839,"type":"village"},{"id":"488207910","name":"Chiowa","lat":-14.044506,"lon":34.1517611,"type":"village"},{"id":"488222450","name":"Bembeke","lat":-14.3999357,"lon":34.3970652,"type":"village"},{"id":"488331760","name":"Chongoni","lat":-14.1942312,"lon":34.1713623,"type":"village"},{"id":"493202657","name":"Thambolagwa","lat":-14.4154292,"lon":34.1652368,"type":"village"},{"id":"493619560","name":"Kasasanya","lat":-12.8753512,"lon":33.4236011,"type":"village"},{"id":"504586215","name":"Nkhulambe 1","lat":-15.8539686,"lon":35.7485718,"type":"village"},{"id":"504592657","name":"Mini Mini","lat":-16.0576996,"lon":35.5796355,"type":"village"},{"id":"561310837","name":"Mwansambo","lat":-13.3099833,"lon":34.1178243,"type":"village"},{"id":"563872537","name":"Namitete","lat":-14.0228755,"lon":33.3607953,"type":"town"},{"id":"567142886","name":"Mangumbi","lat":-14.2520661,"lon":35.0814679,"type":"village"},{"id":"568385704","name":"Mlondoma","lat":-10.761526,"lon":34.1237824,"type":"village"},{"id":"568385801","name":"Mojowa","lat":-10.7629004,"lon":34.1233704,"type":"village"},{"id":"568389726","name":"Chimbweya","lat":-13.4892165,"lon":34.0247425,"type":"village"},{"id":"568389921","name":"Chikho","lat":-13.441137,"lon":33.9746174,"type":"village"},{"id":"568548389","name":"Lingona","lat":-12.9586156,"lon":34.2975109,"type":"village"},{"id":"568590225","name":"Nkangayawala","lat":-13.7931907,"lon":34.3316617,"type":"village"},{"id":"569066322","name":"Nchenachena","lat":-10.7737828,"lon":34.0366104,"type":"village"},{"id":"569087354","name":"Chiwaula","lat":-14.556496,"lon":35.1818645,"type":"village"},{"id":"569087460","name":"Mphwanya","lat":-14.579714,"lon":35.178535,"type":"village"},{"id":"569087569","name":"Chipala","lat":-14.5014931,"lon":35.2386844,"type":"village"},{"id":"569087677","name":"Chamba","lat":-14.4825463,"lon":35.2489841,"type":"village"},{"id":"569087916","name":"Mtambo","lat":-14.6500192,"lon":35.1830661,"type":"village"},{"id":"569088044","name":"Mtanga","lat":-14.6853979,"lon":35.1829775,"type":"village"},{"id":"569088618","name":"Mbapi","lat":-14.3232634,"lon":34.776057,"type":"village"},{"id":"573410893","name":"Kasakula","lat":-13.3437366,"lon":34.0760044,"type":"village"},{"id":"597375801","name":"Chikangawa","lat":-11.8704242,"lon":33.7992857,"type":"village"},{"id":"601374487","name":"Masenjere","lat":-16.3404874,"lon":35.1004534,"type":"village"},{"id":"601377932","name":"MBame","lat":-15.9227877,"lon":34.9432191,"type":"village"},{"id":"601379013","name":"Namonde","lat":-15.9246035,"lon":34.8977288,"type":"village"},{"id":"601379191","name":"Maluwa","lat":-15.9193211,"lon":34.9492272,"type":"village"},{"id":"601379257","name":"Binali","lat":-15.9260892,"lon":34.935666,"type":"village"},{"id":"601379258","name":"Kapalaliza","lat":-15.9498582,"lon":34.9057969,"type":"village"},{"id":"602220804","name":"Kalimezako","lat":-15.2643535,"lon":34.6355474,"type":"village"},{"id":"602485760","name":"Matutu Trading Center","lat":-13.6878033,"lon":33.0480629,"type":"village"},{"id":"603849131","name":"Ngokwe","lat":-14.7094227,"lon":35.8014216,"type":"village"},{"id":"604389121","name":"Mbulumbuzi","lat":-15.6670306,"lon":35.1589752,"type":"village"},{"id":"604729931","name":"Thunga","lat":-15.9880857,"lon":35.0764335,"type":"village"},{"id":"604752273","name":"Nkhate","lat":-16.1439904,"lon":34.9567335,"type":"village"},{"id":"604808439","name":"Thabwa","lat":-16.0356184,"lon":34.8550368,"type":"village"},{"id":"604833663","name":"Dzimphutsi","lat":-16.0960207,"lon":34.9103789,"type":"village"},{"id":"604965598","name":"Nsanama","lat":-14.99342,"lon":35.490792,"type":"village"},{"id":"604971656","name":"Eswanzini","lat":-11.7273173,"lon":33.6620084,"type":"village"},{"id":"604980992","name":"Liwenga","lat":-13.0813195,"lon":33.8386761,"type":"village"},{"id":"604981771","name":"Kachuma","lat":-12.9705055,"lon":34.23153,"type":"village"},{"id":"604982151","name":"Chanika","lat":-12.9284654,"lon":34.1933101,"type":"village"},{"id":"604982564","name":"Gogode","lat":-12.8893424,"lon":33.5589521,"type":"village"},{"id":"604983032","name":"Suza","lat":-12.9359625,"lon":33.4832708,"type":"village"},{"id":"605236866","name":"Agrippa Jere","lat":-11.3677826,"lon":33.3805031,"type":"village"},{"id":"605236886","name":"Mthatha","lat":-11.537511,"lon":33.5886559,"type":"village"},{"id":"605239780","name":"Kandodo Chisi","lat":-11.9000219,"lon":33.5537345,"type":"village"},{"id":"605239824","name":"Engalaweni","lat":-11.9072446,"lon":33.3652503,"type":"village"},{"id":"605240105","name":"Chaisi Ndhlovu","lat":-11.8017198,"lon":33.3585925,"type":"village"},{"id":"605245630","name":"Kamtuwale","lat":-12.7664092,"lon":33.3494819,"type":"village"},{"id":"605249274","name":"Magodi Nyirenda","lat":-11.5483195,"lon":33.5604896,"type":"village"},{"id":"605249442","name":"Yesaya Nkosi","lat":-11.7147743,"lon":33.5474433,"type":"village"},{"id":"605255337","name":"Kapesi","lat":-13.5968467,"lon":32.7108234,"type":"village"},{"id":"605286719","name":"Bwanaisa","lat":-15.8218329,"lon":35.6202379,"type":"village"},{"id":"605593542","name":"Chipumi TC","lat":-13.6233639,"lon":33.0810648,"type":"village"},{"id":"605717186","name":"Vongo","lat":-11.025435,"lon":33.7841875,"type":"village"},{"id":"605832748","name":"Kasiya","lat":-13.7533159,"lon":33.4149364,"type":"village"},{"id":"606834098","name":"Othambwe","lat":-13.7264248,"lon":33.8045832,"type":"village"},{"id":"606836414","name":"Chingeni","lat":-14.9582493,"lon":34.8951101,"type":"village"},{"id":"606847422","name":"Mangoma","lat":-14.171365,"lon":34.9436051,"type":"village"},{"id":"606976602","name":"Sandama","lat":-16.2060824,"lon":35.2948559,"type":"village"},{"id":"606982858","name":"Njolo","lat":-14.3024079,"lon":34.5307069,"type":"village"},{"id":"609104788","name":"Thumbi","lat":-11.0306383,"lon":33.9354409,"type":"village"},{"id":"610821903","name":"Santhe","lat":-13.4358045,"lon":33.3924839,"type":"village"},{"id":"615159567","name":"Village","lat":-14.3719233,"lon":34.4325169,"type":"village"},{"id":"687482198","name":"Moloseni","lat":-16.4612076,"lon":35.1768101,"type":"village"},{"id":"687482212","name":"Khasu","lat":-16.4789935,"lon":35.1875287,"type":"village"},{"id":"687482227","name":"Chambuluka","lat":-16.4711384,"lon":35.1912264,"type":"village"},{"id":"687482415","name":"Adam","lat":-16.4434385,"lon":35.1901244,"type":"village"},{"id":"687482423","name":"Nyaikha","lat":-16.4474245,"lon":35.1928189,"type":"village"},{"id":"687482425","name":"Chabe","lat":-16.4615278,"lon":35.2008619,"type":"village"},{"id":"687482428","name":"Gundani","lat":-16.4560378,"lon":35.2007124,"type":"village"},{"id":"687482465","name":"Khavala","lat":-16.414337,"lon":35.1670374,"type":"village"},{"id":"687482470","name":"Malothi","lat":-16.4154263,"lon":35.1689614,"type":"village"},{"id":"687482482","name":"Napasha","lat":-16.4218508,"lon":35.176196,"type":"village"},{"id":"739388790","name":"Chipondeni","lat":-16.4182659,"lon":35.1473372,"type":"village"},{"id":"739388862","name":"Chinekwe","lat":-16.3789633,"lon":35.1336618,"type":"village"},{"id":"739388871","name":"Angayanjane","lat":-16.3760558,"lon":35.1306154,"type":"village"},{"id":"739388909","name":"Chomboto","lat":-16.3893555,"lon":35.1419165,"type":"village"},{"id":"740440184","name":"Jokoniya","lat":-16.401022,"lon":35.1468751,"type":"village"},{"id":"743227485","name":"Chamawoya","lat":-11.5366822,"lon":34.0933545,"type":"village"},{"id":"745741101","name":"Malemi","lat":-13.9304072,"lon":33.3941445,"type":"village"},{"id":"745741250","name":"Masula","lat":-13.9316332,"lon":33.4064437,"type":"village"},{"id":"745749117","name":"Makanda","lat":-12.9897874,"lon":33.6297469,"type":"village"},{"id":"745759167","name":"Kawere","lat":-13.5909023,"lon":32.9455624,"type":"village"},{"id":"746363239","name":"Chinzama","lat":-16.2662014,"lon":35.1590657,"type":"village"},{"id":"746703730","name":"Chilangoma","lat":-15.6238885,"lon":34.931456,"type":"village"},{"id":"746707020","name":"Makwasa","lat":-16.1784002,"lon":35.1042111,"type":"village"},{"id":"747035527","name":"Chipwanje","lat":-16.364721,"lon":35.1947713,"type":"village"},{"id":"750490850","name":"Mibwazi","lat":-16.4469659,"lon":35.1845029,"type":"village"},{"id":"754550355","name":"Chitseko","lat":-16.4388491,"lon":35.1803015,"type":"village"},{"id":"755930396","name":"Nsambo","lat":-16.4404159,"lon":35.153278,"type":"village"},{"id":"874221654","name":"Chombo","lat":-12.874196,"lon":34.2576881,"type":"village"},{"id":"874224622","name":"Zunga","lat":-12.6436551,"lon":34.1490265,"type":"village"},{"id":"874228319","name":"Ngala","lat":-12.3683364,"lon":34.0708923,"type":"village"},{"id":"874229919","name":"Kasitu","lat":-12.3077675,"lon":34.0337418,"type":"village"},{"id":"874231045","name":"Dwambazi","lat":-12.2415113,"lon":33.995633,"type":"village"},{"id":"877516636","name":"Chikombe","lat":-12.8025234,"lon":34.2002579,"type":"village"},{"id":"877519908","name":"Pendwe","lat":-12.7698795,"lon":34.1995713,"type":"village"},{"id":"877521729","name":"Thom","lat":-12.6551739,"lon":34.1537377,"type":"village"},{"id":"877522004","name":"Mtambo","lat":-12.6508191,"lon":34.175367,"type":"village"},{"id":"877525598","name":"Ngwata","lat":-13.1919909,"lon":34.3263559,"type":"village"},{"id":"877527446","name":"Mtosa","lat":-13.3644977,"lon":34.2793938,"type":"village"},{"id":"877528894","name":"Jinga","lat":-13.3985659,"lon":34.260511,"type":"village"},{"id":"877556194","name":"Chia","lat":-13.0960621,"lon":34.3142368,"type":"village"},{"id":"877557332","name":"Chisoti","lat":-12.9896787,"lon":34.3036966,"type":"village"},{"id":"877557404","name":"Mkwanda","lat":-12.9895114,"lon":34.2865304,"type":"village"},{"id":"877557814","name":"Kachuma","lat":-12.9614087,"lon":34.2489366,"type":"village"},{"id":"877557818","name":"Liwowo","lat":-12.9801442,"lon":34.2546014,"type":"village"},{"id":"877558431","name":"Sani","lat":-13.0214577,"lon":34.3321923,"type":"village"},{"id":"877559270","name":"Mbalame","lat":-13.0263078,"lon":34.3258409,"type":"village"},{"id":"877559332","name":"Chitumbwe","lat":-13.0207887,"lon":34.2889337,"type":"village"},{"id":"877561335","name":"Kawerama","lat":-12.9488249,"lon":34.3104132,"type":"village"},{"id":"883069141","name":"Gundani","lat":-13.0494514,"lon":33.501239,"type":"village"},{"id":"883075237","name":"Lukwa","lat":-13.1007851,"lon":33.4549763,"type":"village"},{"id":"883078179","name":"Kaphaizi","lat":-12.9932563,"lon":33.378587,"type":"village"},{"id":"883215229","name":"Ntchacha","lat":-16.290836,"lon":35.1897998,"type":"village"},{"id":"883219754","name":"Mtayambizi","lat":-16.3134904,"lon":35.1903081,"type":"village"},{"id":"883220313","name":"Mphande","lat":-16.3391898,"lon":35.2014661,"type":"village"},{"id":"883227894","name":"Mangwalala","lat":-16.2181283,"lon":35.0999195,"type":"village"},{"id":"883228695","name":"Mwalaphanda","lat":-16.1688379,"lon":35.0894482,"type":"village"},{"id":"883231065","name":"Pumula","lat":-16.0560338,"lon":35.172704,"type":"village"},{"id":"883235894","name":"Mangunda","lat":-16.0319474,"lon":35.2612812,"type":"village"},{"id":"884152116","name":"Molete","lat":-16.2182453,"lon":35.1355385,"type":"village"},{"id":"884154543","name":"Zoa","lat":-16.2364176,"lon":35.2014211,"type":"village"},{"id":"893291331","name":"Kasembereka","lat":-16.1094615,"lon":35.0966996,"type":"village"},{"id":"893291639","name":"Ntambanyama","lat":-16.1273059,"lon":35.0805661,"type":"village"},{"id":"893293391","name":"Didi","lat":-16.0631604,"lon":34.9911417,"type":"village"},{"id":"894402340","name":"Ndalama","lat":-16.0650281,"lon":35.1313708,"type":"village"},{"id":"902463277","name":"Bembeke Village","lat":-14.356645,"lon":34.4282683,"type":"village"},{"id":"902534177","name":"Matawale","lat":-15.3816798,"lon":35.3537992,"type":"village"},{"id":"923036567","name":"Kasonga","lat":-15.3043833,"lon":35.3111172,"type":"village"},{"id":"923911769","name":"Mtalika","lat":-15.0945062,"lon":35.256173,"type":"village"},{"id":"923913245","name":"Mliwo","lat":-15.107102,"lon":35.2599496,"type":"village"},{"id":"923944194","name":"Kwitambo","lat":-14.5147808,"lon":35.2617067,"type":"village"},{"id":"923945170","name":"Miseo","lat":-14.546293,"lon":35.190665,"type":"village"},{"id":"923945485","name":"Ndege","lat":-14.750401,"lon":35.1729063,"type":"village"},{"id":"923946407","name":"Mapando","lat":-14.9757339,"lon":35.1771806,"type":"village"},{"id":"925536254","name":"Simlemba","lat":-12.7428792,"lon":33.6790795,"type":"village"},{"id":"968968234","name":"Jowe","lat":-10.8233162,"lon":34.0156462,"type":"village"},{"id":"1023278761","name":"Loudon Mission","lat":-12.1396534,"lon":33.4793781,"type":"village"},{"id":"1068077045","name":"Undi","lat":-13.2650411,"lon":33.9977463,"type":"village"},{"id":"1068100501","name":"Chibisa","lat":-13.259269,"lon":34.0264635,"type":"village"},{"id":"1069491752","name":"Mbowe","lat":-11.5340403,"lon":33.9425759,"type":"village"},{"id":"1069495235","name":"Nsandu","lat":-14.126626,"lon":34.916965,"type":"village"},{"id":"1069498332","name":"Kuchilipa","lat":-14.2517935,"lon":34.8192275,"type":"village"},{"id":"1069499931","name":"Chantulo","lat":-14.3115985,"lon":34.8064387,"type":"village"},{"id":"1069510849","name":"Nsonde","lat":-14.6874642,"lon":34.9579065,"type":"village"},{"id":"1069515331","name":"Dedza","lat":-14.3835134,"lon":34.3080932,"type":"village"},{"id":"1069515453","name":"Kapesi","lat":-14.3941551,"lon":34.3391639,"type":"village"},{"id":"1069560677","name":"Kasimu","lat":-14.4957003,"lon":35.3216176,"type":"village"},{"id":"1069560919","name":"Mbondo","lat":-14.5134827,"lon":35.3269391,"type":"village"},{"id":"1069563186","name":"Chikowi","lat":-14.4719329,"lon":35.320416,"type":"village"},{"id":"1069563933","name":"Chikwatu","lat":-14.3987865,"lon":35.2823072,"type":"village"},{"id":"1069565216","name":"Msosa","lat":-14.4059359,"lon":35.2790456,"type":"village"},{"id":"1069565512","name":"Samama","lat":-14.4262192,"lon":35.2160459,"type":"village"},{"id":"1069565710","name":"Khungwa","lat":-14.4137502,"lon":35.2155309,"type":"village"},{"id":"1069565869","name":"Matamia","lat":-14.3814938,"lon":35.3066831,"type":"village"},{"id":"1069565909","name":"Mizingo","lat":-14.3585457,"lon":35.2993016,"type":"village"},{"id":"1069566090","name":"Makumbo","lat":-14.3282273,"lon":35.2877317,"type":"village"},{"id":"1069567453","name":"Domwe","lat":-14.1733785,"lon":34.8265462,"type":"village"},{"id":"1069568271","name":"Sayidi","lat":-14.4400174,"lon":34.7834592,"type":"village"},{"id":"1069571424","name":"Songa","lat":-14.5878206,"lon":34.8979058,"type":"village"},{"id":"1069573305","name":"Manda","lat":-14.6328696,"lon":34.9659695,"type":"village"},{"id":"1078982931","name":"Mwenilondo","lat":-9.9935703,"lon":33.9235474,"type":"village"},{"id":"1078983339","name":"Mpata","lat":-9.9648294,"lon":33.8147141,"type":"village"},{"id":"1106886611","name":"Donda","lat":-15.392775,"lon":34.6622881,"type":"village"},{"id":"1117719207","name":"Galeta","lat":-15.3597579,"lon":34.6784474,"type":"village"},{"id":"1138010589","name":"Lisungwi","lat":-15.4360011,"lon":34.7748093,"type":"village"},{"id":"1138046283","name":"Zalewa","lat":-15.4452193,"lon":34.8618297,"type":"village"},{"id":"1170350061","name":"Chilombo","lat":-15.3470429,"lon":34.6547388,"type":"village"},{"id":"1259546342","name":"Chikalema","lat":-15.4347547,"lon":34.584917,"type":"village"},{"id":"1259546349","name":"Tsabola","lat":-15.451473,"lon":34.5921306,"type":"village"},{"id":"1259577129","name":"Nyakoko","lat":-15.4360303,"lon":34.6579837,"type":"village"},{"id":"1259577146","name":"Haindi","lat":-15.4117983,"lon":34.5795558,"type":"village"},{"id":"1259577148","name":"Ndoma","lat":-15.3888194,"lon":34.5814542,"type":"village"},{"id":"1259577151","name":"Chiomba","lat":-15.4080091,"lon":34.5941073,"type":"village"},{"id":"1259577154","name":"Tsenjelani","lat":-15.4089515,"lon":34.5744936,"type":"village"},{"id":"1259589778","name":"Lembani","lat":-15.4728841,"lon":34.7486804,"type":"village"},{"id":"1259617206","name":"Mtemankhawa","lat":-15.3120672,"lon":34.5738239,"type":"village"},{"id":"1490469757","name":"Kamoto","lat":-15.4074686,"lon":34.6294155,"type":"village"},{"id":"1490469776","name":"Kamoto II","lat":-15.391915,"lon":34.6342656,"type":"village"},{"id":"1490469780","name":"Donda II","lat":-15.3871029,"lon":34.6526218,"type":"village"},{"id":"1490469781","name":"Chifenthe","lat":-15.4067245,"lon":34.6643273,"type":"village"},{"id":"1490469782","name":"Bello","lat":-15.402582,"lon":34.6494614,"type":"village"},{"id":"1518253888","name":"Luwelezi","lat":-12.487662,"lon":33.6428033,"type":"village"},{"id":"1756930183","name":"Vibangalala","lat":-12.2324256,"lon":33.4849532,"type":"village"},{"id":"1783065921","name":"Chibungo","lat":-13.9663104,"lon":33.4508155,"type":"village"},{"id":"1865447810","name":"Machalikakutchemba","lat":-13.8769299,"lon":33.8940931,"type":"village"},{"id":"1865447818","name":"Mzambwe Village","lat":-13.8769327,"lon":33.8953746,"type":"village"},{"id":"2025073427","name":"Chakulembera","lat":-15.3016996,"lon":34.6116295,"type":"village"},{"id":"2025073428","name":"Chimbalanga 2","lat":-15.239203,"lon":34.648079,"type":"village"},{"id":"2025073429","name":"Chimbalanga","lat":-15.242739,"lon":34.648212,"type":"village"},{"id":"2025073430","name":"Hauya","lat":-15.2199001,"lon":34.6098785,"type":"village"},{"id":"2025073433","name":"Kalimezako 2","lat":-15.236053,"lon":34.641296,"type":"village"},{"id":"2025073439","name":"Kalupsya 2","lat":-15.309608,"lon":34.680147,"type":"village"},{"id":"2025073442","name":"Kambale","lat":-15.300785,"lon":34.678495,"type":"village"},{"id":"2025073444","name":"Katoleza","lat":-15.272789,"lon":34.686717,"type":"village"},{"id":"2025073446","name":"Kundembo","lat":-15.2704146,"lon":34.639152,"type":"village"},{"id":"2025073451","name":"Masamba","lat":-15.2265267,"lon":34.5957758,"type":"village"},{"id":"2025073453","name":"Matengo","lat":-15.253054,"lon":34.631893,"type":"village"},{"id":"2025073455","name":"Mpachawaine","lat":-15.2608047,"lon":34.6137058,"type":"village"},{"id":"2025073457","name":"Mposadala","lat":-15.2703891,"lon":34.6195979,"type":"village"},{"id":"2025073462","name":"Nseula","lat":-15.2999603,"lon":34.5950963,"type":"village"},{"id":"2025073464","name":"Seleman","lat":-15.272126,"lon":34.681311,"type":"village"},{"id":"2025073468","name":"Malawi","lat":-15.300392,"lon":34.701808,"type":"village"},{"id":"2025073470","name":"William","lat":-15.306718,"lon":34.688205,"type":"village"},{"id":"2025510680","name":"Bauleni","lat":-15.587438,"lon":34.630809,"type":"village"},{"id":"2025510683","name":"Benalita","lat":-15.413529,"lon":34.5047145,"type":"village"},{"id":"2025510686","name":"Chakhumbira 1","lat":-15.377832,"lon":34.569021,"type":"village"},{"id":"2025510697","name":"Chapita","lat":-15.629948,"lon":34.590099,"type":"village"},{"id":"2025510703","name":"Chasesa","lat":-15.620385,"lon":34.647139,"type":"village"},{"id":"2025510712","name":"Chikapa","lat":-15.3459188,"lon":34.8948179,"type":"village"},{"id":"2025510718","name":"Chikwekwe","lat":-15.347956,"lon":34.852695,"type":"village"},{"id":"2025510722","name":"Chinkhali","lat":-15.438046,"lon":34.5166608,"type":"village"},{"id":"2025510727","name":"Chipapa","lat":-15.4254597,"lon":34.5163427,"type":"village"},{"id":"2025510731","name":"Chivuta","lat":-15.478317,"lon":34.798827,"type":"village"},{"id":"2025510735","name":"Chiyembekeza","lat":-15.3243645,"lon":34.5906104,"type":"village"},{"id":"2025510736","name":"Daelo 1","lat":-15.594166,"lon":34.69229,"type":"village"},{"id":"2025510738","name":"Daelo 2","lat":-15.591497,"lon":34.695922,"type":"village"},{"id":"2025510739","name":"Dambe","lat":-15.383858,"lon":34.577739,"type":"village"},{"id":"2025510740","name":"Daudi 1","lat":-15.5496985,"lon":34.633058,"type":"village"},{"id":"2025510742","name":"Dzikolatha","lat":-15.6309581,"lon":34.6396462,"type":"village"},{"id":"2025510744","name":"Felemu","lat":-15.6995084,"lon":34.6768612,"type":"village"},{"id":"2025510745","name":"George","lat":-15.353068,"lon":34.833297,"type":"village"},{"id":"2025510746","name":"Gobede","lat":-15.372453,"lon":34.892667,"type":"village"},{"id":"2025510748","name":"Golden","lat":-15.4623831,"lon":34.5177097,"type":"village"},{"id":"2025510749","name":"Gonthi","lat":-15.538098,"lon":34.586519,"type":"village"},{"id":"2025510751","name":"Haindi","lat":-15.4050439,"lon":34.5703026,"type":"village"},{"id":"2025510752","name":"Hiwa 2","lat":-15.373596,"lon":34.898406,"type":"village"},{"id":"2025510753","name":"Jonathan","lat":-15.591883,"lon":34.700115,"type":"village"},{"id":"2025510755","name":"Josephy","lat":-15.522197,"lon":34.750679,"type":"village"},{"id":"2025510756","name":"July","lat":-15.638786,"lon":34.704887,"type":"village"},{"id":"2025510757","name":"Kaligwenjere","lat":-15.332268,"lon":34.968746,"type":"village"},{"id":"2025510759","name":"Kambalame","lat":-15.7067433,"lon":34.7207404,"type":"village"},{"id":"2025510760","name":"Kammwamba","lat":-15.364761,"lon":34.886142,"type":"village"},{"id":"2025510762","name":"Kang'ombe","lat":-15.351656,"lon":34.811255,"type":"village"},{"id":"2025510763","name":"Kanselu","lat":-15.396824,"lon":34.807444,"type":"village"},{"id":"2025510765","name":"Kanzandi","lat":-15.453592,"lon":34.769138,"type":"village"},{"id":"2025510766","name":"Kazunga","lat":-15.6074225,"lon":34.6791781,"type":"village"},{"id":"2025510767","name":"Khomera","lat":-15.4027398,"lon":34.5757859,"type":"village"},{"id":"2025510770","name":"Kumpika","lat":-15.4493591,"lon":34.5117236,"type":"village"},{"id":"2025510772","name":"Kuziona","lat":-15.453644,"lon":34.51567,"type":"village"},{"id":"2025510774","name":"Lembani","lat":-15.467755,"lon":34.746974,"type":"village"},{"id":"2025510775","name":"Limani","lat":-15.3957032,"lon":34.8090652,"type":"village"},{"id":"2025510776","name":"Liyenda","lat":-15.536553,"lon":34.719435,"type":"village"},{"id":"2025510777","name":"Magaleta","lat":-15.549827,"lon":34.630865,"type":"village"},{"id":"2025510778","name":"Manyenje","lat":-15.365502,"lon":34.829218,"type":"village"},{"id":"2025510779","name":"Mathoto","lat":-15.512554,"lon":34.732659,"type":"village"},{"id":"2025510780","name":"Mbemba","lat":-15.515453,"lon":34.7691,"type":"village"},{"id":"2025510781","name":"Moffat","lat":-15.452233,"lon":34.774772,"type":"village"},{"id":"2025510782","name":"Moffati","lat":-15.3290005,"lon":34.5844917,"type":"village"},{"id":"2025510783","name":"Mwandaza 1","lat":-15.5731678,"lon":34.6204766,"type":"village"},{"id":"2025510784","name":"Mwandaza 2","lat":-15.574532,"lon":34.582319,"type":"village"},{"id":"2025510785","name":"Mwetang'ombe","lat":-15.3526367,"lon":34.8282338,"type":"village"},{"id":"2025510786","name":"Naminjale","lat":-15.486818,"lon":34.800544,"type":"village"},{"id":"2025510787","name":"Ndelema","lat":-15.5307656,"lon":34.7081612,"type":"village"},{"id":"2025510788","name":"Ndoma","lat":-15.3912538,"lon":34.5801615,"type":"village"},{"id":"2025510789","name":"Ngaiyaye","lat":-15.341662,"lon":34.934417,"type":"village"},{"id":"2025510790","name":"Ngwenyama 1","lat":-15.3855027,"lon":34.8040975,"type":"village"},{"id":"2025510791","name":"Ngwenyama","lat":-15.4843615,"lon":34.7451595,"type":"village"},{"id":"2025510792","name":"Njalam'mano","lat":-15.350972,"lon":34.939861,"type":"village"},{"id":"2025510793","name":"Nkavu","lat":-15.39322,"lon":34.811497,"type":"village"},{"id":"2025510794","name":"Nkoka","lat":-15.5470758,"lon":34.7897489,"type":"village"},{"id":"2025510795","name":"Nkula","lat":-15.5221391,"lon":34.825337,"type":"village"},{"id":"2025510796","name":"Nkundika","lat":-15.401887,"lon":34.807349,"type":"village"},{"id":"2025510797","name":"Nsalawatha","lat":-15.5848756,"lon":34.6973184,"type":"village"},{"id":"2025510798","name":"Ntaja","lat":-15.4233135,"lon":34.5113453,"type":"village"},{"id":"2025510799","name":"Ntingala","lat":-15.502694,"lon":34.809339,"type":"village"},{"id":"2025510800","name":"Pajo","lat":-15.4946871,"lon":34.7715419,"type":"village"},{"id":"2025510801","name":"Salafosi","lat":-15.4966754,"lon":34.7723672,"type":"village"},{"id":"2025510802","name":"Sinosi","lat":-15.3531727,"lon":34.8149331,"type":"village"},{"id":"2025510803","name":"Somisomi","lat":-15.357398,"lon":34.9173372,"type":"village"},{"id":"2025510804","name":"Tsenjerani","lat":-15.4057874,"lon":34.577725,"type":"village"},{"id":"2025510805","name":"Waiyatsa","lat":-15.3577746,"lon":34.8974123,"type":"village"},{"id":"2025510806","name":"Yela","lat":-15.332397,"lon":34.805139,"type":"village"},{"id":"2025510807","name":"Zidala","lat":-15.554455,"lon":34.580943,"type":"village"},{"id":"2025538875","name":"Butao","lat":-15.486843,"lon":34.669713,"type":"village"},{"id":"2025538880","name":"Chaonda","lat":-15.479964,"lon":34.634111,"type":"village"},{"id":"2025538886","name":"Chikalema","lat":-15.4389348,"lon":34.5779906,"type":"village"},{"id":"2025538900","name":"Chikungulu","lat":-15.467135,"lon":34.611619,"type":"village"},{"id":"2025538907","name":"Chilaladzi","lat":-15.4090949,"lon":34.7835235,"type":"village"},{"id":"2025538916","name":"Chimpazi","lat":-15.485074,"lon":34.617439,"type":"village"},{"id":"2025538924","name":"Chinyani","lat":-15.4300173,"lon":34.6520394,"type":"village"},{"id":"2025538933","name":"Chiomba 2","lat":-15.4274076,"lon":34.6019326,"type":"village"},{"id":"2025538940","name":"Daudi 2","lat":-15.525358,"lon":34.647019,"type":"village"},{"id":"2025538949","name":"Funsani 2","lat":-15.4045258,"lon":34.775707,"type":"village"},{"id":"2025538957","name":"Funsani","lat":-15.40394,"lon":34.776007,"type":"village"},{"id":"2025538963","name":"Glasten","lat":-15.4701024,"lon":34.609976,"type":"village"},{"id":"2025538967","name":"Kachingwe","lat":-15.40939,"lon":34.777206,"type":"village"},{"id":"2025538974","name":"Kaduka","lat":-15.515855,"lon":34.6640713,"type":"village"},{"id":"2025538981","name":"Kagona","lat":-15.3480732,"lon":34.5308537,"type":"village"},{"id":"2025538997","name":"Kaingilila","lat":-15.3704996,"lon":34.5487518,"type":"village"},{"id":"2025539003","name":"Kalinde","lat":-15.479594,"lon":34.635801,"type":"village"},{"id":"2025539011","name":"Kanangwanji","lat":-15.433865,"lon":34.601222,"type":"village"},{"id":"2025539019","name":"Kandoje","lat":-15.4707394,"lon":34.9188454,"type":"village"},{"id":"2025539028","name":"Kantuwale","lat":-15.480486,"lon":34.666642,"type":"village"},{"id":"2025539037","name":"Kasamba 1","lat":-15.353824,"lon":34.800967,"type":"village"},{"id":"2025539045","name":"Kasamba 2","lat":-15.352621,"lon":34.80042,"type":"village"},{"id":"2025539051","name":"Kumpakiza","lat":-15.487457,"lon":34.654063,"type":"village"},{"id":"2025539055","name":"Makanani","lat":-15.493957,"lon":34.604785,"type":"village"},{"id":"2025539071","name":"Masita","lat":-15.4173023,"lon":34.7767734,"type":"village"},{"id":"2025539078","name":"Mbilizi","lat":-15.489339,"lon":34.649734,"type":"village"},{"id":"2025539095","name":"Mkwinda","lat":-15.4242297,"lon":34.799957,"type":"village"},{"id":"2025539100","name":"Mlauli","lat":-15.48029,"lon":34.624842,"type":"village"},{"id":"2025539108","name":"Musoda","lat":-15.318022,"lon":34.768227,"type":"village"},{"id":"2025539116","name":"Mvala","lat":-15.493529,"lon":34.595185,"type":"village"},{"id":"2025539123","name":"Mwimbi","lat":-15.414782,"lon":34.784816,"type":"village"},{"id":"2025539131","name":"Mwingitsa","lat":-15.438802,"lon":34.782171,"type":"village"},{"id":"2025539138","name":"Nelsan","lat":-15.447917,"lon":34.760088,"type":"village"},{"id":"2025539142","name":"Nkhwewa","lat":-15.4498189,"lon":34.6223558,"type":"village"},{"id":"2025539148","name":"Sekani","lat":-15.4108046,"lon":34.7080951,"type":"village"},{"id":"2025539157","name":"Symon","lat":-15.427458,"lon":34.772132,"type":"village"},{"id":"2025539165","name":"Tsabola","lat":-15.458521,"lon":34.594442,"type":"village"},{"id":"2025539173","name":"Tundudze","lat":-15.479467,"lon":34.627971,"type":"village"},{"id":"2025539192","name":"Yoyola","lat":-15.307584,"lon":34.802897,"type":"village"},{"id":"2025539196","name":"Zigwa","lat":-15.491378,"lon":34.600993,"type":"village"},{"id":"2025682052","name":"Chekucheku","lat":-15.32633,"lon":34.697904,"type":"village"},{"id":"2025682054","name":"Chidakwani","lat":-15.334154,"lon":34.707816,"type":"village"},{"id":"2025682063","name":"Chimphonda","lat":-15.345604,"lon":34.687913,"type":"village"},{"id":"2025682067","name":"Dzomodya 1","lat":-15.469158,"lon":34.657397,"type":"village"},{"id":"2025682077","name":"Dzomodya 2","lat":-15.465907,"lon":34.682268,"type":"village"},{"id":"2025682082","name":"George","lat":-15.395737,"lon":34.681405,"type":"village"},{"id":"2025682086","name":"Hiwa","lat":-15.327499,"lon":34.70427,"type":"village"},{"id":"2025682090","name":"Kachere","lat":-15.372861,"lon":34.682674,"type":"village"},{"id":"2025682096","name":"Kaguza","lat":-15.357726,"lon":34.679046,"type":"village"},{"id":"2025682100","name":"Kalupsya","lat":-15.322261,"lon":34.680394,"type":"village"},{"id":"2025682108","name":"Matemba","lat":-15.4640885,"lon":34.6462815,"type":"village"},{"id":"2025682113","name":"Mmola","lat":-15.4045984,"lon":34.6866207,"type":"village"},{"id":"2025682117","name":"Nicholas","lat":-15.4695814,"lon":34.6497922,"type":"village"},{"id":"2025682122","name":"Samson","lat":-15.3263378,"lon":34.6509396,"type":"village"},{"id":"2025682127","name":"Tiyese","lat":-15.2824001,"lon":34.737381,"type":"village"},{"id":"2025682136","name":"Wilson","lat":-15.32957,"lon":34.688969,"type":"village"},{"id":"2025682137","name":"Zidana","lat":-15.319135,"lon":34.645373,"type":"village"},{"id":"2131483692","name":"Nkhonya","lat":-16.0031358,"lon":35.4787791,"type":"village"},{"id":"2131483694","name":"Likhubula","lat":-15.9413924,"lon":35.4907954,"type":"village"},{"id":"2294593086","name":"Phwezi","lat":-10.8852666,"lon":34.0457793,"type":"village"},{"id":"2472267767","name":"Chakaka","lat":-10.6452395,"lon":34.0312439,"type":"village"},{"id":"2472272554","name":"Hara","lat":-10.5130289,"lon":34.2118317,"type":"village"},{"id":"2472286183","name":"Sangilo","lat":-10.5244214,"lon":34.220934,"type":"village"},{"id":"2701529304","name":"Chisenga","lat":-9.9810018,"lon":33.3960766,"type":"town"},{"id":"2833567097","name":"Chibinga","lat":-10.6300377,"lon":34.0787504,"type":"village"},{"id":"3009226458","name":"Manjawira","lat":-14.9994263,"lon":34.8533877,"type":"village"},{"id":"3012198004","name":"Kamtembanga Mbeya","lat":-11.4767837,"lon":33.9071707,"type":"village"},{"id":"3024044000","name":"Maseya","lat":-16.1012341,"lon":34.8341889,"type":"village"},{"id":"3024044001","name":"Bereu","lat":-16.14539,"lon":34.8467603,"type":"village"},{"id":"3024817309","name":"Mwananjobvu","lat":-16.5106844,"lon":35.0346767,"type":"village"},{"id":"3026989921","name":"Nchalo","lat":-16.2696581,"lon":34.8708606,"type":"town"},{"id":"3027747470","name":"Mchacha","lat":-16.5348345,"lon":35.0052546,"type":"village"},{"id":"3027747471","name":"Sorgin","lat":-16.5431813,"lon":35.0129799,"type":"village"},{"id":"3031485510","name":"Khukhumba","lat":-16.5245275,"lon":35.021029,"type":"village"},{"id":"3031711399","name":"Masanduko","lat":-16.4748844,"lon":34.9963748,"type":"village"},{"id":"3031764655","name":"Kwadyamba","lat":-16.4776931,"lon":35.0146024,"type":"village"},{"id":"3032360565","name":"Arigundiya","lat":-16.5374453,"lon":35.0087135,"type":"village"},{"id":"3032360566","name":"Thanki","lat":-16.5379114,"lon":35.0097794,"type":"village"},{"id":"3034409156","name":"Chokwe","lat":-16.4547758,"lon":35.0129933,"type":"village"},{"id":"3034415989","name":"Layisoni","lat":-16.4582745,"lon":34.9911041,"type":"village"},{"id":"3034415990","name":"Mpinganjira","lat":-16.4696152,"lon":34.9817636,"type":"village"},{"id":"3034646358","name":"Chingamuka","lat":-16.4727573,"lon":34.9806376,"type":"village"},{"id":"3034646359","name":"Kanyenze","lat":-16.4730938,"lon":34.9817127,"type":"village"},{"id":"3034646360","name":"Mayilosi","lat":-16.4692896,"lon":34.9901263,"type":"village"},{"id":"3034646361","name":"Sande","lat":-16.4730983,"lon":34.9825122,"type":"village"},{"id":"3034713465","name":"Mwanakakula","lat":-16.3848718,"lon":34.9338166,"type":"village"},{"id":"3039802140","name":"Jimu Ng'anga","lat":-16.2740702,"lon":35.0238917,"type":"village"},{"id":"3039802141","name":"Kanyimbiri","lat":-16.2700483,"lon":35.0257347,"type":"village"},{"id":"3039802143","name":"Mitawi","lat":-16.304586,"lon":35.0385937,"type":"village"},{"id":"3039802146","name":"Thedzi","lat":-16.3004483,"lon":35.0298657,"type":"village"},{"id":"3039835487","name":"Jana","lat":-16.1997724,"lon":34.9908444,"type":"village"},{"id":"3039849574","name":"M'modzi","lat":-16.1365466,"lon":34.9461288,"type":"village"},{"id":"3043071579","name":"Kwawa","lat":-16.281828,"lon":35.0222931,"type":"village"},{"id":"3043369279","name":"Kinchi","lat":-16.2843974,"lon":35.0236834,"type":"village"},{"id":"3043665575","name":"Chagambatuka","lat":-16.1234048,"lon":34.8997276,"type":"village"},{"id":"3044951297","name":"Jombo","lat":-16.3142451,"lon":34.8704893,"type":"village"},{"id":"3044951298","name":"Miseu Folo","lat":-16.3971494,"lon":34.8601628,"type":"village"},{"id":"3044951299","name":"Nsangwe","lat":-16.5065966,"lon":34.9328778,"type":"village"},{"id":"3045435070","name":"Kasinthula","lat":-16.0675088,"lon":34.8202859,"type":"village"},{"id":"3046800537","name":"Mapalera","lat":-16.103078,"lon":34.9171082,"type":"town"},{"id":"3046800538","name":"Chobo","lat":-16.0528115,"lon":34.8628617,"type":"town"},{"id":"3047152392","name":"Mpelekwa","lat":-16.2882599,"lon":35.0243128,"type":"village"},{"id":"3048648840","name":"Dyeratu","lat":-16.0406376,"lon":34.7990447,"type":"town"},{"id":"3048953195","name":"Chitsa","lat":-16.3399549,"lon":34.9430231,"type":"village"},{"id":"3051510138","name":"Karonga","lat":-16.5269558,"lon":35.1748316,"type":"village"},{"id":"3051510139","name":"Likweli","lat":-16.5082839,"lon":35.1923549,"type":"village"},{"id":"3051510142","name":"Sambani","lat":-16.5233716,"lon":35.1736194,"type":"village"},{"id":"3051511176","name":"M'chaha James","lat":-16.5053232,"lon":35.1672717,"type":"village"},{"id":"3053789854","name":"Nyang'a","lat":-16.5447948,"lon":35.0960775,"type":"village"},{"id":"3054929154","name":"Mphetomwanyama","lat":-16.5022935,"lon":35.0558232,"type":"village"},{"id":"3054934710","name":"Pende 1","lat":-16.0430194,"lon":34.7240067,"type":"village"},{"id":"3054934711","name":"Pende 2","lat":-16.0410348,"lon":34.7243434,"type":"village"},{"id":"3054934712","name":"Sheketeni","lat":-16.0430594,"lon":34.7252195,"type":"village"},{"id":"3054941098","name":"Nthumba","lat":-16.0604998,"lon":34.7621107,"type":"village"},{"id":"3054985872","name":"Mbenje","lat":-16.5028307,"lon":35.0519108,"type":"village"},{"id":"3055281991","name":"Kanyimbiri","lat":-16.2676005,"lon":35.0257106,"type":"village"},{"id":"3055410474","name":"Kapilinjuchi","lat":-16.5221258,"lon":35.0338927,"type":"village"},{"id":"3055410476","name":"Sted","lat":-16.5281271,"lon":35.0286708,"type":"village"},{"id":"3055410477","name":"Thamison","lat":-16.5186621,"lon":35.0362757,"type":"village"},{"id":"3059412485","name":"Chisamba 1","lat":-16.5398684,"lon":35.0938661,"type":"village"},{"id":"3059452990","name":"Tambo","lat":-16.5714989,"lon":35.1113887,"type":"village"},{"id":"3060544579","name":"Manyowa","lat":-16.5004824,"lon":35.2058864,"type":"village"},{"id":"3060629675","name":"Khasu","lat":-16.4783622,"lon":35.1872182,"type":"village"},{"id":"3060629793","name":"Kadakola","lat":-16.4792091,"lon":35.1885228,"type":"village"},{"id":"3060750978","name":"Chimtedza","lat":-16.5310737,"lon":35.1639548,"type":"village"},{"id":"3060750979","name":"Faniza","lat":-16.5198985,"lon":35.1429157,"type":"village"},{"id":"3060750980","name":"Kolimbo","lat":-16.5323202,"lon":35.1519866,"type":"village"},{"id":"3060750981","name":"Ulaya","lat":-16.5317716,"lon":35.1494184,"type":"village"},{"id":"3060763606","name":"Magonyo","lat":-16.5303435,"lon":35.1477289,"type":"village"},{"id":"3060772661","name":"Chiombedza","lat":-16.4913927,"lon":35.2196454,"type":"village"},{"id":"3060773903","name":"Manjolo","lat":-16.485739,"lon":35.2167607,"type":"village"},{"id":"3060800021","name":"Semu","lat":-16.5032403,"lon":35.1985405,"type":"village"},{"id":"3062637085","name":"Twaya","lat":-16.4882853,"lon":35.1437998,"type":"village"},{"id":"3062813428","name":"Chapasuka","lat":-16.4828816,"lon":35.1456074,"type":"village"},{"id":"3062813429","name":"Chapomoka","lat":-16.4842994,"lon":35.1446186,"type":"village"},{"id":"3062813430","name":"Ranchi","lat":-16.4821895,"lon":35.1495944,"type":"village"},{"id":"3063296529","name":"Sekeni 1","lat":-16.27442,"lon":34.8753361,"type":"village"},{"id":"3065359086","name":"Kapichira","lat":-16.0153808,"lon":34.792896,"type":"town"},{"id":"3066348145","name":"Sheketeni","lat":-16.0427121,"lon":34.7271674,"type":"village"},{"id":"3066358280","name":"Mwanena","lat":-16.2770767,"lon":34.8756943,"type":"village"},{"id":"3066535305","name":"Chilumpha","lat":-16.0810889,"lon":34.5716939,"type":"village"},{"id":"3066535306","name":"Chipolopolo","lat":-16.0813994,"lon":34.5767582,"type":"village"},{"id":"3066535307","name":"Ndeule","lat":-16.0788076,"lon":34.5731105,"type":"village"},{"id":"3067781274","name":"Chlimadzi","lat":-16.5368978,"lon":35.1588761,"type":"village"},{"id":"3068279557","name":"Mtalika","lat":-16.5037104,"lon":35.157239,"type":"village"},{"id":"3068279558","name":"Mtalika","lat":-16.5052257,"lon":35.1596472,"type":"village"},{"id":"3068341037","name":"Atosowa","lat":-16.5324971,"lon":35.1677034,"type":"village"},{"id":"3068397495","name":"Chimatiro","lat":-16.2826868,"lon":34.8802736,"type":"village"},{"id":"3068471379","name":"Mpandeni","lat":-16.507911,"lon":35.1582747,"type":"village"},{"id":"3068471380","name":"Mpandeni","lat":-16.5091875,"lon":35.1552433,"type":"village"},{"id":"3068594877","name":"Chikuse","lat":-16.2869797,"lon":34.9625446,"type":"village"},{"id":"3069882177","name":"Cholomali","lat":-16.4223625,"lon":35.152013,"type":"village"},{"id":"3069903357","name":"Makhapa","lat":-16.4320871,"lon":35.1453595,"type":"village"},{"id":"3070095821","name":"Mlembwe 2","lat":-16.417331,"lon":35.1516895,"type":"village"},{"id":"3070598295","name":"Ntuwana","lat":-16.5281904,"lon":35.1587741,"type":"village"},{"id":"3071597524","name":"Mchacha","lat":-16.6306657,"lon":35.1727289,"type":"village"},{"id":"3071597525","name":"Ngwanji","lat":-16.6328917,"lon":35.1755923,"type":"village"},{"id":"3071639215","name":"Fulutana","lat":-16.6409265,"lon":35.1894855,"type":"village"},{"id":"3071639216","name":"Jasi","lat":-16.634251,"lon":35.1848308,"type":"village"},{"id":"3071644661","name":"Lupiya","lat":-16.4978466,"lon":35.16036,"type":"village"},{"id":"3071779514","name":"Beka","lat":-16.6433969,"lon":35.1927331,"type":"village"},{"id":"3071854259","name":"Jakunja","lat":-16.644987,"lon":35.1937326,"type":"village"},{"id":"3072993093","name":"Msampatongwe","lat":-16.6616962,"lon":35.2124527,"type":"village"},{"id":"3073012006","name":"Sitole","lat":-16.5192978,"lon":35.1607995,"type":"village"},{"id":"3073112956","name":"Kalonga","lat":-16.5163068,"lon":35.1552302,"type":"village"},{"id":"3073123752","name":"Gerald","lat":-16.5149962,"lon":35.1632817,"type":"village"},{"id":"3073149146","name":"Ndiuzayani","lat":-16.5186646,"lon":35.158206,"type":"village"},{"id":"3073164403","name":"Chizola","lat":-16.6470357,"lon":35.1967627,"type":"village"},{"id":"3073164404","name":"Jonex","lat":-16.6562781,"lon":35.201305,"type":"village"},{"id":"3073178843","name":"Mailosi","lat":-16.5018155,"lon":35.1629386,"type":"village"},{"id":"3073178844","name":"Msusa","lat":-16.5021455,"lon":35.1589778,"type":"village"},{"id":"3073293614","name":"Chisomba","lat":-16.623008,"lon":35.1580404,"type":"village"},{"id":"3073293615","name":"Mayere","lat":-16.6037955,"lon":35.1368201,"type":"village"},{"id":"3073386004","name":"Kalupsa","lat":-16.6174418,"lon":35.1500362,"type":"village"},{"id":"3073446889","name":"Nduna","lat":-16.5029062,"lon":35.168708,"type":"village"},{"id":"3073456125","name":"Masamba","lat":-16.6269185,"lon":35.1671221,"type":"village"},{"id":"3073456126","name":"Nembe","lat":-16.6247332,"lon":35.1646947,"type":"village"},{"id":"3073591624","name":"Mailosi","lat":-16.4798931,"lon":35.2516076,"type":"village"},{"id":"3073591625","name":"Mwazaungu","lat":-16.485631,"lon":35.2469502,"type":"village"},{"id":"3075045528","name":"Mlanda","lat":-14.4788838,"lon":34.4487956,"type":"village"},{"id":"3075048995","name":"Chitale","lat":-15.129726,"lon":34.8691203,"type":"village"},{"id":"3075048997","name":"Senzani","lat":-15.0713912,"lon":34.8614729,"type":"village"},{"id":"3075055062","name":"Tsangano","lat":-14.7751705,"lon":34.5680166,"type":"town"},{"id":"3075056994","name":"Nanjri","lat":-14.0718279,"lon":33.8347258,"type":"village"},{"id":"3075057133","name":"Linthipe","lat":-14.1950436,"lon":34.1287657,"type":"village"},{"id":"3075057134","name":"Nathenje","lat":-14.0790329,"lon":33.9141399,"type":"village"},{"id":"3101660119","name":"Chiguluwindi","lat":-12.0968088,"lon":34.7312169,"type":"village"},{"id":"3101660120","name":"Chiponde","lat":-12.0900592,"lon":34.7423733,"type":"town"},{"id":"3159328162","name":"Fattie Gausi","lat":-12.7684458,"lon":33.644143,"type":"village"},{"id":"3318434782","name":"Mlolo","lat":-16.4779788,"lon":35.2131719,"type":"village"},{"id":"3318489214","name":"Fombe","lat":-16.0697598,"lon":34.7343102,"type":"village"},{"id":"3360069797","name":"Kaziwiziwi","lat":-10.6326723,"lon":34.0885599,"type":"village"},{"id":"3391711657","name":"Tawina Village","lat":-11.6077506,"lon":34.2958292,"type":"village"},{"id":"3801181784","name":"Kanyama","lat":-14.2370575,"lon":34.32384,"type":"village"},{"id":"3895103146","name":"Mpimbe","lat":-15.2995766,"lon":35.0797789,"type":"village"},{"id":"3907815815","name":"Matapila","lat":-14.0217912,"lon":33.9708258,"type":"village"},{"id":"3913053356","name":"Ngwata","lat":-12.7421371,"lon":33.6647054,"type":"village"},{"id":"3913191673","name":"Ntchisi","lat":-13.3576182,"lon":33.9193063,"type":"town"},{"id":"4012775744","name":"Livingstonia","lat":-10.6099146,"lon":34.1073478,"type":"town"},{"id":"4186898011","name":"Simon's Village","lat":-14.3468134,"lon":33.7208629,"type":"village"},{"id":"4227947714","name":"Matumba","lat":-14.3771428,"lon":33.9153156,"type":"village"},{"id":"4281971114","name":"Kafucheche","lat":-14.528635,"lon":35.198677,"type":"village"},{"id":"4282059276","name":"Bulaimu","lat":-14.5476877,"lon":35.1895335,"type":"village"},{"id":"4282059277","name":"Misesa","lat":-14.5446759,"lon":35.1894391,"type":"village"},{"id":"4282059278","name":"Saiti Gawe","lat":-14.5160098,"lon":35.1956814,"type":"village"},{"id":"4284172157","name":"Sadiki","lat":-14.4648839,"lon":35.2398024,"type":"village"},{"id":"4284291764","name":"Chisumbi","lat":-14.7222763,"lon":35.1801604,"type":"village"},{"id":"4284293101","name":"Kili","lat":-14.3677399,"lon":34.7892732,"type":"village"},{"id":"4284318627","name":"Kela","lat":-14.4107067,"lon":34.8342485,"type":"village"},{"id":"4284318628","name":"M`banga","lat":-14.4570244,"lon":34.8347192,"type":"village"},{"id":"4284319862","name":"Changamile 1","lat":-14.5467984,"lon":35.1906684,"type":"village"},{"id":"4284342601","name":"Tangwa","lat":-14.73326,"lon":35.1823411,"type":"village"},{"id":"4286042840","name":"Ntumbula","lat":-14.1846155,"lon":35.2250669,"type":"village"},{"id":"4297882849","name":"Simoni","lat":-14.2591852,"lon":34.8137119,"type":"village"},{"id":"4321144251","name":"Michesi","lat":-14.3356768,"lon":35.1488845,"type":"village"},{"id":"4321160045","name":"Matuwi","lat":-14.2954819,"lon":35.1084502,"type":"village"},{"id":"4321160046","name":"Mtimbuka","lat":-14.3470562,"lon":35.1582771,"type":"village"},{"id":"4321160047","name":"Mtyala","lat":-14.3401595,"lon":35.147648,"type":"village"},{"id":"4363478316","name":"Chapola","lat":-14.93832,"lon":35.5981373,"type":"village"},{"id":"4411466148","name":"Chilambiro","lat":-11.0271004,"lon":33.8537254,"type":"village"},{"id":"4411473008","name":"Chilambiro","lat":-11.0262158,"lon":33.8556914,"type":"village"},{"id":"4411479458","name":"Bandawe","lat":-10.9106613,"lon":34.0278651,"type":"village"},{"id":"4411480840","name":"Walowoka","lat":-10.9019488,"lon":34.0210496,"type":"village"},{"id":"4411519920","name":"Nkombezi TC","lat":-10.9496919,"lon":33.9751087,"type":"village"},{"id":"4411534760","name":"Nkombezi","lat":-10.9507755,"lon":33.9752972,"type":"village"},{"id":"4411578850","name":"mwazisi","lat":-11.0035946,"lon":33.5835534,"type":"village"},{"id":"4412741254","name":"Kalimezako","lat":-15.2619085,"lon":34.63441,"type":"village"},{"id":"4455258746","name":"Matumba","lat":-14.3766275,"lon":33.9151994,"type":"village"},{"id":"4494583834","name":"Kabumbu","lat":-13.9000518,"lon":34.5001626,"type":"village"},{"id":"4494585696","name":"Kapanda","lat":-13.8899871,"lon":34.502798,"type":"village"},{"id":"4494585697","name":"Naliwomba","lat":-13.8938796,"lon":34.5014711,"type":"village"},{"id":"4501856911","name":"mzunza village","lat":-13.9157706,"lon":34.5586971,"type":"village"},{"id":"4501909919","name":"Mwanjowa Village","lat":-13.476202,"lon":34.3589034,"type":"village"},{"id":"4501912805","name":"Makho Village","lat":-13.4687961,"lon":34.3512171,"type":"village"},{"id":"4501914997","name":"Makho Village","lat":-13.4653228,"lon":34.3517566,"type":"village"},{"id":"4501923058","name":"Kasache GVH","lat":-13.4840947,"lon":34.3545873,"type":"village"},{"id":"4501924477","name":"mkwaila village","lat":-13.9016176,"lon":34.540731,"type":"village"},{"id":"4501924478","name":"Nyambalo GVH","lat":-13.5406583,"lon":34.3791501,"type":"village"},{"id":"4501926920","name":"Mpilingidzo GVH","lat":-13.5216956,"lon":34.3763084,"type":"village"},{"id":"4501928899","name":"Chikuni","lat":-13.8093655,"lon":34.4688841,"type":"village"},{"id":"4501934828","name":"Makho GVH","lat":-13.466721,"lon":34.3593527,"type":"village"},{"id":"4501980260","name":"Chipalapata village","lat":-13.762246,"lon":34.3772147,"type":"village"},{"id":"4501989119","name":"Mtonga Village","lat":-13.7691384,"lon":34.3607417,"type":"village"},{"id":"4505763014","name":"GVH Kandulu","lat":-13.9092354,"lon":34.5176885,"type":"village"},{"id":"4505765479","name":"GVH Ntika","lat":-13.9661145,"lon":34.5133207,"type":"village"},{"id":"4505773825","name":"GVH Mphunga","lat":-13.908204,"lon":34.5279278,"type":"village"},{"id":"4711423865","name":"Chiole","lat":-14.800034,"lon":34.6499747,"type":"village"},{"id":"4727603501","name":"MTONYA VILLAGE","lat":-14.9949342,"lon":34.9655549,"type":"village"},{"id":"4855778645","name":"Panga","lat":-14.3431614,"lon":34.7199316,"type":"village"},{"id":"4855778830","name":"Kapiri","lat":-14.3128723,"lon":34.6590534,"type":"village"},{"id":"4879465433","name":"Manyumba","lat":-15.8028064,"lon":35.3606459,"type":"village"},{"id":"4880921916","name":"Chikumbu","lat":-15.4739483,"lon":35.3457586,"type":"village"},{"id":"4880936134","name":"Mwanga","lat":-15.6434391,"lon":35.5280443,"type":"village"},{"id":"4880948498","name":"Kazembe","lat":-15.7400981,"lon":35.3298538,"type":"village"},{"id":"4880953902","name":"Maluwa","lat":-15.6560788,"lon":35.5230101,"type":"village"},{"id":"4880955154","name":"Nakhwala","lat":-15.4760853,"lon":35.3409819,"type":"village"},{"id":"4880955792","name":"Namphungo","lat":-15.8050052,"lon":35.3520282,"type":"village"},{"id":"4880964300","name":"Mlenga","lat":-15.4859793,"lon":35.3515762,"type":"village"},{"id":"4880964406","name":"Saiti","lat":-15.4799794,"lon":35.3358452,"type":"village"},{"id":"4880964459","name":"Chitimbe","lat":-15.4900569,"lon":35.2189567,"type":"village"},{"id":"4880973169","name":"Bakili","lat":-15.7011988,"lon":35.3757063,"type":"village"},{"id":"4880976787","name":"Siyabu","lat":-15.4882911,"lon":35.3590279,"type":"village"},{"id":"4880978206","name":"Nachuma","lat":-15.4891385,"lon":35.3519321,"type":"village"},{"id":"4969023443","name":"Mwenitete Village","lat":-9.8138246,"lon":33.8684544,"type":"village"},{"id":"4969218922","name":"Mwakabighiri Village","lat":-9.7947789,"lon":33.8691813,"type":"village"},{"id":"4972665578","name":"Mwakasangira","lat":-9.8261532,"lon":33.8871083,"type":"village"},{"id":"4972724798","name":"Mwenefumbo Village","lat":-9.7956115,"lon":33.8923582,"type":"village"},{"id":"4972731830","name":"Pemba Moto Village","lat":-9.7933675,"lon":33.8841748,"type":"village"},{"id":"4973062563","name":"Mwenewawo Village","lat":-9.7993885,"lon":33.8942492,"type":"village"},{"id":"4973223194","name":"GVH Mwantende","lat":-9.7051663,"lon":33.9101324,"type":"village"},{"id":"4973376089","name":"Mwamkiri","lat":-9.8048669,"lon":33.8457368,"type":"village"},{"id":"5216742055","name":"Khungwa","lat":-12.8415342,"lon":33.590069,"type":"village"},{"id":"5216742056","name":"Chazingwa","lat":-12.8369531,"lon":33.5966625,"type":"village"},{"id":"5216742057","name":"TAFATATHA","lat":-12.8502805,"lon":33.6214577,"type":"village"},{"id":"5216742058","name":"Pulikani","lat":-12.8564995,"lon":33.6191735,"type":"village"},{"id":"5216761219","name":"Chisale","lat":-12.8437279,"lon":33.6235806,"type":"village"},{"id":"5222800892","name":"Kamowatimwa","lat":-15.1448107,"lon":35.0345448,"type":"village"},{"id":"5223734227","name":"Jonasi","lat":-12.8676731,"lon":33.6123322,"type":"village"},{"id":"5223734228","name":"Tambala","lat":-12.8732532,"lon":33.6295949,"type":"village"},{"id":"5224737911","name":"Bonongwe","lat":-15.1480237,"lon":34.9703287,"type":"village"},{"id":"5224818685","name":"Kuntiya","lat":-14.8669405,"lon":35.0994043,"type":"village"},{"id":"5228268504","name":"Thunga Village","lat":-14.5073862,"lon":34.7233033,"type":"village"},{"id":"5228321672","name":"Manjanja Village","lat":-14.4907447,"lon":34.7275814,"type":"village"},{"id":"5229887225","name":"Kalimanjira 2 Village","lat":-14.8686336,"lon":34.9224599,"type":"village"},{"id":"5230003082","name":"Zululu Village","lat":-14.7444947,"lon":34.9085152,"type":"village"},{"id":"5230059654","name":"Bemelani Village","lat":-14.8599541,"lon":34.9101607,"type":"village"},{"id":"5230168315","name":"Hale","lat":-14.4908838,"lon":34.6923593,"type":"village"},{"id":"5230236088","name":"Tapani Village","lat":-14.8617086,"lon":34.9104437,"type":"village"},{"id":"5254204348","name":"Katete","lat":-12.3467621,"lon":33.6132423,"type":"village"},{"id":"5261979674","name":"Salima","lat":-13.9862935,"lon":34.4908798,"type":"village"},{"id":"5429816998","name":"Village","lat":-12.5315921,"lon":33.6016134,"type":"village"},{"id":"5490962536","name":"Chinkhoma","lat":-13.225912,"lon":33.5043443,"type":"village"},{"id":"5490962537","name":"Kacheta","lat":-13.288794,"lon":33.5146225,"type":"village"},{"id":"5537637044","name":"Njombwa","lat":-13.3104498,"lon":33.5205415,"type":"village"},{"id":"5537637050","name":"Jimu","lat":-13.3270992,"lon":33.5154438,"type":"village"},{"id":"5537637051","name":"Chatalala","lat":-13.3252474,"lon":33.4901272,"type":"village"},{"id":"5537637052","name":"Chinyanga","lat":-13.3149802,"lon":33.5203012,"type":"village"},{"id":"5537637053","name":"Katunda","lat":-13.3272209,"lon":33.5215578,"type":"village"},{"id":"5538026616","name":"Chambwe","lat":-13.2742406,"lon":33.5307576,"type":"village"},{"id":"5538026771","name":"Forest Village","lat":-13.2746073,"lon":33.5381339,"type":"village"},{"id":"5593287517","name":"Chipyela","lat":-12.0683987,"lon":34.7357847,"type":"town"},{"id":"5628152193","name":"Mchoka","lat":-13.3143421,"lon":33.5171743,"type":"village"},{"id":"5628152209","name":"Misuku","lat":-9.6816717,"lon":33.5244859,"type":"town"},{"id":"5628152210","name":"Mwalingo","lat":-9.667751,"lon":33.5305784,"type":"village"},{"id":"5628152211","name":"Chinongo","lat":-9.633881,"lon":33.5441581,"type":"village"},{"id":"5687075179","name":"Kalichero","lat":-14.7381375,"lon":35.1943647,"type":"village"},{"id":"5779213538","name":"Chiwongo","lat":-13.3025239,"lon":33.5186806,"type":"village"},{"id":"5779213539","name":"Chimpanda","lat":-13.2950203,"lon":33.5146822,"type":"village"},{"id":"5779213785","name":"Nkhololoka","lat":-13.291341,"lon":33.5277288,"type":"village"},{"id":"5817192293","name":"Chanya","lat":-9.6549577,"lon":33.5207099,"type":"village"},{"id":"5817192294","name":"Chuba","lat":-9.6489299,"lon":33.4629373,"type":"village"},{"id":"5825300967","name":"Chisi","lat":-9.7057113,"lon":33.5038474,"type":"village"},{"id":"5825301004","name":"Mughoma","lat":-9.6900309,"lon":33.5165398,"type":"village"},{"id":"5886707665","name":"Itegho","lat":-9.6471931,"lon":33.5249959,"type":"village"},{"id":"5903308659","name":"Namitambo","lat":-15.8403909,"lon":35.2696929,"type":"town"},{"id":"5915418625","name":"Guilleme","lat":-13.8894768,"lon":33.0727321,"type":"village"},{"id":"5948029214","name":"Lunzu","lat":-15.6503071,"lon":35.0193906,"type":"village"},{"id":"5980530741","name":"Kazembe","lat":-14.5063889,"lon":35.2541667,"type":"village"},{"id":"5984281518","name":"Matewere","lat":-14.4191613,"lon":35.2189551,"type":"village"},{"id":"5984282290","name":"Mchisa","lat":-14.5177778,"lon":35.1994444,"type":"village"},{"id":"5984292704","name":"Msanyira","lat":-14.495,"lon":35.1844444,"type":"village"},{"id":"5984334582","name":"Changali","lat":-14.7152778,"lon":35.1697222,"type":"village"},{"id":"5991440732","name":"Mtafu","lat":-14.4910167,"lon":35.322,"type":"village"},{"id":"5991458179","name":"Laini","lat":-14.495,"lon":35.2779889,"type":"village"},{"id":"6015355812","name":"Chibanda","lat":-9.7138795,"lon":33.4892006,"type":"village"},{"id":"6021075739","name":"Kawinga","lat":-14.5054543,"lon":35.259282,"type":"village"},{"id":"6024745264","name":"Chilaweni","lat":-15.7036358,"lon":35.040757,"type":"village"},{"id":"6067238091","name":"Fulirwa","lat":-10.444311,"lon":34.0885139,"type":"village"},{"id":"6110931571","name":"Lundu","lat":-13.9712206,"lon":33.9702188,"type":"village"},{"id":"6111027713","name":"Msundwe","lat":-14.0251427,"lon":33.4811245,"type":"town"},{"id":"6120396522","name":"Majumbe","lat":-14.35974,"lon":35.4361824,"type":"village"},{"id":"6128371325","name":"Chiwoza","lat":-13.9026148,"lon":33.989995,"type":"village"},{"id":"6132716602","name":"Chitende","lat":-10.3988891,"lon":34.2527362,"type":"village"},{"id":"6132716603","name":"Kapoka","lat":-9.7892646,"lon":33.4455524,"type":"town"},{"id":"6132723138","name":"Lufita","lat":-9.712207,"lon":33.3550167,"type":"town"},{"id":"6135445994","name":"Nachinganda","lat":-9.6826529,"lon":33.419501,"type":"village"},{"id":"6135445995","name":"Chisansu","lat":-9.7300885,"lon":33.456689,"type":"village"},{"id":"6247401671","name":"Chisumbu","lat":-15.7209745,"lon":34.5059932,"type":"village"},{"id":"6258530683","name":"Chinunkha","lat":-9.636243,"lon":33.3798018,"type":"village"},{"id":"6258626047","name":"Chipwela","lat":-9.7735285,"lon":33.5209982,"type":"village"},{"id":"6288943574","name":"Tchetsa","lat":-15.7096373,"lon":34.5187471,"type":"village"},{"id":"6288943575","name":"Tulonkhondo","lat":-15.7531351,"lon":34.5221817,"type":"village"},{"id":"6288943576","name":"Mwembedzi","lat":-15.7782379,"lon":34.5449696,"type":"village"},{"id":"6288943890","name":"Njanjama","lat":-15.6808148,"lon":34.4942976,"type":"village"},{"id":"6383623840","name":"Madziabango","lat":-15.9670031,"lon":34.9110457,"type":"village"},{"id":"6383623841","name":"Mfera","lat":-16.0676264,"lon":34.866619,"type":"village"},{"id":"6383652924","name":"Ifumbo","lat":-9.6034266,"lon":33.403721,"type":"village"},{"id":"6435500341","name":"Mapungu","lat":-14.0047385,"lon":33.3913104,"type":"village"},{"id":"6468419336","name":"Sharpevalle","lat":-14.6071331,"lon":34.7283559,"type":"village"},{"id":"6472453593","name":"Lingidzi","lat":-15.4305307,"lon":35.0172767,"type":"village"},{"id":"6472758674","name":"Malume","lat":-15.4170054,"lon":35.010712,"type":"village"},{"id":"6473944285","name":"William","lat":-15.3807974,"lon":34.9942245,"type":"village"},{"id":"6477862334","name":"Kalilima","lat":-15.9217792,"lon":35.362933,"type":"village"},{"id":"6477872335","name":"John Manaya","lat":-15.9187846,"lon":35.3671253,"type":"village"},{"id":"6477872336","name":"Nkando","lat":-15.9193211,"lon":35.3609776,"type":"village"},{"id":"6477882074","name":"John","lat":-15.9202445,"lon":35.3655455,"type":"village"},{"id":"6478234678","name":"Msanja Village","lat":-15.714252,"lon":35.1350284,"type":"village"},{"id":"6478234679","name":"Mponda Village","lat":-15.7217486,"lon":35.1628147,"type":"village"},{"id":"6478257248","name":"Ta Onga","lat":-15.7380821,"lon":35.1650584,"type":"village"},{"id":"6478298990","name":"Jekete Village","lat":-15.6683706,"lon":35.1432466,"type":"village"},{"id":"6478307460","name":"Kambenje","lat":-15.8535062,"lon":35.5625242,"type":"village"},{"id":"6478330420","name":"TA LIKOSWE","lat":-15.8323578,"lon":35.146417,"type":"village"},{"id":"6478418802","name":"Nile Village","lat":-15.7405528,"lon":35.1808995,"type":"village"},{"id":"6478531292","name":"Katoleza","lat":-15.717087,"lon":35.1619148,"type":"village"},{"id":"6478531293","name":"Masamba Village","lat":-15.7329033,"lon":35.1891982,"type":"village"},{"id":"6478584727","name":"Chalira Village","lat":-15.7253748,"lon":35.1632613,"type":"village"},{"id":"6478647693","name":"Labana","lat":-15.6560596,"lon":35.2495044,"type":"village"},{"id":"6478705114","name":"Nkwaila","lat":-15.6630195,"lon":35.2486682,"type":"village"},{"id":"6478712945","name":"Namathika","lat":-15.6589751,"lon":35.2407825,"type":"village"},{"id":"6478716022","name":"Khongozo","lat":-15.6674719,"lon":35.2608454,"type":"village"},{"id":"6478747956","name":"Sitima","lat":-15.6577767,"lon":35.2703887,"type":"village"},{"id":"6478747957","name":"Mphepo","lat":-15.6717124,"lon":35.2597403,"type":"village"},{"id":"6478751168","name":"Changamire","lat":-15.6491763,"lon":35.2641821,"type":"village"},{"id":"6478766681","name":"Chabwera","lat":-15.722669,"lon":35.2325588,"type":"village"},{"id":"6478766682","name":"Malimusi","lat":-15.7249824,"lon":35.22551,"type":"village"},{"id":"6478766683","name":"Mwenyedawa","lat":-15.7067435,"lon":35.2466082,"type":"village"},{"id":"6478767948","name":"Ng'ombe","lat":-15.7169579,"lon":35.2329826,"type":"village"},{"id":"6504618664","name":"Namitondo","lat":-13.979,"lon":33.3534086,"type":"village"},{"id":"6765699485","name":"Lilongwe","lat":-13.9875107,"lon":33.768144,"type":"city"},{"id":"6769839009","name":"Mpingu","lat":-13.989973,"lon":33.5913192,"type":"village"},{"id":"6784599011","name":"Mpotola","lat":-15.0642907,"lon":35.3256467,"type":"village"},{"id":"6797639504","name":"Lilomba","lat":-15.094931,"lon":35.3616527,"type":"village"},{"id":"6835256801","name":"Majaliro","lat":-10.3825055,"lon":34.2139597,"type":"village"},{"id":"7049590662","name":"Chamkoko","lat":-12.6924771,"lon":33.6292407,"type":"village"},{"id":"7780188020","name":"Mweziwawala","lat":-13.8930866,"lon":33.64613,"type":"village"},{"id":"7825407495","name":"Chadzuka","lat":-14.0244012,"lon":33.3130469,"type":"village"},{"id":"7825407496","name":"Silombe I","lat":-14.0197815,"lon":33.3025097,"type":"village"},{"id":"7825407499","name":"Sinde","lat":-13.9975756,"lon":33.2217383,"type":"village"},{"id":"7836573984","name":"Nfuladzi","lat":-14.1036361,"lon":33.3065071,"type":"village"},{"id":"7838926795","name":"Katengeza","lat":-14.1094418,"lon":33.3366992,"type":"village"},{"id":"7838926942","name":"Kabutu","lat":-14.0979166,"lon":33.3412173,"type":"village"},{"id":"7838927166","name":"Kamphata","lat":-14.0928535,"lon":33.3384289,"type":"village"},{"id":"7838927178","name":"Mlinga I","lat":-14.0986727,"lon":33.3519648,"type":"village"},{"id":"7838927179","name":"Chawanta","lat":-14.1166616,"lon":33.3697364,"type":"village"},{"id":"7838927283","name":"Bandawe","lat":-14.133393,"lon":33.3537749,"type":"village"},{"id":"7838927299","name":"Lambwe","lat":-14.1309695,"lon":33.3488133,"type":"village"},{"id":"7838927375","name":"Kapanga","lat":-14.0614209,"lon":33.3090492,"type":"village"},{"id":"7838927376","name":"Chisitu","lat":-14.1302789,"lon":33.3177351,"type":"village"},{"id":"7838927378","name":"Msampha","lat":-14.0722841,"lon":33.3402859,"type":"village"},{"id":"7841814011","name":"Mkonkha","lat":-14.0176306,"lon":33.3285357,"type":"village"},{"id":"7841814040","name":"Chileka","lat":-14.0244166,"lon":33.391287,"type":"village"},{"id":"7841814041","name":"Mphandula","lat":-14.0315678,"lon":33.3618946,"type":"village"},{"id":"7841814246","name":"Mthawira","lat":-14.0191949,"lon":33.3368712,"type":"village"},{"id":"7841814247","name":"Mafupa","lat":-14.0336527,"lon":33.3671265,"type":"village"},{"id":"7841814248","name":"Masekese","lat":-14.039904,"lon":33.3673399,"type":"village"},{"id":"7841814253","name":"Kasenza","lat":-14.0483798,"lon":33.3684631,"type":"village"},{"id":"7841814254","name":"Chikaza","lat":-14.0349529,"lon":33.3830388,"type":"village"},{"id":"7841814255","name":"Nkwambala","lat":-14.0241592,"lon":33.4055887,"type":"village"},{"id":"7841814256","name":"Chugunda","lat":-14.0038888,"lon":33.3114613,"type":"village"},{"id":"7841814347","name":"Kansukwa","lat":-14.0039391,"lon":33.2970164,"type":"village"},{"id":"7841814348","name":"Msitu","lat":-13.9763596,"lon":33.2733058,"type":"town"},{"id":"7841814349","name":"Kalolo","lat":-14.0105679,"lon":33.3905865,"type":"village"},{"id":"7842156230","name":"Mafuta","lat":-14.1472753,"lon":33.3298222,"type":"village"},{"id":"7842156231","name":"Chadza","lat":-14.0981178,"lon":33.3796549,"type":"village"},{"id":"7842156238","name":"Chidzenje","lat":-13.9943486,"lon":33.3894281,"type":"village"},{"id":"7842156239","name":"Ndevu","lat":-14.0200792,"lon":33.4212246,"type":"village"},{"id":"7842156242","name":"Chitopola","lat":-14.0232788,"lon":33.4161984,"type":"village"},{"id":"7842167844","name":"Kamangira","lat":-13.9798117,"lon":33.3796288,"type":"village"},{"id":"7844645594","name":"Chipira","lat":-14.0350706,"lon":33.3333783,"type":"village"},{"id":"7844645596","name":"Kadzombe","lat":-14.0428355,"lon":33.3292372,"type":"village"},{"id":"7844645597","name":"Mphando","lat":-14.046481,"lon":33.3782335,"type":"village"},{"id":"7844645598","name":"Mseru","lat":-14.0651886,"lon":33.3572896,"type":"village"},{"id":"7844645831","name":"Chikudzulire","lat":-13.9518418,"lon":33.3593138,"type":"village"},{"id":"7844645832","name":"Kamanzi","lat":-14.0017162,"lon":33.427329,"type":"village"},{"id":"7844645835","name":"Khanda","lat":-14.0100623,"lon":33.4550628,"type":"village"},{"id":"7844645836","name":"Nthondo","lat":-14.0322211,"lon":33.4482254,"type":"village"},{"id":"7844645837","name":"Kachiswe","lat":-14.0247685,"lon":33.4489828,"type":"village"},{"id":"7844645838","name":"Chalusa","lat":-14.0467929,"lon":33.4297037,"type":"village"},{"id":"7844645839","name":"Kafinya","lat":-14.0525163,"lon":33.4004434,"type":"village"},{"id":"7844645840","name":"Kakuyu","lat":-14.0611906,"lon":33.3971389,"type":"village"},{"id":"7845740296","name":"Cholowera","lat":-13.9092142,"lon":33.2863316,"type":"village"},{"id":"7845740297","name":"Madzi","lat":-13.8893416,"lon":33.2759635,"type":"village"},{"id":"7845740298","name":"Msokoneza","lat":-13.8825946,"lon":33.2785518,"type":"village"},{"id":"7845740299","name":"Kabungwe","lat":-13.88998,"lon":33.2981423,"type":"village"},{"id":"7845740300","name":"Mafuta","lat":-13.8783098,"lon":33.3193667,"type":"village"},{"id":"7845740301","name":"Lemwe","lat":-13.8857002,"lon":33.3410142,"type":"village"},{"id":"7845740302","name":"Liwinga","lat":-13.8956407,"lon":33.3476116,"type":"village"},{"id":"7845740330","name":"Mkoko","lat":-13.9186748,"lon":33.3460765,"type":"village"},