[{"id":"27564937","name":"Niamey","lat":13.524834,"lon":2.109823,"type":"city"},{"id":"256505236","name":"Dosso","lat":13.0496369,"lon":3.1944647,"type":"city"},{"id":"277867792","name":"Agadez ⴰⴳⴰⴷⴻⵣ أغاديس","lat":16.972556,"lon":7.990739,"type":"city"},{"id":"277873430","name":"Zinder","lat":13.8063421,"lon":8.9891659,"type":"city"},{"id":"277875981","name":"Maradi","lat":13.501206,"lon":7.102534,"type":"city"},{"id":"277879751","name":"Tahoua","lat":14.889922,"lon":5.262149,"type":"city"},{"id":"277882623","name":"Gaya","lat":11.884754,"lon":3.459885,"type":"city"},{"id":"277882803","name":"Arlit","lat":18.739079,"lon":7.393331,"type":"city"},{"id":"277884156","name":"Tessaoua","lat":13.755513,"lon":7.990456,"type":"city"},{"id":"277885538","name":"Dogondoutchi","lat":13.6411218,"lon":4.0293627,"type":"city"},{"id":"277887604","name":"Madaoua","lat":14.0708,"lon":5.9553,"type":"city"},{"id":"277887775","name":"Mayahi","lat":13.953305,"lon":7.672419,"type":"city"},{"id":"277888774","name":"Diffa","lat":13.3130749,"lon":12.6136611,"type":"city"},{"id":"277889093","name":"Téra","lat":14.0072677,"lon":0.756993,"type":"city"},{"id":"277929779","name":"Mirriah","lat":13.7145507,"lon":9.1585561,"type":"city"},{"id":"277929869","name":"Tillabéri","lat":14.2090125,"lon":1.4546006,"type":"city"},{"id":"277930050","name":"Magaria","lat":13.000948,"lon":8.9086775,"type":"city"},{"id":"277930250","name":"N’Guigmi","lat":14.253302,"lon":13.113545,"type":"city"},{"id":"277930324","name":"Dakoro","lat":14.509465,"lon":6.7644526,"type":"city"},{"id":"419490147","name":"Madama","lat":21.9469663,"lon":13.6469273,"type":"town"},{"id":"419492691","name":"Chirfa","lat":20.956151,"lon":12.3392875,"type":"town"},{"id":"419495618","name":"Bilma","lat":18.69293,"lon":12.91872,"type":"city"},{"id":"419495633","name":"Séguédine","lat":20.1962138,"lon":12.9665987,"type":"town"},{"id":"419496635","name":"Fachi","lat":18.1075779,"lon":11.5846654,"type":"town"},{"id":"459898669","name":"Ouallam","lat":14.315757,"lon":2.084779,"type":"city"},{"id":"459905274","name":"Mangaizé","lat":14.6832096,"lon":1.953911,"type":"town"},{"id":"459957028","name":"Badaguichiri","lat":14.5203577,"lon":5.3698449,"type":"town"},{"id":"459957029","name":"Daré Salam","lat":14.5605931,"lon":5.4917664,"type":"town"},{"id":"459958748","name":"Nakoni","lat":14.1098383,"lon":5.9134888,"type":"town"},{"id":"459967535","name":"Tchito","lat":13.8064683,"lon":4.1929255,"type":"town"},{"id":"459974012","name":"Dao Timmi","lat":20.5597389,"lon":13.5395031,"type":"town"},{"id":"461337258","name":"Balissa","lat":14.0380746,"lon":4.320155,"type":"town"},{"id":"461968170","name":"Kollo","lat":13.3420771,"lon":2.316525,"type":"city"},{"id":"461968173","name":"Baboussay","lat":13.3945837,"lon":2.6252545,"type":"town"},{"id":"462343124","name":"Zangarata","lat":14.7960706,"lon":5.6603086,"type":"town"},{"id":"462352221","name":"Abalak","lat":15.463729,"lon":6.281312,"type":"city"},{"id":"464544516","name":"Matamèye","lat":13.422144,"lon":8.47855,"type":"city"},{"id":"464556985","name":"Tanout","lat":14.97119,"lon":8.878363,"type":"city"},{"id":"464561491","name":"Gouré","lat":13.9861879,"lon":10.2642868,"type":"city"},{"id":"464569214","name":"Aguié","lat":13.5038341,"lon":7.7769974,"type":"city"},{"id":"464583011","name":"Guidan Roumdji","lat":13.66107,"lon":6.696541,"type":"city"},{"id":"464587749","name":"Filingué","lat":14.351996,"lon":3.324134,"type":"city"},{"id":"464592048","name":"Maïné-Soroa","lat":13.2151567,"lon":12.0280819,"type":"city"},{"id":"464615715","name":"Tchirozérine","lat":17.266115,"lon":7.832831,"type":"town"},{"id":"464649979","name":"Madarounfa","lat":13.3031734,"lon":7.1616587,"type":"city"},{"id":"464653114","name":"Gazaoua","lat":13.5271777,"lon":7.9125927,"type":"town"},{"id":"464679859","name":"Keïta","lat":14.75637,"lon":5.775007,"type":"city"},{"id":"464691786","name":"Tchin-Tabaraden","lat":15.8982622,"lon":5.8036112,"type":"city"},{"id":"464696392","name":"Bouza","lat":14.423489,"lon":6.043656,"type":"city"},{"id":"464700876","name":"Loga","lat":13.6150486,"lon":3.231257,"type":"city"},{"id":"465899661","name":"Gouchi","lat":13.510051,"lon":9.552913,"type":"town"},{"id":"465899669","name":"Baochi","lat":13.4965041,"lon":9.6008974,"type":"town"},{"id":"465912626","name":"Guidiguir","lat":13.6720361,"lon":9.830846,"type":"town"},{"id":"465965698","name":"Gamdou","lat":13.3592964,"lon":9.9880802,"type":"town"},{"id":"465965714","name":"Nogo","lat":13.1521555,"lon":9.5737398,"type":"town"},{"id":"465965724","name":"Gazabalé","lat":13.5989696,"lon":10.088038,"type":"town"},{"id":"465965784","name":"Kargéri","lat":13.4420111,"lon":10.4257011,"type":"town"},{"id":"466028856","name":"Boubouté","lat":14.129583,"lon":9.8195995,"type":"town"},{"id":"466028862","name":"Kellé","lat":14.281896,"lon":10.115655,"type":"town"},{"id":"466203096","name":"Koukakamé","lat":14.7495169,"lon":4.3670871,"type":"town"},{"id":"469100820","name":"Yéni","lat":13.428836,"lon":2.9939356,"type":"town"},{"id":"469116155","name":"Falmey","lat":12.594472,"lon":2.852715,"type":"town"},{"id":"469222883","name":"Achénouma","lat":19.1275345,"lon":12.9223174,"type":"town"},{"id":"469223199","name":"Aney","lat":19.3679927,"lon":12.8998172,"type":"town"},{"id":"469234208","name":"Akokan","lat":18.710635,"lon":7.338211,"type":"town"},{"id":"469235588","name":"Tassara","lat":16.8089516,"lon":5.6481871,"type":"town"},{"id":"469235899","name":"Tillia","lat":16.137927,"lon":4.792211,"type":"town"},{"id":"469241909","name":"Dargol","lat":13.9172612,"lon":1.2423646,"type":"town"},{"id":"469242245","name":"Sansané Haoussa","lat":13.8458039,"lon":1.6079665,"type":"town"},{"id":"469242540","name":"Gothèye","lat":13.8571396,"lon":1.5665107,"type":"city"},{"id":"469242726","name":"Karma","lat":13.6718514,"lon":1.8120279,"type":"town"},{"id":"469247876","name":"Koulou","lat":12.2204004,"lon":3.0654041,"type":"town"},{"id":"469248299","name":"Dioundiou","lat":12.619361,"lon":3.544343,"type":"town"},{"id":"469267691","name":"Bangario Zou","lat":13.3552169,"lon":2.9717655,"type":"town"},{"id":"469269930","name":"Zama","lat":14.3278854,"lon":2.8260611,"type":"town"},{"id":"469274256","name":"Matankari","lat":13.1249974,"lon":8.5910893,"type":"town"},{"id":"469281720","name":"Belbédji","lat":14.6815083,"lon":7.9947795,"type":"city"},{"id":"469354174","name":"Takiéta","lat":13.6810641,"lon":8.5307127,"type":"city"},{"id":"469364692","name":"Malawa","lat":13.033121,"lon":9.6130274,"type":"town"},{"id":"469366227","name":"Wacha","lat":13.365284,"lon":9.295774,"type":"town"},{"id":"469376001","name":"Kabléwa","lat":13.9768069,"lon":12.9785488,"type":"town"},{"id":"469390888","name":"Balleyara","lat":13.7841021,"lon":2.9515071,"type":"city"},{"id":"469394535","name":"Soli","lat":14.7165087,"lon":7.5195016,"type":"town"},{"id":"469410957","name":"Goubey","lat":13.6988477,"lon":4.1916062,"type":"town"},{"id":"469411662","name":"Bazaga","lat":13.796163,"lon":5.086723,"type":"town"},{"id":"469412872","name":"Guidan Ider","lat":14.0131167,"lon":5.3191525,"type":"town"},{"id":"469703553","name":"Magaria","lat":13.9919432,"lon":8.2373971,"type":"town"},{"id":"469703554","name":"Awaché","lat":13.9544552,"lon":8.229543,"type":"town"},{"id":"469706760","name":"Kantché","lat":13.539498,"lon":8.462786,"type":"town"},{"id":"469725893","name":"Guidimouni","lat":13.6947395,"lon":9.5128925,"type":"town"},{"id":"469725895","name":"Damagaram Takaya","lat":14.1383821,"lon":9.482686,"type":"city"},{"id":"469738588","name":"Sabon Kafi","lat":14.6398902,"lon":8.7453594,"type":"town"},{"id":"469797260","name":"Bangui","lat":13.6795277,"lon":6.1940087,"type":"town"},{"id":"469797267","name":"Kornaka","lat":14.1003921,"lon":6.9017397,"type":"town"},{"id":"472984905","name":"Fonéko","lat":14.2057371,"lon":0.742312,"type":"town"},{"id":"472984906","name":"Doungourou","lat":14.3075598,"lon":0.7532147,"type":"town"},{"id":"472989757","name":"Simiri","lat":14.1402577,"lon":2.1333854,"type":"town"},{"id":"473076808","name":"Azérori","lat":14.1352732,"lon":5.9052311,"type":"town"},{"id":"473077413","name":"Guidan Wari","lat":14.1379636,"lon":7.2314758,"type":"town"},{"id":"473077646","name":"Tchakyé","lat":14.1527725,"lon":7.6078564,"type":"town"},{"id":"473077704","name":"Toulou","lat":14.1708584,"lon":5.1995921,"type":"town"},{"id":"473101689","name":"Guidan Méyda","lat":14.3333852,"lon":7.8586059,"type":"town"},{"id":"473427500","name":"Guidan Ango","lat":14.4420721,"lon":7.8083037,"type":"town"},{"id":"473430977","name":"Droum Malori","lat":13.5681746,"lon":8.8912003,"type":"town"},{"id":"473430986","name":"Dogo","lat":13.4982571,"lon":9.0155148,"type":"town"},{"id":"473431112","name":"Koundoumawa","lat":13.6699992,"lon":8.3620012,"type":"town"},{"id":"473431121","name":"Tirmini","lat":13.7715218,"lon":8.7971255,"type":"town"},{"id":"473431308","name":"Koleram","lat":13.714916,"lon":9.0884588,"type":"town"},{"id":"473674308","name":"Kalfou Dabagui","lat":14.858263,"lon":5.5142582,"type":"town"},{"id":"473674334","name":"Wakou","lat":15.1223502,"lon":5.2461513,"type":"town"},{"id":"473684205","name":"Nassarawa","lat":14.079822,"lon":5.8158255,"type":"town"},{"id":"473684219","name":"Sabon Guida","lat":13.9339373,"lon":5.9032401,"type":"town"},{"id":"473690565","name":"Birni N'Konni","lat":13.791612,"lon":5.24779,"type":"city"},{"id":"473690738","name":"Tsernaoua","lat":13.8904671,"lon":5.3452476,"type":"town"},{"id":"473690796","name":"Doguéraoua","lat":13.9678029,"lon":5.5917625,"type":"town"},{"id":"473690798","name":"Galmi","lat":13.9656445,"lon":5.6753794,"type":"town"},{"id":"473692447","name":"Kougouptché","lat":14.3697348,"lon":6.0009456,"type":"town"},{"id":"473698984","name":"Boula Brin","lat":14.4257463,"lon":13.4171008,"type":"town"},{"id":"473711551","name":"Boureïmi","lat":13.1596943,"lon":3.7289709,"type":"town"},{"id":"473711555","name":"Koré Maïroua","lat":13.3000912,"lon":3.9085638,"type":"town"},{"id":"473847410","name":"Tagiris","lat":14.5357445,"lon":7.6228432,"type":"town"},{"id":"473847862","name":"Goula","lat":14.6580363,"lon":7.2330955,"type":"town"},{"id":"473852313","name":"Safo","lat":13.4082623,"lon":7.1214983,"type":"town"},{"id":"473852381","name":"Safo Nasserawa","lat":13.4240392,"lon":7.1002256,"type":"town"},{"id":"473852384","name":"Kangon Toulou","lat":13.4463277,"lon":7.0880708,"type":"town"},{"id":"473854971","name":"Serkin Haoussa","lat":13.8426931,"lon":7.5893734,"type":"town"},{"id":"473854996","name":"Malamawa Kaka","lat":13.8232927,"lon":7.4573324,"type":"town"},{"id":"473855060","name":"Dan Maïro","lat":13.8885538,"lon":7.3165639,"type":"town"},{"id":"473855311","name":"Dan Koulou","lat":14.4626962,"lon":7.2265129,"type":"town"},{"id":"2042002374","name":"Say","lat":13.1024623,"lon":2.3626379,"type":"city"},{"id":"2279599434","name":"Sassoumbouroum","lat":13.1172892,"lon":8.4885827,"type":"town"},{"id":"2290177637","name":"Ayorou","lat":14.7335153,"lon":0.9194517,"type":"city"},{"id":"2297958837","name":"Bagaroua","lat":14.6395512,"lon":4.3475296,"type":"town"},{"id":"2338701393","name":"Sanam","lat":14.8338514,"lon":3.9181117,"type":"town"},{"id":"2427772207","name":"Birni N'Gaouré","lat":13.0813632,"lon":2.9091799,"type":"city"},{"id":"2609172217","name":"Matankari","lat":13.7665631,"lon":4.0085827,"type":"town"},{"id":"2889146003","name":"Dirkou","lat":19.0025215,"lon":12.8936989,"type":"town"},{"id":"3153566090","name":"Dan Issa","lat":13.2037964,"lon":7.2592644,"type":"town"},{"id":"3241031361","name":"Gangara","lat":14.613459,"lon":8.5039363,"type":"town"},{"id":"3305485757","name":"Boultoum","lat":14.6025002,"lon":10.2950879,"type":"town"},{"id":"3524737151","name":"I-n-Gall","lat":16.7861094,"lon":6.9321705,"type":"town"},{"id":"3894069083","name":"Samia","lat":14.7077392,"lon":8.2356613,"type":"town"},{"id":"4224605595","name":"Tibiri","lat":13.5641272,"lon":7.0489171,"type":"town"},{"id":"4567157202","name":"Bosso","lat":13.700055,"lon":13.3112436,"type":"town"},{"id":"4569015976","name":"Boutti","lat":13.9869133,"lon":11.3350069,"type":"town"},{"id":"4914695856","name":"Laba","lat":14.6223664,"lon":5.940012,"type":"city"},{"id":"4918725180","name":"Tessaoua","lat":13.75532,"lon":7.9897649,"type":"town"},{"id":"4926175778","name":"Tesker","lat":15.1159083,"lon":10.6956447,"type":"city"},{"id":"4941872977","name":"Abala","lat":14.9320767,"lon":3.4298122,"type":"city"},{"id":"4961723179","name":"Banibangou","lat":15.0393641,"lon":2.7016766,"type":"city"},{"id":"5277977532","name":"Sabon Machi","lat":13.8761942,"lon":6.979714,"type":"town"},{"id":"5508345623","name":"Takanamat","lat":15.1374084,"lon":4.7772617,"type":"town"},{"id":"5899862891","name":"Aroungouza","lat":14.028858,"lon":8.9462725,"type":"town"},{"id":"5911123267","name":"Sabon Birni","lat":11.8850917,"lon":3.5960165,"type":"town"},{"id":"5922598018","name":"Gayi","lat":13.4853833,"lon":9.3563074,"type":"town"},{"id":"5991856847","name":"Douméga","lat":12.9721893,"lon":3.9787448,"type":"town"},{"id":"5992018440","name":"Guéchémé","lat":12.9100883,"lon":3.8739145,"type":"town"},{"id":"6114046114","name":"Malbaza","lat":13.9602829,"lon":5.5071021,"type":"town"},{"id":"6142019880","name":"Magaria Makéra Bakalé","lat":14.0253208,"lon":5.7881215,"type":"town"},{"id":"6146485345","name":"Komabangou","lat":14.090428,"lon":1.0631631,"type":"town"},{"id":"6147013103","name":"Tchadoua","lat":13.5468248,"lon":7.4491469,"type":"town"},{"id":"6237237345","name":"Liboré","lat":13.4041428,"lon":2.1920546,"type":"town"},{"id":"6317315936","name":"Kobadié","lat":13.2174676,"lon":1.8625651,"type":"town"},{"id":"6354595161","name":"Dungass","lat":13.0634643,"lon":9.3405575,"type":"city"},{"id":"6513658855","name":"Amaloul Guidis","lat":15.1021807,"lon":4.9657776,"type":"town"},{"id":"6517929706","name":"Tibiri","lat":13.1112228,"lon":4.0001684,"type":"town"},{"id":"6754352587","name":"Dan Kassari","lat":13.7213658,"lon":4.3841364,"type":"town"},{"id":"6848497798","name":"Bakin Birji","lat":14.2570887,"lon":8.7952343,"type":"town"},{"id":"7123445546","name":"Iferouâne","lat":19.0678966,"lon":8.4202829,"type":"town"},{"id":"7396133433","name":"Arrigui","lat":19.0789503,"lon":12.9215902,"type":"town"},{"id":"7887286865","name":"Bankilaré","lat":14.5828541,"lon":0.725173,"type":"city"},{"id":"7918446409","name":"Yatakala","lat":14.7912566,"lon":0.3766538,"type":"town"},{"id":"7918446454","name":"Tegueye","lat":14.6522368,"lon":0.5354395,"type":"town"},{"id":"7918446456","name":"Wanzerbe","lat":14.7421707,"lon":0.3625933,"type":"town"},{"id":"8084842906","name":"Torodi","lat":13.1208169,"lon":1.8000973,"type":"city"},{"id":"8167417281","name":"Illela","lat":14.4590368,"lon":5.2455312,"type":"city"},{"id":"8225787044","name":"Kaoutchi Kaba","lat":14.1048785,"lon":8.4310677,"type":"town"},{"id":"8505200300","name":"Lido","lat":12.8937492,"lon":3.7254284,"type":"town"},{"id":"8604111358","name":"Dantiandou","lat":13.4116893,"lon":2.7577584,"type":"town"},{"id":"8939451092","name":"Yagagi","lat":14.3569799,"lon":8.3941996,"type":"town"},{"id":"11435311923","name":"Garaou","lat":16.2816976,"lon":5.7552729,"type":"town"},{"id":"11647870969","name":"Tsaounaoua","lat":13.4062846,"lon":7.1233571,"type":"town"},{"id":"347569151","name":"Ighalabélabene","lat":17.6418819,"lon":8.9346835,"type":"village"},{"id":"347575689","name":"Tadélaka","lat":15.5073865,"lon":7.9791976,"type":"village"},{"id":"347576542","name":"Kourboubou","lat":16.8811717,"lon":7.8253584,"type":"village"},{"id":"347617109","name":"Gorouol","lat":14.6909036,"lon":0.250057,"type":"village"},{"id":"347617770","name":"Méhana","lat":14.3937197,"lon":1.1328198,"type":"village"},{"id":"457122976","name":"Kanya Goumbi Bannda","lat":14.1150853,"lon":3.2437026,"type":"village"},{"id":"457123028","name":"Gao Sabon Gari","lat":14.2289587,"lon":3.3078722,"type":"village"},{"id":"457698693","name":"Gézawa","lat":14.4406441,"lon":8.7271008,"type":"village"},{"id":"459477538","name":"Ouaji","lat":14.9632303,"lon":5.5448315,"type":"village"},{"id":"459493527","name":"Taza","lat":15.3612682,"lon":5.2081585,"type":"village"},{"id":"459496075","name":"Tébaram","lat":14.836062,"lon":4.458323,"type":"village"},{"id":"459898664","name":"Diolé","lat":13.8700382,"lon":2.0737215,"type":"village"},{"id":"459921417","name":"Danya","lat":13.9663618,"lon":4.2750368,"type":"village"},{"id":"459921421","name":"Issakitchi","lat":14.0091847,"lon":4.3435557,"type":"village"},{"id":"459957030","name":"Tounga Saddi","lat":14.5504692,"lon":5.4257508,"type":"village"},{"id":"459974015","name":"Djado","lat":21.0158745,"lon":12.3083635,"type":"village"},{"id":"461337257","name":"Kaiwa Fako","lat":14.0181739,"lon":4.3592047,"type":"village"},{"id":"461337259","name":"Walwala","lat":13.9673086,"lon":4.2323311,"type":"village"},{"id":"461337260","name":"Madatta 3","lat":13.9008229,"lon":4.0696658,"type":"village"},{"id":"461337261","name":"Haoussawa","lat":13.9382211,"lon":4.0589932,"type":"village"},{"id":"461337484","name":"Wassangou","lat":12.9091524,"lon":3.8023987,"type":"village"},{"id":"461794837","name":"N'Gonga Zarma","lat":13.1794434,"lon":2.8276176,"type":"village"},{"id":"461966259","name":"Namarigoungou","lat":14.3514387,"lon":1.259996,"type":"village"},{"id":"461966262","name":"Koma","lat":14.2289498,"lon":1.3893201,"type":"village"},{"id":"461966264","name":"Karé Bangou","lat":14.0213102,"lon":1.8146282,"type":"village"},{"id":"461966265","name":"Daré Bangou","lat":14.0224611,"lon":1.7562502,"type":"village"},{"id":"461966266","name":"Komo Bangou","lat":13.9520929,"lon":1.7847935,"type":"village"},{"id":"461968168","name":"Danki","lat":13.6921284,"lon":2.0168448,"type":"village"},{"id":"461968169","name":"Wari","lat":13.6161784,"lon":2.240062,"type":"village"},{"id":"461968171","name":"Fandoga","lat":13.2714099,"lon":2.5101336,"type":"village"},{"id":"461968172","name":"Kouré","lat":13.310915,"lon":2.57563,"type":"village"},{"id":"461968174","name":"Tollo","lat":13.3331953,"lon":2.7234663,"type":"village"},{"id":"462749971","name":"Tiouré Fandou","lat":13.4625228,"lon":2.1817229,"type":"village"},{"id":"464741739","name":"Barkiawal Béri","lat":13.5433464,"lon":2.3088996,"type":"village"},{"id":"465965708","name":"Doumbari","lat":13.1198895,"lon":9.7800477,"type":"village"},{"id":"466028867","name":"Goulouski","lat":15.0101087,"lon":9.1950288,"type":"village"},{"id":"466028871","name":"Gourbobo","lat":14.9587206,"lon":9.598613,"type":"village"},{"id":"466095417","name":"Ganmaram","lat":15.0428351,"lon":8.9665418,"type":"village"},{"id":"466095422","name":"Tabankoro","lat":15.0813582,"lon":8.7306991,"type":"village"},{"id":"466095448","name":"Ekelfi","lat":16.0912489,"lon":7.4102615,"type":"village"},{"id":"466095454","name":"Toumbelaga","lat":15.8091707,"lon":7.839242,"type":"village"},{"id":"466095455","name":"Aderbissinat","lat":15.6182482,"lon":7.8956817,"type":"village"},{"id":"466095462","name":"Danga Iadima","lat":15.9711839,"lon":7.842435,"type":"village"},{"id":"467932510","name":"Dan Tchiro","lat":13.6081727,"lon":7.7310061,"type":"village"},{"id":"467932511","name":"Kafin Abarchi","lat":13.6049897,"lon":7.6901234,"type":"village"},{"id":"467932513","name":"Dan Gantamawa","lat":13.6317701,"lon":7.6723501,"type":"village"},{"id":"467932514","name":"Tabkin Kania","lat":13.6159915,"lon":7.6789492,"type":"village"},{"id":"467932515","name":"May Gaoud' é","lat":13.6137609,"lon":7.6519687,"type":"village"},{"id":"467932520","name":"Mouri Mak' aoura","lat":13.6264283,"lon":7.6209111,"type":"village"},{"id":"467932522","name":"Maygochi","lat":13.6380954,"lon":7.6381076,"type":"village"},{"id":"467932523","name":"Dadani","lat":13.6516582,"lon":7.6882642,"type":"village"},{"id":"467932526","name":"Gobérawa","lat":13.6582087,"lon":7.6327854,"type":"village"},{"id":"467932529","name":"May Sameykou","lat":13.6401944,"lon":7.6050797,"type":"village"},{"id":"467932531","name":"Guidan Madougou","lat":13.6751736,"lon":7.6042034,"type":"village"},{"id":"467932532","name":"Dan Saga","lat":13.6953207,"lon":7.7353685,"type":"village"},{"id":"467932534","name":"Angoual Mâlam","lat":13.555657,"lon":7.7696669,"type":"village"},{"id":"467932536","name":"Dan Gao","lat":13.5458247,"lon":7.7712434,"type":"village"},{"id":"467956894","name":"Dan Gouari","lat":13.577004,"lon":7.7337722,"type":"village"},{"id":"467956897","name":"Baban Arné","lat":13.5605641,"lon":7.7153934,"type":"village"},{"id":"467956901","name":"Tafouka","lat":13.5322949,"lon":7.6799733,"type":"village"},{"id":"467956904","name":"Issourou","lat":13.5349793,"lon":7.6918807,"type":"village"},{"id":"467956906","name":"Aladou","lat":13.5349793,"lon":7.7097849,"type":"village"},{"id":"467956909","name":"Débi","lat":13.5446236,"lon":7.6023149,"type":"village"},{"id":"467956914","name":"Dan Toumbi","lat":13.5553108,"lon":7.5795662,"type":"village"},{"id":"467956916","name":"Dan Kada","lat":13.5138984,"lon":7.6597007,"type":"village"},{"id":"467956918","name":"Chadawanka","lat":13.4820268,"lon":7.6135236,"type":"village"},{"id":"467956920","name":"Taka Lafia","lat":13.4507423,"lon":7.6282038,"type":"village"},{"id":"469115988","name":"Kotaki","lat":12.4493193,"lon":2.8780844,"type":"village"},{"id":"469115999","name":"Saboula","lat":12.5281745,"lon":2.8977528,"type":"village"},{"id":"469116156","name":"Ganigoungou","lat":12.6190501,"lon":2.8582077,"type":"village"},{"id":"469142261","name":"Sandé Seydou","lat":13.2434607,"lon":2.8660963,"type":"village"},{"id":"469142263","name":"Sandé Moussa","lat":13.24831,"lon":2.8659572,"type":"village"},{"id":"469142266","name":"Djassarey","lat":13.2657457,"lon":2.8789667,"type":"village"},{"id":"469142268","name":"Alfabiré","lat":13.2701897,"lon":2.8719734,"type":"village"},{"id":"469142273","name":"Fandou Djibo","lat":13.2853633,"lon":2.8688343,"type":"village"},{"id":"469142275","name":"Tombo Djibo Baba","lat":13.3257907,"lon":2.8770847,"type":"village"},{"id":"469142277","name":"Foulanzam","lat":13.3275622,"lon":2.8808992,"type":"village"},{"id":"469142284","name":"Oudé el Hadji","lat":13.3261,"lon":2.9284074,"type":"village"},{"id":"469142286","name":"Bangoubi","lat":13.327506,"lon":2.9318751,"type":"village"},{"id":"469230105","name":"Tamazlaqu","lat":17.7094069,"lon":8.102364,"type":"village"},{"id":"469232910","name":"Akrérèb","lat":17.5987542,"lon":8.9399839,"type":"village"},{"id":"469233262","name":"Âguelal","lat":18.7165295,"lon":7.2776203,"type":"village"},{"id":"469233912","name":"Gougaram","lat":18.454624,"lon":7.802786,"type":"village"},{"id":"469234938","name":"Tîmia","lat":18.114317,"lon":8.7791706,"type":"village"},{"id":"469235313","name":"Teguiddan Tessoum","lat":17.4289829,"lon":6.646278,"type":"village"},{"id":"469236438","name":"Télemsès","lat":15.6229353,"lon":4.7799149,"type":"village"},{"id":"469241115","name":"Kokorou","lat":14.2063212,"lon":0.9295561,"type":"village"},{"id":"469245088","name":"Bossey Bangou","lat":13.3460591,"lon":1.2917839,"type":"village"},{"id":"469246464","name":"Kirtachi Zéno","lat":12.8350582,"lon":2.4392941,"type":"village"},{"id":"469268321","name":"Birnin Guiéza","lat":13.4391668,"lon":8.0336475,"type":"village"},{"id":"469268816","name":"Tiloa","lat":13.3457409,"lon":2.2194991,"type":"village"},{"id":"469269748","name":"Taroum","lat":14.6744184,"lon":2.2729498,"type":"village"},{"id":"469272116","name":"Baïzo","lat":13.8713053,"lon":4.7539028,"type":"village"},{"id":"469278900","name":"Kohinza","lat":13.1790827,"lon":2.9148772,"type":"village"},{"id":"469278904","name":"Dabaga","lat":13.1789963,"lon":2.9355596,"type":"village"},{"id":"469278906","name":"Kalla Pathé","lat":13.2039319,"lon":2.9396393,"type":"village"},{"id":"469296397","name":"Gabou Goura","lat":13.5527162,"lon":2.022133,"type":"village"},{"id":"469296403","name":"Tondibia Peul","lat":13.6048893,"lon":2.0281956,"type":"village"},{"id":"469310662","name":"Bossey Bangou","lat":13.6014096,"lon":2.1339559,"type":"village"},{"id":"469349513","name":"Sakabale","lat":14.7043467,"lon":6.9904987,"type":"village"},{"id":"469349660","name":"Badér","lat":14.6650541,"lon":6.9715945,"type":"village"},{"id":"469351150","name":"Kotaré","lat":13.8918809,"lon":7.6399233,"type":"village"},{"id":"469355285","name":"Bakin Birji I","lat":14.2898985,"lon":8.8203317,"type":"village"},{"id":"469368849","name":"Dan Tchiao","lat":12.8787867,"lon":9.0923238,"type":"village"},{"id":"469375730","name":"Koufèy","lat":14.522896,"lon":2.4420121,"type":"village"},{"id":"469382039","name":"Chétimari","lat":13.185496,"lon":12.4204073,"type":"village"},{"id":"469390883","name":"Bonkoukou","lat":14.0113386,"lon":3.2122569,"type":"village"},{"id":"469397106","name":"Boukanda","lat":13.9136491,"lon":2.0484338,"type":"village"},{"id":"469405558","name":"La Tapoa","lat":12.474927,"lon":2.4247709,"type":"village"},{"id":"469411329","name":"Manseyka","lat":13.8206679,"lon":4.6510464,"type":"village"},{"id":"469686109","name":"Konjanjam","lat":14.0379524,"lon":8.8095687,"type":"village"},{"id":"469686112","name":"Bilma Garin Dawa","lat":13.888398,"lon":8.7257102,"type":"village"},{"id":"469694461","name":"Halbawa","lat":14.1392607,"lon":8.4920684,"type":"village"},{"id":"469694462","name":"Dan Sara","lat":14.1790602,"lon":8.4871896,"type":"village"},{"id":"469694463","name":"Sansana Wada","lat":14.0910175,"lon":8.2451722,"type":"village"},{"id":"469694464","name":"Ourofon","lat":14.0728947,"lon":8.131122,"type":"village"},{"id":"469694465","name":"Mijinyawa","lat":14.1371087,"lon":8.237404,"type":"village"},{"id":"469694466","name":"Gagaré","lat":14.1815318,"lon":8.2561822,"type":"village"},{"id":"469694467","name":"Guidan Atchyé","lat":14.0340041,"lon":8.2905544,"type":"village"},{"id":"469694468","name":"Guidan Ilyas","lat":14.0243989,"lon":8.32084,"type":"village"},{"id":"469694469","name":"Kéléwéy","lat":14.0750461,"lon":8.1950531,"type":"village"},{"id":"469703555","name":"Goroubley","lat":13.9881755,"lon":8.184549,"type":"village"},{"id":"469703556","name":"May Guizawa","lat":13.9863612,"lon":8.1462228,"type":"village"},{"id":"469703557","name":"Dakora","lat":14.0013384,"lon":8.2887719,"type":"village"},{"id":"469703558","name":"Sala","lat":13.9609107,"lon":8.3340096,"type":"village"},{"id":"469703559","name":"Zaroumey","lat":13.9198375,"lon":8.028209,"type":"village"},{"id":"469703560","name":"May Kogo","lat":13.7869697,"lon":8.315585,"type":"village"},{"id":"469703561","name":"Daratou","lat":13.9558309,"lon":7.9450265,"type":"village"},{"id":"469706761","name":"Kantché","lat":13.4522492,"lon":8.2528772,"type":"village"},{"id":"469706762","name":"Koona","lat":13.5450206,"lon":8.0582828,"type":"village"},{"id":"469725891","name":"Zermou","lat":13.8695769,"lon":9.3182075,"type":"village"},{"id":"469725894","name":"Maya","lat":14.0277489,"lon":9.6553229,"type":"village"},{"id":"469725896","name":"Ganatcha","lat":14.307088,"lon":9.724338,"type":"village"},{"id":"469738579","name":"Guélam","lat":14.3976733,"lon":9.5706922,"type":"village"},{"id":"469738581","name":"Chiroua","lat":14.7419748,"lon":8.9156667,"type":"village"},{"id":"469738582","name":"Guinia","lat":14.9626354,"lon":8.6545985,"type":"village"},{"id":"469738583","name":"Birgui Mari","lat":14.9020726,"lon":8.7870888,"type":"village"},{"id":"469738584","name":"Ringuidi","lat":14.8187864,"lon":8.6632454,"type":"village"},{"id":"469738585","name":"Tégouma","lat":14.8059284,"lon":8.5020734,"type":"village"},{"id":"469738586","name":"Akourki","lat":14.7425167,"lon":8.4619622,"type":"village"},{"id":"469738587","name":"Gagawa","lat":14.726546,"lon":8.6268763,"type":"village"},{"id":"469738590","name":"Kitchi Yaskou","lat":14.9968608,"lon":8.3485015,"type":"village"},{"id":"469738591","name":"Takoukout","lat":15.1167612,"lon":8.4999525,"type":"village"},{"id":"469749907","name":"Maydachi","lat":14.5434541,"lon":8.3528978,"type":"village"},{"id":"469749910","name":"Falénko","lat":14.260823,"lon":8.5330637,"type":"village"},{"id":"469753029","name":"Tchi-kaji","lat":13.4041952,"lon":7.1244303,"type":"village"},{"id":"469753030","name":"Garin Goulbi","lat":13.3709451,"lon":6.9249651,"type":"village"},{"id":"469754456","name":"Tiélawa","lat":13.1695454,"lon":6.8490307,"type":"village"},{"id":"469754458","name":"Houdel Magâjî","lat":13.4294033,"lon":7.2394115,"type":"village"},{"id":"469756067","name":"Souloulou","lat":13.6132968,"lon":6.4159565,"type":"village"},{"id":"469756068","name":"Kourouma-Batiaka","lat":13.6731178,"lon":6.2945271,"type":"village"},{"id":"469756069","name":"Kouka Tulé","lat":13.7905961,"lon":6.6371458,"type":"village"},{"id":"469797255","name":"Kataré","lat":13.8867447,"lon":6.4630736,"type":"village"},{"id":"469797257","name":"Madaoua","lat":14.1000529,"lon":6.4331713,"type":"village"},{"id":"469797258","name":"Takorka","lat":13.923897,"lon":6.1799427,"type":"village"},{"id":"469797259","name":"Malélébi","lat":13.8225855,"lon":6.0483868,"type":"village"},{"id":"469797261","name":"Ourno","lat":14.2990457,"lon":6.4505505,"type":"village"},{"id":"469797262","name":"Karofan","lat":14.3138187,"lon":6.1525152,"type":"village"},{"id":"469797263","name":"Léyma","lat":14.2320998,"lon":6.0853894,"type":"village"},{"id":"469797264","name":"Guidan Matchouda","lat":14.3789901,"lon":6.301729,"type":"village"},{"id":"469797265","name":"Birni Lallé","lat":14.4295853,"lon":6.7629062,"type":"village"},{"id":"469797266","name":"Ajékoria","lat":14.3398055,"lon":6.7888977,"type":"village"},{"id":"469797268","name":"Guidan Lolo","lat":14.362845,"lon":6.9788047,"type":"village"},{"id":"469797269","name":"Maylawa","lat":14.4320751,"lon":7.0605099,"type":"village"},{"id":"469797270","name":"Korohan","lat":14.5638253,"lon":6.5684211,"type":"village"},{"id":"469797271","name":"Loubé","lat":14.6141409,"lon":6.0371586,"type":"village"},{"id":"469797272","name":"Tabokaki","lat":14.6176019,"lon":6.1556412,"type":"village"},{"id":"469797273","name":"Chadawanka","lat":15.0341894,"lon":6.1234252,"type":"village"},{"id":"469813469","name":"Garoumélé","lat":14.119882,"lon":12.9658377,"type":"village"},{"id":"469843663","name":"Ouwaou","lat":13.544307,"lon":13.0161307,"type":"village"},{"id":"469843665","name":"Gueskérou","lat":13.4796,"lon":12.8429613,"type":"village"},{"id":"469843666","name":"Boudoum","lat":13.164116,"lon":12.2554447,"type":"village"},{"id":"469843670","name":"Foulatari","lat":13.55124,"lon":12.056672,"type":"village"},{"id":"469843672","name":"Bardéri","lat":13.6520964,"lon":12.1865309,"type":"village"},{"id":"469843673","name":"Chéri","lat":13.4244788,"lon":11.3849859,"type":"village"},{"id":"469843675","name":"Dabalya","lat":13.4072681,"lon":10.9347974,"type":"village"},{"id":"470010851","name":"Kossey","lat":13.5138991,"lon":2.0387245,"type":"village"},{"id":"470010852","name":"Ganguel","lat":13.5064476,"lon":2.0418777,"type":"village"},{"id":"470010858","name":"Karey Gorou","lat":13.5368879,"lon":2.0063241,"type":"village"},{"id":"470010859","name":"Kossèye","lat":13.54119,"lon":2.0262848,"type":"village"},{"id":"470010860","name":"Tondibiah","lat":13.5637813,"lon":2.0129876,"type":"village"},{"id":"470110855","name":"Bangoula","lat":13.6052058,"lon":1.994309,"type":"village"},{"id":"471185098","name":"Soumatte","lat":14.9480774,"lon":2.7179633,"type":"village"},{"id":"471848523","name":"Alawa","lat":13.675036,"lon":7.5428158,"type":"village"},{"id":"471848526","name":"Alkou","lat":13.6835949,"lon":7.582895,"type":"village"},{"id":"471848529","name":"Katari","lat":13.6887281,"lon":7.5564787,"type":"village"},{"id":"471848533","name":"Wakasso","lat":13.6962973,"lon":7.5044153,"type":"village"},{"id":"471848546","name":"Dan Aïcha","lat":13.6743419,"lon":7.4920235,"type":"village"},{"id":"471848548","name":"Hankaka","lat":13.6877987,"lon":7.4803605,"type":"village"},{"id":"471848550","name":"Dangaladima","lat":13.6882944,"lon":7.4898367,"type":"village"},{"id":"471848552","name":"Kaking","lat":13.6397756,"lon":7.4654903,"type":"village"},{"id":"471848554","name":"Guidandanmalam","lat":13.635242,"lon":7.487577,"type":"village"},{"id":"471848579","name":"Tonkourma","lat":13.612254,"lon":7.4743725,"type":"village"},{"id":"471854232","name":"Kolbou zameydo","lat":13.3536995,"lon":2.9474926,"type":"village"},{"id":"471950719","name":"Malam Tchiloum","lat":14.5976937,"lon":8.5291243,"type":"village"},{"id":"472311429","name":"Krip-Krip","lat":18.063379,"lon":8.6630231,"type":"village"},{"id":"472311430","name":"Afasto","lat":18.5579114,"lon":7.2892622,"type":"village"},{"id":"472311432","name":"Aguellal","lat":18.7086747,"lon":8.1553,"type":"village"},{"id":"472311434","name":"Oubandawaki Makiani","lat":18.95,"lon":7.1,"type":"village"},{"id":"472311438","name":"ⵉⵏ ⴰⵣⴰⵡⴰ","lat":20.819444,"lon":7.460833,"type":"village"},{"id":"472313872","name":"Sara","lat":20.7666667,"lon":12.4666667,"type":"village"},{"id":"472313874","name":"Drigana","lat":20.8,"lon":12.4333333,"type":"village"},{"id":"472313877","name":"Djaba","lat":21.0666667,"lon":12.2833333,"type":"village"},{"id":"472314291","name":"Saguia","lat":13.4642262,"lon":2.1044773,"type":"village"},{"id":"472319409","name":"Koubia","lat":13.5503407,"lon":2.0532662,"type":"village"},{"id":"472321452","name":"Zouragèn","lat":14.3921,"lon":3.0203,"type":"village"},{"id":"472321453","name":"Koukagana","lat":14.5803295,"lon":3.0412749,"type":"village"},{"id":"472322084","name":"Danyan","lat":14.3850443,"lon":3.0508799,"type":"village"},{"id":"472322778","name":"Tarhmert","lat":18.7659969,"lon":8.8390097,"type":"village"},{"id":"472344843","name":"Tounga Takoubou","lat":11.7166667,"lon":3.6333333,"type":"village"},{"id":"472344844","name":"Dolé","lat":11.7124512,"lon":3.629338,"type":"village"},{"id":"472375158","name":"Souraka","lat":13.4738033,"lon":4.1378823,"type":"village"},{"id":"472375160","name":"Makyéra","lat":13.4268425,"lon":4.128677,"type":"village"},{"id":"472378488","name":"Nonbokoli","lat":12.7396225,"lon":1.9944176,"type":"village"},{"id":"472379931","name":"Nakigaza","lat":13.6166667,"lon":4.3666667,"type":"village"},{"id":"472379932","name":"Kolfa","lat":13.6127683,"lon":4.3561304,"type":"village"},{"id":"472379934","name":"Dan Ganabay","lat":13.55,"lon":4.3,"type":"village"},{"id":"472443894","name":"Kriram","lat":14.4171923,"lon":13.4658417,"type":"village"},{"id":"472447579","name":"Kobio","lat":12.6953492,"lon":3.8463307,"type":"village"},{"id":"472447967","name":"Kita Kité","lat":13.1833333,"lon":4.1333333,"type":"village"},{"id":"472449276","name":"Guidan Samni","lat":13.7072067,"lon":6.0013749,"type":"village"},{"id":"472450608","name":"Guidan Kara","lat":13.7562724,"lon":5.8558853,"type":"village"},{"id":"472450610","name":"Biguel Kankoura","lat":13.8199532,"lon":5.7002256,"type":"village"},{"id":"472453621","name":"Guidan Barao","lat":13.8877645,"lon":5.5141294,"type":"village"},{"id":"472454371","name":"Gounki Arjika","lat":12.2511128,"lon":3.6556014,"type":"village"},{"id":"472455389","name":"Goulay","lat":13.5984806,"lon":13.2488249,"type":"village"},{"id":"472456179","name":"Doli","lat":12.4333333,"lon":3.6394643,"type":"village"},{"id":"472456180","name":"Balifolo","lat":12.5167295,"lon":3.6515342,"type":"village"},{"id":"472456414","name":"Djima Djimi","lat":13.7499422,"lon":4.7173297,"type":"village"},{"id":"472461259","name":"A. Dachi","lat":12.8370756,"lon":8.9846819,"type":"village"},{"id":"472462590","name":"Marara","lat":13.2931394,"lon":12.6467812,"type":"village"},{"id":"472462591","name":"Boukar-Boutouri","lat":13.2310929,"lon":12.5602814,"type":"village"},{"id":"472483563","name":"Kouanza","lat":11.9780044,"lon":3.2738568,"type":"village"},{"id":"472486709","name":"Guidan May Douma","lat":13.7339797,"lon":5.9216943,"type":"village"},{"id":"472949977","name":"Garazou","lat":14.6373946,"lon":9.5044268,"type":"village"},{"id":"472951617","name":"Kao Kakil","lat":15.5,"lon":10.05,"type":"village"},{"id":"472954466","name":"Mama Kassa","lat":15.25,"lon":12.3,"type":"village"},{"id":"472956836","name":"Tara","lat":11.8989502,"lon":3.3341916,"type":"village"},{"id":"472978166","name":"Zanloa Tounga","lat":11.733466,"lon":3.6037959,"type":"village"},{"id":"472978167","name":"Tounouga","lat":11.800933,"lon":3.623732,"type":"village"},{"id":"472978168","name":"Tounga Ziméraou","lat":11.7828736,"lon":3.582805,"type":"village"},{"id":"472978169","name":"Tounga Zaouri","lat":11.7836206,"lon":3.5829224,"type":"village"},{"id":"472978170","name":"Tounga Zakari","lat":11.7449762,"lon":3.5636867,"type":"village"},{"id":"472978172","name":"Tounga Wondarou","lat":11.7430252,"lon":3.6484336,"type":"village"},{"id":"472978173","name":"Tounga Korfoa","lat":11.7833333,"lon":3.5836855,"type":"village"},{"id":"472978174","name":"Tounga Koma","lat":11.749874,"lon":3.6218165,"type":"village"},{"id":"472978175","name":"Tounga Diargou","lat":11.8,"lon":3.65,"type":"village"},{"id":"472978177","name":"Tahirou Tounga","lat":11.8666667,"lon":3.6,"type":"village"},{"id":"472978180","name":"Ourakossé","lat":11.8831897,"lon":3.5997799,"type":"village"},{"id":"472978183","name":"Ladankpira","lat":11.7537814,"lon":3.6363374,"type":"village"},{"id":"472978184","name":"Madougou Babakpara","lat":11.7675223,"lon":3.5979826,"type":"village"},{"id":"472978186","name":"Gwarou Kwara","lat":11.7665936,"lon":3.5987511,"type":"village"},{"id":"472978187","name":"Kanda Koira Tégui","lat":11.8185081,"lon":3.564044,"type":"village"},{"id":"472978189","name":"Guindogoloma","lat":11.7333333,"lon":3.6166667,"type":"village"},{"id":"472978190","name":"Gatawani Keyna","lat":11.8,"lon":3.5666667,"type":"village"},{"id":"472978193","name":"Gatawani Béri","lat":11.7833333,"lon":3.5666667,"type":"village"},{"id":"472978194","name":"Gaguéré","lat":11.8833333,"lon":3.6002201,"type":"village"},{"id":"472978197","name":"Bouné-Bouné","lat":11.8143098,"lon":3.5561611,"type":"village"},{"id":"472978199","name":"Babou el Aya","lat":11.858379,"lon":3.6162916,"type":"village"},{"id":"472978200","name":"Bani Zoumbou","lat":11.7659718,"lon":3.599082,"type":"village"},{"id":"472982952","name":"Tassobon","lat":12.0836461,"lon":3.2615775,"type":"village"},{"id":"472982955","name":"Moyazé","lat":12.1169604,"lon":3.2521619,"type":"village"},{"id":"472982957","name":"Marmarou","lat":12.1333333,"lon":3.2666667,"type":"village"},{"id":"472982958","name":"Balégoudjo","lat":12.1152925,"lon":3.2273466,"type":"village"},{"id":"472984904","name":"Kourégou","lat":14.2595439,"lon":0.9603204,"type":"village"},{"id":"472985872","name":"Namga","lat":14.1801408,"lon":1.0331268,"type":"village"},{"id":"472987049","name":"Tessa Goungou","lat":14.2703,"lon":1.3033,"type":"village"},{"id":"472987052","name":"Soudani","lat":14.2839373,"lon":1.2965255,"type":"village"},{"id":"472987053","name":"Sindèrmé","lat":14.2353171,"lon":1.3404666,"type":"village"},{"id":"472987055","name":"Sindèr","lat":14.2446,"lon":1.3234,"type":"village"},{"id":"472987057","name":"Sawani","lat":14.255021,"lon":1.3345164,"type":"village"},{"id":"472987065","name":"Inalakam II","lat":14.1409848,"lon":1.2585794,"type":"village"},{"id":"472987068","name":"Dionté Koirébio","lat":14.2436358,"lon":1.3293127,"type":"village"},{"id":"472987071","name":"Dangala","lat":14.3152476,"lon":1.3008013,"type":"village"},{"id":"472988066","name":"Finari Tondey Goura","lat":14.2457191,"lon":1.4013625,"type":"village"},{"id":"472988068","name":"Tillakaïna Koira Zéno","lat":14.227299,"lon":1.4503622,"type":"village"},{"id":"472988077","name":"Nawani","lat":14.2316,"lon":1.4423,"type":"village"},{"id":"472988079","name":"Matoum","lat":14.1024959,"lon":1.5146109,"type":"village"},{"id":"472988080","name":"Mari","lat":14.2433536,"lon":1.531603,"type":"village"},{"id":"472988090","name":"Foulé","lat":14.1575121,"lon":1.4805235,"type":"village"},{"id":"472988101","name":"Didia","lat":14.1245312,"lon":1.5209893,"type":"village"},{"id":"472988102","name":"Bossa","lat":14.2432915,"lon":1.4114635,"type":"village"},{"id":"472988103","name":"Daïbéri","lat":14.1596202,"lon":1.5050446,"type":"village"},{"id":"472988108","name":"Néini","lat":14.210855,"lon":1.4242676,"type":"village"},{"id":"472988112","name":"Gourèl","lat":14.2213,"lon":1.4057,"type":"village"},{"id":"472988114","name":"Kabé Kalèlè","lat":14.1448,"lon":1.412,"type":"village"},{"id":"472988419","name":"Boudèda","lat":14.1709042,"lon":1.8267208,"type":"village"},{"id":"472988420","name":"Assou Bangou","lat":14.3229,"lon":1.7389,"type":"village"},{"id":"472988860","name":"Saptaka","lat":14.1955075,"lon":1.9650481,"type":"village"},{"id":"472988864","name":"Féfandou","lat":14.3344,"lon":1.9192,"type":"village"},{"id":"472988867","name":"Bougar","lat":14.2972073,"lon":1.9126118,"type":"village"},{"id":"472988869","name":"Bangoutawa","lat":14.1268645,"lon":1.8447621,"type":"village"},{"id":"472988870","name":"Assou","lat":14.2171661,"lon":1.9628719,"type":"village"},{"id":"472988872","name":"Arigana","lat":14.320188,"lon":1.88111,"type":"village"},{"id":"472988876","name":"Kabanda","lat":14.12507,"lon":2.00287,"type":"village"},{"id":"472988877","name":"Niandou Koara","lat":14.1364165,"lon":2.0237115,"type":"village"},{"id":"472988878","name":"Gamédi Bangou","lat":14.1300165,"lon":2.0718785,"type":"village"},{"id":"472988879","name":"Koli Tiloa","lat":14.1665,"lon":2.0684,"type":"village"},{"id":"472988880","name":"Bangou Foubi","lat":14.1643,"lon":2.0048,"type":"village"},{"id":"472988882","name":"Bondolo","lat":14.1807,"lon":2.047,"type":"village"},{"id":"472988889","name":"Fondou Kaina","lat":14.1523,"lon":1.9211,"type":"village"},{"id":"472988891","name":"Tonndi Banda","lat":14.1692,"lon":1.8806,"type":"village"},{"id":"472989754","name":"Talkadabey","lat":14.312388,"lon":2.2997595,"type":"village"},{"id":"472989761","name":"Sadèyzé Koara","lat":14.117837,"lon":2.1876367,"type":"village"},{"id":"472989762","name":"Kanda","lat":14.1302,"lon":2.2247599,"type":"village"},{"id":"472989769","name":"Diginasa","lat":14.3288,"lon":2.2173,"type":"village"},{"id":"472989770","name":"Boli","lat":14.2068,"lon":2.2598,"type":"village"},{"id":"472989772","name":"Anam Tondi","lat":14.2859619,"lon":2.2217109,"type":"village"},{"id":"472989775","name":"Alogorou","lat":14.1133315,"lon":2.310425,"type":"village"},{"id":"472989777","name":"Sortal","lat":14.140455,"lon":2.2829198,"type":"village"},{"id":"472989779","name":"Tombo","lat":14.1609,"lon":2.2252,"type":"village"},{"id":"472989780","name":"Bani","lat":14.1455614,"lon":2.1011589,"type":"village"},{"id":"472989787","name":"Tolkoboy Malo Koara","lat":14.2236995,"lon":2.1431415,"type":"village"},{"id":"472989790","name":"Ninéfouno","lat":14.2887,"lon":2.1458,"type":"village"},{"id":"472989791","name":"Diolé Ganda","lat":14.2994011,"lon":2.173732,"type":"village"},{"id":"472990467","name":"THCigo","lat":14.2953565,"lon":2.5258051,"type":"village"},{"id":"472990470","name":"Lahaba","lat":14.3082,"lon":2.3714,"type":"village"},{"id":"472990472","name":"Kasakorou","lat":14.2384,"lon":2.4802,"type":"village"},{"id":"472990486","name":"Gado Koara","lat":14.0984876,"lon":2.4579529,"type":"village"},{"id":"472990489","name":"Korou","lat":14.1031,"lon":2.4525,"type":"village"},{"id":"472990496","name":"Gadanba","lat":14.17,"lon":2.4167,"type":"village"},{"id":"472990499","name":"Sansiliga","lat":14.224,"lon":2.4185,"type":"village"},{"id":"472990501","name":"Bokèy","lat":14.2578,"lon":2.3886,"type":"village"},{"id":"472990512","name":"Koara Gabo","lat":14.3054,"lon":2.3398,"type":"village"},{"id":"472994575","name":"Namari Bangou","lat":14.2787,"lon":2.8058,"type":"village"},{"id":"472994579","name":"Diab Kaina","lat":14.1307977,"lon":2.6370423,"type":"village"},{"id":"472994580","name":"Diab Béri","lat":14.1459,"lon":2.657,"type":"village"},{"id":"472994586","name":"Bala Koara","lat":14.234251,"lon":2.8037591,"type":"village"},{"id":"472994588","name":"Golo Bangou","lat":14.1543,"lon":2.8046,"type":"village"},{"id":"472994590","name":"Kourian Saba","lat":14.1670385,"lon":2.5743819,"type":"village"},{"id":"473048790","name":"Solèy Tonka","lat":14.1385825,"lon":2.8559202,"type":"village"},{"id":"473048791","name":"Solèy Gano Tondi","lat":14.165167,"lon":2.8861605,"type":"village"},{"id":"473048796","name":"Koronbal","lat":14.1696,"lon":2.9843,"type":"village"},{"id":"473048804","name":"Danyan Goma","lat":14.2861,"lon":3.0259,"type":"village"},{"id":"473048817","name":"Tondi Banda","lat":14.1165,"lon":2.8667,"type":"village"},{"id":"473049712","name":"Wagani","lat":14.0972,"lon":3.0885,"type":"village"},{"id":"473049713","name":"Toulou Ndamésa","lat":14.3042,"lon":3.0839,"type":"village"},{"id":"473049714","name":"Toudou","lat":14.2291,"lon":3.2796,"type":"village"},{"id":"473049716","name":"Tigoji","lat":14.3222,"lon":3.1989,"type":"village"},{"id":"473049718","name":"Takatsaba","lat":14.1689,"lon":3.1521,"type":"village"},{"id":"473049719","name":"Sanéhen","lat":14.1448316,"lon":3.1579444,"type":"village"},{"id":"473049723","name":"Koro Toulou","lat":14.1391,"lon":3.1437,"type":"village"},{"id":"473049727","name":"Kanya","lat":14.1005,"lon":3.2174,"type":"village"},{"id":"473049733","name":"Farin Toulou","lat":14.1531,"lon":3.1663,"type":"village"},{"id":"473049738","name":"Akoriné","lat":14.2508,"lon":3.1603,"type":"village"},{"id":"473049740","name":"Kanégarbé","lat":14.1986548,"lon":3.1548755,"type":"village"},{"id":"473051075","name":"Zouzouga","lat":14.1837,"lon":3.2923,"type":"village"},{"id":"473051083","name":"Toudouni","lat":14.1714,"lon":3.336,"type":"village"},{"id":"473051085","name":"Taramna","lat":14.2714,"lon":3.3668,"type":"village"},{"id":"473051087","name":"Takawat 2","lat":14.2999468,"lon":3.3628654,"type":"village"},{"id":"473051091","name":"Tahoulèn","lat":14.2956349,"lon":3.4401831,"type":"village"},{"id":"473051095","name":"Soloa","lat":14.2339,"lon":3.4582,"type":"village"},{"id":"473051098","name":"Serké Ariwa","lat":14.191277,"lon":3.3622268,"type":"village"},{"id":"473051102","name":"Saraé","lat":14.1395,"lon":3.4175,"type":"village"},{"id":"473051112","name":"Monzo","lat":14.1019632,"lon":3.2928007,"type":"village"},{"id":"473051113","name":"Maray","lat":14.2765,"lon":3.3567,"type":"village"},{"id":"473051114","name":"Maykogo","lat":14.1298,"lon":3.3259,"type":"village"},{"id":"473051115","name":"Malamé","lat":14.1951875,"lon":3.3459734,"type":"village"},{"id":"473051117","name":"Magaria","lat":14.2658,"lon":3.3935,"type":"village"},{"id":"473051118","name":"Makani","lat":14.2361,"lon":3.2889,"type":"village"},{"id":"473051121","name":"Kouka","lat":14.1113631,"lon":3.4212341,"type":"village"},{"id":"473051123","name":"Kounou","lat":14.1561927,"lon":3.334128,"type":"village"},{"id":"473051124","name":"Kayé Wahé","lat":14.1289,"lon":3.4542,"type":"village"},{"id":"473051125","name":"Kidèl","lat":14.1095436,"lon":3.3419,"type":"village"},{"id":"473051126","name":"Kabékakongou","lat":14.3095,"lon":3.2907,"type":"village"},{"id":"473051131","name":"Goula","lat":14.1522194,"lon":3.3151682,"type":"village"},{"id":"473051132","name":"Gouloumbouji","lat":14.166,"lon":3.3097,"type":"village"},{"id":"473051133","name":"Gari Mbwé","lat":14.2266,"lon":3.3821,"type":"village"},{"id":"473051134","name":"Gari Mayaki","lat":14.2369839,"lon":3.3946426,"type":"village"},{"id":"473051138","name":"Gari Irkwénon","lat":14.2312974,"lon":3.3651024,"type":"village"},{"id":"473051140","name":"Gari Malan","lat":14.2586,"lon":3.3256,"type":"village"},{"id":"473051144","name":"Gari El Hadji Hadèm","lat":14.1447,"lon":3.3255,"type":"village"},{"id":"473051146","name":"Gari Ataèr","lat":14.1429,"lon":3.3191,"type":"village"},{"id":"473051148","name":"Gari Gaziri","lat":14.2733,"lon":3.4211,"type":"village"},{"id":"473051150","name":"Gari Ganndou","lat":14.2258,"lon":3.3993,"type":"village"},{"id":"473051157","name":"Gari Agi","lat":14.2469497,"lon":3.3995766,"type":"village"},{"id":"473051159","name":"Gardi","lat":14.2459,"lon":3.2927,"type":"village"},{"id":"473051161","name":"Dogon Gao Zodi","lat":14.1823776,"lon":3.3396188,"type":"village"},{"id":"473051163","name":"Doumaloha","lat":14.2391779,"lon":3.4158777,"type":"village"},{"id":"473051165","name":"Fouda Giéza","lat":14.1917207,"lon":3.4091241,"type":"village"},{"id":"473051170","name":"Danyaé","lat":14.1085,"lon":3.3671,"type":"village"},{"id":"473051171","name":"Djamoun","lat":14.1759,"lon":3.3725,"type":"village"},{"id":"473051175","name":"Chikal Dourgouna","lat":14.2469,"lon":3.4511,"type":"village"},{"id":"473051178","name":"Chikal Lokoko","lat":14.2527,"lon":3.4673,"type":"village"},{"id":"473051179","name":"Bandizan","lat":14.2138,"lon":3.3236,"type":"village"},{"id":"473051181","name":"Bilal Doutchi","lat":14.205418,"lon":3.4371341,"type":"village"},{"id":"473051184","name":"Adohi","lat":14.1710582,"lon":3.4275024,"type":"village"},{"id":"473051185","name":"Gazaou 3","lat":14.3205805,"lon":3.413127,"type":"village"},{"id":"473051186","name":"Daga","lat":14.2576352,"lon":3.370773,"type":"village"},{"id":"473051187","name":"Bagarwa","lat":14.1593,"lon":3.3041,"type":"village"},{"id":"473051189","name":"Amouzata","lat":14.1135,"lon":3.3126,"type":"village"},{"id":"473051191","name":"Agadèy","lat":14.140893,"lon":3.3608094,"type":"village"},{"id":"473051193","name":"Adoua","lat":14.1693,"lon":3.3215,"type":"village"},{"id":"473052207","name":"Tabkin Kouka","lat":14.1526,"lon":3.5274,"type":"village"},{"id":"473052209","name":"Injer","lat":14.1859693,"lon":3.6023803,"type":"village"},{"id":"473052211","name":"Gworozengé","lat":14.1833,"lon":3.5439,"type":"village"},{"id":"473052212","name":"Barwa","lat":14.3097998,"lon":3.5876482,"type":"village"},{"id":"473053405","name":"Soucoucoutane (Soukoukoutan)","lat":14.1893,"lon":3.8865,"type":"village"},{"id":"473053412","name":"Natchira","lat":14.2810222,"lon":3.8403543,"type":"village"},{"id":"473053413","name":"Marina","lat":14.1239284,"lon":3.8072407,"type":"village"},{"id":"473053415","name":"Kwalen Dawa","lat":14.1650793,"lon":3.8193171,"type":"village"},{"id":"473053416","name":"Kourouroubé","lat":14.2381679,"lon":3.9599781,"type":"village"},{"id":"473053423","name":"Kotayé","lat":14.295703,"lon":3.9315462,"type":"village"},{"id":"473053425","name":"Gezényan","lat":14.2122062,"lon":3.9538736,"type":"village"},{"id":"473053431","name":"Gari Goungom","lat":14.1321431,"lon":3.921082,"type":"village"},{"id":"473053434","name":"Gadirga Guida","lat":14.2366743,"lon":3.9536669,"type":"village"},{"id":"473053438","name":"Adoua Kessa","lat":14.2040621,"lon":3.8514404,"type":"village"},{"id":"473053440","name":"Baraya Saidou","lat":14.1250471,"lon":3.9628262,"type":"village"},{"id":"473053442","name":"Akoukou","lat":14.2930593,"lon":3.8348087,"type":"village"},{"id":"473053444","name":"Goudey Amadou","lat":14.3344778,"lon":3.86886,"type":"village"},{"id":"473053446","name":"Sabara","lat":14.1835783,"lon":3.8493854,"type":"village"},{"id":"473053448","name":"Toumboulé","lat":14.210692,"lon":3.8433125,"type":"village"},{"id":"473053452","name":"Yemeye","lat":14.2386564,"lon":3.9869419,"type":"village"},{"id":"473053457","name":"Mai Guébé","lat":14.2499372,"lon":3.8489263,"type":"village"},{"id":"473055453","name":"Yalimé Ahamett","lat":14.3194764,"lon":4.2291872,"type":"village"},{"id":"473055455","name":"Tawassayé","lat":14.2968532,"lon":4.2427609,"type":"village"},{"id":"473055457","name":"Mandatchi","lat":14.2207952,"lon":4.2355703,"type":"village"},{"id":"473055460","name":"Taramna","lat":14.2436013,"lon":4.2357757,"type":"village"},{"id":"473055462","name":"Yiloa","lat":14.1442388,"lon":4.1980196,"type":"village"},{"id":"473055464","name":"Barakata","lat":14.2499511,"lon":4.1536912,"type":"village"},{"id":"473055466","name":"Tsaouna","lat":14.241014,"lon":4.1242477,"type":"village"},{"id":"473055467","name":"Kassoura","lat":14.297611,"lon":4.1007725,"type":"village"},{"id":"473055468","name":"Sounkourou","lat":14.291814,"lon":4.0342967,"type":"village"},{"id":"473055469","name":"Awadata","lat":14.2486623,"lon":4.026293,"type":"village"},{"id":"473055471","name":"Bouzouzou","lat":14.0928584,"lon":4.0079517,"type":"village"},{"id":"473060464","name":"Gigouna","lat":14.3333333,"lon":4.6166667,"type":"village"},{"id":"473060465","name":"Dinkim","lat":14.2255116,"lon":4.5851598,"type":"village"},{"id":"473060467","name":"Ambagoura","lat":14.296323,"lon":4.6476675,"type":"village"},{"id":"473060468","name":"Adoua","lat":14.170822,"lon":4.5890884,"type":"village"},{"id":"473060469","name":"Dan Doutchi","lat":14.2278003,"lon":4.6323667,"type":"village"},{"id":"473060470","name":"Kyara","lat":14.2004485,"lon":4.514079,"type":"village"},{"id":"473060472","name":"Sansami","lat":14.1959875,"lon":4.4923895,"type":"village"},{"id":"473060473","name":"Dénia","lat":14.2221915,"lon":4.4915135,"type":"village"},{"id":"473060475","name":"Antacha","lat":14.2262595,"lon":4.52402,"type":"village"},{"id":"473060478","name":"Tawey","lat":14.2286182,"lon":4.6921248,"type":"village"},{"id":"473060480","name":"Jiga","lat":14.2883871,"lon":4.6219634,"type":"village"},{"id":"473060486","name":"Gésanya","lat":14.2126644,"lon":4.6638115,"type":"village"},{"id":"473060497","name":"Kenkélétchi","lat":14.0997095,"lon":4.6343465,"type":"village"},{"id":"473060499","name":"Moutéla","lat":14.1383855,"lon":4.53161,"type":"village"},{"id":"473060503","name":"Kwènkéli","lat":14.1534645,"lon":4.513311,"type":"village"},{"id":"473060506","name":"Kasari","lat":14.1014505,"lon":4.4863631,"type":"village"},{"id":"473060508","name":"Dangana","lat":14.1300922,"lon":4.5072361,"type":"village"},{"id":"473060511","name":"Séhia","lat":14.2525085,"lon":4.731545,"type":"village"},{"id":"473060514","name":"Mazzia","lat":14.3,"lon":4.9333333,"type":"village"},{"id":"473060516","name":"Goudou Féma","lat":14.1920075,"lon":4.8192945,"type":"village"},{"id":"473060517","name":"Daouréré","lat":14.25,"lon":4.95,"type":"village"},{"id":"473060519","name":"Majia Dambaréoua","lat":14.3045785,"lon":4.9196565,"type":"village"},{"id":"473060520","name":"Moygyé","lat":14.2993485,"lon":4.8433945,"type":"village"},{"id":"473060522","name":"Kadawata","lat":14.3178255,"lon":4.762687,"type":"village"},{"id":"473060524","name":"Sabongari","lat":14.3144962,"lon":4.7732695,"type":"village"},{"id":"473060525","name":"Arouna","lat":14.3192412,"lon":4.7966127,"type":"village"},{"id":"473060527","name":"Sangélou","lat":14.297165,"lon":4.7509915,"type":"village"},{"id":"473060528","name":"Majia Samo","lat":14.2772951,"lon":4.9129343,"type":"village"},{"id":"473060530","name":"Daouléré Rafi","lat":14.2506015,"lon":4.9414685,"type":"village"},{"id":"473060531","name":"Daouléré Toudou","lat":14.2576512,"lon":4.950448,"type":"village"},{"id":"473060533","name":"Dazaga","lat":14.2238655,"lon":4.8630235,"type":"village"},{"id":"473060536","name":"Kourkoum","lat":14.1978555,"lon":4.901748,"type":"village"},{"id":"473060538","name":"Katta","lat":14.1962145,"lon":4.876262,"type":"village"},{"id":"473060541","name":"Kouragilké","lat":14.1743015,"lon":4.7647015,"type":"village"},{"id":"473060544","name":"Soumaki","lat":14.153327,"lon":4.7777505,"type":"village"},{"id":"473060547","name":"Tchlaga","lat":14.21365,"lon":4.729674,"type":"village"},{"id":"473060550","name":"Yoli","lat":14.195775,"lon":4.7332005,"type":"village"},{"id":"473060553","name":"Sarka","lat":14.2899765,"lon":4.8689025,"type":"village"},{"id":"473060556","name":"Chétali","lat":14.114622,"lon":4.7307725,"type":"village"},{"id":"473060558","name":"Dadoria","lat":14.1291967,"lon":4.3847852,"type":"village"},{"id":"473060562","name":"Toullou Kichiroua","lat":14.248359,"lon":4.45603,"type":"village"},{"id":"473060568","name":"Yalimé Roumboukawa","lat":14.3333384,"lon":4.269484,"type":"village"},{"id":"473060569","name":"Mayleghi","lat":14.1108075,"lon":4.4623305,"type":"village"},{"id":"473060576","name":"Toullou","lat":14.264967,"lon":4.4374385,"type":"village"},{"id":"473060580","name":"Maymakaine","lat":14.2647137,"lon":4.3717883,"type":"village"},{"id":"473060582","name":"Dan Yaé","lat":14.310221,"lon":4.2547738,"type":"village"},{"id":"473060584","name":"Maygijé","lat":14.3010552,"lon":4.2730033,"type":"village"},{"id":"473060586","name":"Eroufa 1","lat":14.3001094,"lon":4.2992046,"type":"village"},{"id":"473060587","name":"Korama","lat":14.2692206,"lon":4.3213844,"type":"village"},{"id":"473060589","name":"Inatès 1","lat":14.2145553,"lon":4.2705703,"type":"village"},{"id":"473060591","name":"Mai Kangarey","lat":14.2088478,"lon":4.3119539,"type":"village"},{"id":"473060596","name":"Madaka Magaji","lat":14.1827233,"lon":4.2760848,"type":"village"},{"id":"473060599","name":"Maraké","lat":14.2008845,"lon":4.267587,"type":"village"},{"id":"473076731","name":"Tyourout","lat":14.1534,"lon":5.4383,"type":"village"},{"id":"473076732","name":"Karayé","lat":14.1447503,"lon":5.2598205,"type":"village"},{"id":"473076734","name":"Foloa Sédentaire","lat":14.2790342,"lon":5.2678822,"type":"village"},{"id":"473076736","name":"Dabnou","lat":14.1511,"lon":5.36,"type":"village"},{"id":"473076737","name":"Sabara","lat":14.2463,"lon":5.4344,"type":"village"},{"id":"473076738","name":"Batoli","lat":14.2943,"lon":5.3252,"type":"village"},{"id":"473076739","name":"Goba I","lat":14.3233969,"lon":5.2952787,"type":"village"},{"id":"473076741","name":"Kossori","lat":14.2917527,"lon":5.2554725,"type":"village"},{"id":"473076742","name":"Zangon Dimo","lat":14.2705355,"lon":5.2588808,"type":"village"},{"id":"473076743","name":"Guidan Dimao","lat":14.2634838,"lon":5.2519957,"type":"village"},{"id":"473076744","name":"Iskita","lat":14.2445,"lon":5.2922,"type":"village"},{"id":"473076746","name":"Awikilis","lat":14.2246,"lon":5.3472,"type":"village"},{"id":"473076747","name":"Kéitasaga","lat":14.1362057,"lon":5.2231885,"type":"village"},{"id":"473076748","name":"Fadama","lat":14.1673285,"lon":5.2385775,"type":"village"},{"id":"473076749","name":"Dagou","lat":14.1639305,"lon":5.3033217,"type":"village"},{"id":"473076751","name":"Kanasori","lat":14.1226,"lon":5.2773,"type":"village"},{"id":"473076752","name":"Sabongari","lat":14.1017,"lon":5.2705,"type":"village"},{"id":"473076753","name":"Zantaram","lat":14.1138,"lon":5.3101,"type":"village"},{"id":"473076754","name":"Zangon Tambari","lat":14.1366,"lon":5.3435,"type":"village"},{"id":"473076755","name":"Goumbi","lat":14.1100208,"lon":5.3350713,"type":"village"},{"id":"473076756","name":"Zangon Dabnou","lat":14.1375,"lon":5.3743,"type":"village"},{"id":"473076757","name":"Zangon Abarchi","lat":14.1584,"lon":5.3613,"type":"village"},{"id":"473076758","name":"Sabanga","lat":14.1834,"lon":5.6509,"type":"village"},{"id":"473076761","name":"Kosa","lat":14.2866,"lon":5.5234,"type":"village"},{"id":"473076762","name":"Guidan Magagi","lat":14.1477142,"lon":5.63933,"type":"village"},{"id":"473076764","name":"Flagérki","lat":14.1554,"lon":5.5593,"type":"village"},{"id":"473076768","name":"Mouléla","lat":14.3282,"lon":5.6739,"type":"village"},{"id":"473076770","name":"Tounga Akay","lat":14.283,"lon":5.633,"type":"village"},{"id":"473076772","name":"Tounga Aboubakar","lat":14.2832,"lon":5.6268,"type":"village"},{"id":"473076774","name":"Tounga Arana","lat":14.2731,"lon":5.6405,"type":"village"},{"id":"473076775","name":"Tounga Goiri","lat":14.2471,"lon":5.5647,"type":"village"},{"id":"473076777","name":"Alakwato","lat":14.2256,"lon":5.636,"type":"village"},{"id":"473076779","name":"Kantaouri","lat":14.1926,"lon":5.6569,"type":"village"},{"id":"473076781","name":"Tounga Solao","lat":14.2288,"lon":5.5241,"type":"village"},{"id":"473076782","name":"Tounga Kaka","lat":14.1991,"lon":5.4977,"type":"village"},{"id":"473076784","name":"Irinkawa","lat":14.2423,"lon":5.4499,"type":"village"},{"id":"473076786","name":"Kafédami","lat":14.1325,"lon":5.4645,"type":"village"},{"id":"473076788","name":"Tounga Hama","lat":14.1096,"lon":5.5347,"type":"village"},{"id":"473076789","name":"Zoukouta","lat":14.1378,"lon":5.4766,"type":"village"},{"id":"473076792","name":"Kama Kamo","lat":14.1256027,"lon":5.6243237,"type":"village"},{"id":"473076794","name":"Zangon Louhoudou","lat":14.1066,"lon":5.6161,"type":"village"},{"id":"473076796","name":"Bouzaga","lat":14.1489,"lon":5.6467,"type":"village"},{"id":"473076797","name":"Métchazali","lat":14.1489,"lon":5.6191,"type":"village"},{"id":"473076799","name":"Soutéra","lat":14.142,"lon":5.6766,"type":"village"},{"id":"473076800","name":"Gidan Boutou","lat":14.165,"lon":5.6553,"type":"village"},{"id":"473076801","name":"Tounfafi","lat":14.2066,"lon":5.7089,"type":"village"},{"id":"473076802","name":"Tanbalanga","lat":14.292,"lon":5.7918,"type":"village"},{"id":"473076803","name":"Tama","lat":14.2744111,"lon":5.7682201,"type":"village"},{"id":"473076804","name":"Taboé","lat":14.2099,"lon":5.7477,"type":"village"},{"id":"473076805","name":"Maywatan","lat":14.1079,"lon":5.7786,"type":"village"},{"id":"473076806","name":"Ladama","lat":14.2264072,"lon":5.7379822,"type":"village"},{"id":"473076807","name":"Gojé","lat":14.1074,"lon":5.8157,"type":"village"},{"id":"473076809","name":"Taboy","lat":14.3292,"lon":5.6871,"type":"village"},{"id":"473076810","name":"Kélémé","lat":14.3235832,"lon":5.8089381,"type":"village"},{"id":"473076812","name":"Araga","lat":14.3244,"lon":5.8437,"type":"village"},{"id":"473076813","name":"Awan Amou","lat":14.3357,"lon":5.8506,"type":"village"},{"id":"473076814","name":"Wasarou","lat":14.3362,"lon":5.8636,"type":"village"},{"id":"473076815","name":"Gomara","lat":14.2062,"lon":5.9098,"type":"village"},{"id":"473076816","name":"Tara bissa","lat":14.2724,"lon":5.905,"type":"village"},{"id":"473076817","name":"Illagawan","lat":14.2622,"lon":5.8867,"type":"village"},{"id":"473076818","name":"Sanou","lat":14.3003,"lon":5.8329,"type":"village"},{"id":"473076819","name":"Désa","lat":14.2802,"lon":5.8572,"type":"village"},{"id":"473076820","name":"Saida","lat":14.2621,"lon":5.7983,"type":"village"},{"id":"473076821","name":"Mararafi","lat":14.2662,"lon":5.8123,"type":"village"},{"id":"473076822","name":"Kwaré","lat":14.2214,"lon":5.7706,"type":"village"},{"id":"473076823","name":"Karaouléy","lat":14.2668,"lon":5.7568,"type":"village"},{"id":"473076824","name":"Karba","lat":14.1961,"lon":5.7343,"type":"village"},{"id":"473076825","name":"Zangon","lat":14.2375,"lon":5.7391,"type":"village"},{"id":"473076827","name":"Ganfa","lat":14.1399,"lon":5.7,"type":"village"},{"id":"473076829","name":"Lagaré","lat":14.1954,"lon":5.6928,"type":"village"},{"id":"473076832","name":"Chémawa","lat":14.1238,"lon":5.7792,"type":"village"},{"id":"473076834","name":"Gonhala","lat":14.1717,"lon":5.7152,"type":"village"},{"id":"473076836","name":"Darankarat","lat":14.1236036,"lon":5.7932586,"type":"village"},{"id":"473076848","name":"Boullaya","lat":14.1747915,"lon":5.8497046,"type":"village"},{"id":"473076850","name":"Koudi Gani","lat":14.1188829,"lon":5.805063,"type":"village"},{"id":"473076852","name":"Tyaba","lat":14.123348,"lon":5.8014147,"type":"village"},{"id":"473076855","name":"Gidan Hami","lat":14.1622,"lon":5.8574,"type":"village"},{"id":"473076856","name":"Gadanbo","lat":14.1786,"lon":5.8891,"type":"village"},{"id":"473076858","name":"Tountoubé","lat":14.2566,"lon":5.985,"type":"village"},{"id":"473076859","name":"Tounkouré","lat":14.163699,"lon":6.067489,"type":"village"},{"id":"473076860","name":"Mouléla","lat":14.13843,"lon":6.107598,"type":"village"},{"id":"473076861","name":"Madéta II","lat":14.265694,"lon":6.015111,"type":"village"},{"id":"473076863","name":"Linkét","lat":14.3045,"lon":5.9747,"type":"village"},{"id":"473076864","name":"Kaba","lat":14.106763,"lon":6.051254,"type":"village"},{"id":"473076866","name":"Guidan Dan Baki","lat":14.190655,"lon":6.11937,"type":"village"},{"id":"473076867","name":"Gidan Bouzou","lat":14.2188,"lon":5.9869,"type":"village"},{"id":"473076868","name":"Allassanawa","lat":14.193236,"lon":6.064213,"type":"village"},{"id":"473076869","name":"Esana","lat":14.234833,"lon":6.164254,"type":"village"},{"id":"473076870","name":"Dama Idi","lat":14.25687,"lon":6.137935,"type":"village"},{"id":"473076871","name":"Boudounkwi","lat":14.151201,"lon":6.015356,"type":"village"},{"id":"473076872","name":"Aouloumal","lat":14.231161,"lon":6.0293712,"type":"village"},{"id":"473076873","name":"Fadara","lat":14.3253553,"lon":5.9815786,"type":"village"},{"id":"473076875","name":"Gisenbiri","lat":14.2756,"lon":5.9877,"type":"village"},{"id":"473076876","name":"Chamat","lat":14.2179348,"lon":5.9278601,"type":"village"},{"id":"473076877","name":"Arzérorawa","lat":14.1530816,"lon":5.9681097,"type":"village"},{"id":"473076878","name":"Kaharma","lat":14.1812401,"lon":5.9316631,"type":"village"},{"id":"473076879","name":"Tchegoum","lat":14.3341,"lon":6.003718,"type":"village"},{"id":"473076881","name":"Tsongalé","lat":14.11007,"lon":5.93363,"type":"village"},{"id":"473076882","name":"Homné","lat":14.315591,"lon":6.002551,"type":"village"},{"id":"473076883","name":"Guidan Ségi","lat":14.320581,"lon":6.004877,"type":"village"},{"id":"473076884","name":"Guidan Cheydi","lat":14.319375,"lon":6.056711,"type":"village"},{"id":"473076887","name":"Guidan Mahamadou","lat":14.3325504,"lon":6.0670672,"type":"village"},{"id":"473076890","name":"Guidan Zabaya","lat":14.32234,"lon":6.119292,"type":"village"},{"id":"473076891","name":"Zoukouri","lat":14.315444,"lon":6.064767,"type":"village"},{"id":"473076895","name":"Madéta","lat":14.276783,"lon":6.014573,"type":"village"},{"id":"473076897","name":"Taraorao","lat":14.30445,"lon":6.082564,"type":"village"},{"id":"473076899","name":"Algabid","lat":14.258622,"lon":6.044411,"type":"village"},{"id":"473076901","name":"Kaoura","lat":14.273335,"lon":6.012275,"type":"village"},{"id":"473076904","name":"Ramoutan","lat":14.271325,"lon":6.059005,"type":"village"},{"id":"473076906","name":"Baché","lat":14.257406,"lon":6.018135,"type":"village"},{"id":"473076908","name":"Kousada","lat":14.176569,"lon":6.12676,"type":"village"},{"id":"473076909","name":"Guidan Samia","lat":14.2152525,"lon":6.1396029,"type":"village"},{"id":"473076912","name":"Tasolyét","lat":14.2675291,"lon":6.1016315,"type":"village"},{"id":"473076914","name":"Garin Amitchak","lat":14.172103,"lon":6.116538,"type":"village"},{"id":"473076915","name":"Edama","lat":14.2394561,"lon":6.1547321,"type":"village"},{"id":"473076917","name":"Bourdi","lat":14.2498724,"lon":6.1351436,"type":"village"},{"id":"473076919","name":"Kaoura Fouri","lat":14.221496,"lon":6.088423,"type":"village"},{"id":"473076921","name":"Barkay","lat":14.235809,"lon":6.104298,"type":"village"},{"id":"473076923","name":"Guidan Arjika","lat":14.148096,"lon":6.124343,"type":"village"},{"id":"473076926","name":"Guidan Malam Wasou","lat":14.139589,"lon":6.135289,"type":"village"},{"id":"473076928","name":"Wakawa","lat":14.2704958,"lon":6.1417417,"type":"village"},{"id":"473076932","name":"Tajaé","lat":14.309014,"lon":6.151413,"type":"village"},{"id":"473076934","name":"Guidan Maysabé","lat":14.162564,"lon":6.101525,"type":"village"},{"id":"473076937","name":"Toundoukou","lat":14.16607,"lon":6.010184,"type":"village"},{"id":"473076940","name":"Zangon Mouléla","lat":14.136697,"lon":6.119336,"type":"village"},{"id":"473076942","name":"Guidan Giwa","lat":14.123842,"lon":6.118921,"type":"village"},{"id":"473076943","name":"Lakot","lat":14.097627,"lon":6.070434,"type":"village"},{"id":"473076945","name":"Guidan Miako","lat":14.121501,"lon":6.008251,"type":"village"},{"id":"473076946","name":"Kelgésat","lat":14.129771,"lon":6.003514,"type":"village"},{"id":"473076948","name":"Zangouma","lat":14.2833333,"lon":6.2833333,"type":"village"},{"id":"473076950","name":"Takaraoua","lat":14.3,"lon":6.1666667,"type":"village"},{"id":"473076951","name":"Samayé","lat":14.1322447,"lon":6.2897383,"type":"village"},{"id":"473076952","name":"Marmaro","lat":14.187944,"lon":6.263129,"type":"village"},{"id":"473076953","name":"Kaywatan","lat":14.163168,"lon":6.229628,"type":"village"},{"id":"473076955","name":"Kagarki","lat":14.235191,"lon":6.345596,"type":"village"},{"id":"473076957","name":"Idri oua-n-Tazak","lat":14.3,"lon":6.4,"type":"village"},{"id":"473076958","name":"Eroupa","lat":14.3333333,"lon":6.3666667,"type":"village"},{"id":"473076960","name":"Edouka","lat":14.204316,"lon":6.304233,"type":"village"},{"id":"473076961","name":"Chinawa","lat":14.100006,"lon":6.266945,"type":"village"},{"id":"473076963","name":"Bouzout","lat":14.125469,"lon":6.168666,"type":"village"},{"id":"473076968","name":"Amassé","lat":14.3333333,"lon":6.1833333,"type":"village"},{"id":"473076971","name":"Guidan Baolé","lat":14.335485,"lon":6.326779,"type":"village"},{"id":"473076973","name":"Amachin","lat":14.332724,"lon":6.191614,"type":"village"},{"id":"473076976","name":"Maykaraorawé","lat":14.2499694,"lon":6.1879363,"type":"village"},{"id":"473076978","name":"Guidan Asi","lat":14.267106,"lon":6.221399,"type":"village"},{"id":"473076981","name":"Zandakami","lat":14.267457,"lon":6.185623,"type":"village"},{"id":"473076983","name":"Idiki","lat":14.2607954,"lon":6.2132021,"type":"village"},{"id":"473076985","name":"Zangon Kankara","lat":14.313271,"lon":6.27487,"type":"village"},{"id":"473076987","name":"Gouzouma","lat":14.300661,"lon":6.21491,"type":"village"},{"id":"473076989","name":"Dan Gida","lat":14.289307,"lon":6.276475,"type":"village"},{"id":"473076991","name":"Kankara","lat":14.29447,"lon":6.28424,"type":"village"},{"id":"473076993","name":"Maysasap","lat":14.305328,"lon":6.345121,"type":"village"},{"id":"473076995","name":"Mayéroufa","lat":14.3297378,"lon":6.360829,"type":"village"},{"id":"473076997","name":"Ediri Mohamam","lat":14.302569,"lon":6.398436,"type":"village"},{"id":"473076999","name":"Tigidir","lat":14.296758,"lon":6.319111,"type":"village"},{"id":"473077001","name":"Galba","lat":14.262014,"lon":6.299945,"type":"village"},{"id":"473077003","name":"Guidan Maylafia","lat":14.297264,"lon":6.39539,"type":"village"},{"id":"473077004","name":"Maraké","lat":14.230102,"lon":6.314761,"type":"village"},{"id":"473077005","name":"Kagarkawa","lat":14.2417631,"lon":6.3395567,"type":"village"},{"id":"473077006","name":"Guidan Haladji","lat":14.190526,"lon":6.288649,"type":"village"},{"id":"473077007","name":"Rafin Kodou","lat":14.20841,"lon":6.25848,"type":"village"},{"id":"473077008","name":"Tchoukobouch","lat":14.230124,"lon":6.385422,"type":"village"},{"id":"473077009","name":"Koro","lat":14.2496056,"lon":6.40196,"type":"village"},{"id":"473077010","name":"Guidan Ango","lat":14.188267,"lon":6.297789,"type":"village"},{"id":"473077011","name":"Doutchi Zana","lat":14.2032356,"lon":6.3720748,"type":"village"},{"id":"473077012","name":"Aboroki","lat":14.118992,"lon":6.376288,"type":"village"},{"id":"473077013","name":"Boyékaramé","lat":14.1164,"lon":6.406043,"type":"village"},{"id":"473077014","name":"Guidan Boube","lat":14.328438,"lon":6.404688,"type":"village"},{"id":"473077015","name":"Touboutoubou","lat":14.104581,"lon":6.318828,"type":"village"},{"id":"473077016","name":"Dagezouma","lat":14.137996,"lon":6.36785,"type":"village"},{"id":"473077017","name":"Guidan Soulé","lat":14.125492,"lon":6.364008,"type":"village"},{"id":"473077018","name":"Guidan Dan Goma","lat":14.146985,"lon":6.395044,"type":"village"},{"id":"473077020","name":"Guidan Sérkin Noma","lat":14.141205,"lon":6.387916,"type":"village"},{"id":"473077021","name":"Guidan Tanbou","lat":14.145133,"lon":6.314105,"type":"village"},{"id":"473077022","name":"Mayichara","lat":14.139164,"lon":6.323036,"type":"village"},{"id":"473077024","name":"Guidan Ili","lat":14.151538,"lon":6.369184,"type":"village"},{"id":"473077026","name":"Guidan Wazam","lat":14.146645,"lon":6.361406,"type":"village"},{"id":"473077027","name":"Guidan Garba","lat":14.122131,"lon":6.304754,"type":"village"},{"id":"473077029","name":"Guidan Yari","lat":14.1211581,"lon":6.3158473,"type":"village"},{"id":"473077031","name":"Gangara","lat":14.1252806,"lon":6.3372814,"type":"village"},{"id":"473077033","name":"Zirga","lat":14.1333333,"lon":6.4166667,"type":"village"},{"id":"473077034","name":"Tankarawa","lat":14.2774574,"lon":6.6219818,"type":"village"},{"id":"473077036","name":"Takalmawa","lat":14.217651,"lon":6.622119,"type":"village"},{"id":"473077038","name":"Hountogi","lat":14.300785,"lon":6.484699,"type":"village"},{"id":"473077040","name":"Mantao","lat":14.136609,"lon":6.506191,"type":"village"},{"id":"473077042","name":"Kondo","lat":14.1649545,"lon":6.5428848,"type":"village"},{"id":"473077044","name":"Guidan Mantao","lat":14.101354,"lon":6.525884,"type":"village"},{"id":"473077046","name":"Goundouroum","lat":14.3330947,"lon":6.4136508,"type":"village"},{"id":"473077047","name":"Démbébé","lat":14.129305,"lon":6.581516,"type":"village"},{"id":"473077049","name":"Wala Dan Marké","lat":14.3198665,"lon":6.5438204,"type":"village"},{"id":"473077052","name":"Boudou","lat":14.2431235,"lon":6.6127184,"type":"village"},{"id":"473077054","name":"Maybaréwa","lat":14.335303,"lon":6.52171,"type":"village"},{"id":"473077057","name":"Guidan Tanko","lat":14.336873,"lon":6.441434,"type":"village"},{"id":"473077058","name":"Dan Daji","lat":14.286604,"lon":6.419169,"type":"village"},{"id":"473077059","name":"Guidan Amadou","lat":14.282927,"lon":6.415063,"type":"village"},{"id":"473077060","name":"Ediri Wantaza","lat":14.268232,"lon":6.4182966,"type":"village"},{"id":"473077061","name":"Angoal Inéwa","lat":14.171277,"lon":6.414125,"type":"village"},{"id":"473077063","name":"Guidan Noma","lat":14.25785,"lon":6.413577,"type":"village"},{"id":"473077064","name":"Guidan Maydawa","lat":14.182228,"lon":6.422073,"type":"village"},{"id":"473077065","name":"Guidan Gado","lat":14.173697,"lon":6.454087,"type":"village"},{"id":"473077067","name":"Doudan","lat":14.186829,"lon":6.456199,"type":"village"},{"id":"473077068","name":"Giraza","lat":14.192458,"lon":6.435627,"type":"village"},{"id":"473077070","name":"Kélata","lat":14.179195,"lon":6.500901,"type":"village"},{"id":"473077072","name":"Kounao","lat":14.18533,"lon":6.479756,"type":"village"},{"id":"473077073","name":"Guidan Chadou","lat":14.18725,"lon":6.544075,"type":"village"},{"id":"473077075","name":"Guidan Koura","lat":14.1716121,"lon":6.5212555,"type":"village"},{"id":"473077077","name":"Kalagé","lat":14.196808,"lon":6.504884,"type":"village"},{"id":"473077078","name":"Guidan Chama","lat":14.195747,"lon":6.541055,"type":"village"},{"id":"473077080","name":"Dan Doutchi","lat":14.222807,"lon":6.465324,"type":"village"},{"id":"473077082","name":"Henjirkou","lat":14.213453,"lon":6.490279,"type":"village"},{"id":"473077084","name":"Dan Toudou","lat":14.209783,"lon":6.40929,"type":"village"},{"id":"473077086","name":"Jirga Mohamada","lat":14.213143,"lon":6.415389,"type":"village"},{"id":"473077088","name":"Guidan Zabéyrau","lat":14.235364,"lon":6.414436,"type":"village"},{"id":"473077089","name":"Roukiki","lat":14.236559,"lon":6.443392,"type":"village"},{"id":"473077093","name":"Iamagaley","lat":14.2067271,"lon":6.4181663,"type":"village"},{"id":"473077095","name":"Jirga","lat":14.217694,"lon":6.408223,"type":"village"},{"id":"473077096","name":"Guidan Mayboubé","lat":14.256023,"lon":6.451314,"type":"village"},{"id":"473077098","name":"Guidan Maytawa","lat":14.278089,"lon":6.438806,"type":"village"},{"id":"473077100","name":"Serkou","lat":14.232916,"lon":6.485361,"type":"village"},{"id":"473077102","name":"Guidan Goda","lat":14.240328,"lon":6.465565,"type":"village"},{"id":"473077104","name":"Mayki","lat":14.280133,"lon":6.503504,"type":"village"},{"id":"473077107","name":"Guidan Garo","lat":14.261193,"lon":6.536553,"type":"village"},{"id":"473077109","name":"Guidan Mamou","lat":14.285032,"lon":6.434567,"type":"village"},{"id":"473077110","name":"Kasou","lat":14.315713,"lon":6.446425,"type":"village"},{"id":"473077112","name":"Dawaki","lat":14.3144816,"lon":6.5174349,"type":"village"},{"id":"473077113","name":"Dan Daji Bako","lat":14.31198,"lon":6.5813355,"type":"village"},{"id":"473077114","name":"Guidan Ana","lat":14.251729,"lon":6.519991,"type":"village"},{"id":"473077117","name":"Oubandawaki","lat":14.243862,"lon":6.513953,"type":"village"},{"id":"473077118","name":"Gogèrma","lat":14.286463,"lon":6.578674,"type":"village"},{"id":"473077119","name":"Bahagou","lat":14.295359,"lon":6.565731,"type":"village"},{"id":"473077120","name":"Guidan Jiga","lat":14.285979,"lon":6.528052,"type":"village"},{"id":"473077121","name":"Guidan Nanaya","lat":14.334011,"lon":6.599391,"type":"village"},{"id":"473077122","name":"Guidan Hamza","lat":14.253427,"lon":6.54053,"type":"village"},{"id":"473077123","name":"Dan Yachi","lat":14.265324,"lon":6.539728,"type":"village"},{"id":"473077124","name":"Guidan Boué","lat":14.2703693,"lon":6.5361889,"type":"village"},{"id":"473077125","name":"Kowa Itché","lat":14.30278,"lon":6.633536,"type":"village"},{"id":"473077126","name":"Maykaka","lat":14.250616,"lon":6.637854,"type":"village"},{"id":"473077128","name":"Magari Dan Bako","lat":14.267593,"lon":6.625263,"type":"village"},{"id":"473077129","name":"Dan Fari","lat":14.268599,"lon":6.595216,"type":"village"},{"id":"473077130","name":"Bangalawa","lat":14.263155,"lon":6.571789,"type":"village"},{"id":"473077131","name":"Guidan Kèrki","lat":14.193002,"lon":6.562366,"type":"village"},{"id":"473077132","name":"Guidan Garba","lat":14.229745,"lon":6.562427,"type":"village"},{"id":"473077133","name":"Bagaré","lat":14.2431826,"lon":6.5838792,"type":"village"},{"id":"473077134","name":"Kobobo","lat":14.237236,"lon":6.630921,"type":"village"},{"id":"473077135","name":"Tongoloso","lat":14.12145,"lon":6.643036,"type":"village"},{"id":"473077136","name":"Oubandawaki","lat":14.150399,"lon":6.631507,"type":"village"},{"id":"473077138","name":"Guidan Dan Maygari","lat":14.160625,"lon":6.609656,"type":"village"},{"id":"473077139","name":"Guidan Manta","lat":14.15472,"lon":6.583723,"type":"village"},{"id":"473077141","name":"Zangon Asan","lat":14.196372,"lon":6.589563,"type":"village"},{"id":"473077142","name":"Dan Farou","lat":14.206653,"lon":6.630715,"type":"village"},{"id":"473077145","name":"Guidan Chalbo","lat":14.183633,"lon":6.575842,"type":"village"},{"id":"473077146","name":"Garin Bara","lat":14.180912,"lon":6.621237,"type":"village"},{"id":"473077150","name":"Wala Asan","lat":14.112408,"lon":6.481716,"type":"village"},{"id":"473077152","name":"Zangon Bédiden","lat":14.103952,"lon":6.470622,"type":"village"},{"id":"473077156","name":"Abaza","lat":14.100677,"lon":6.414125,"type":"village"},{"id":"473077158","name":"Guidan Kaoura","lat":14.107452,"lon":6.41531,"type":"village"},{"id":"473077161","name":"Jembali","lat":14.098816,"lon":6.60122,"type":"village"},{"id":"473077164","name":"Garin Walki","lat":14.1190804,"lon":6.5463345,"type":"village"},{"id":"473077167","name":"Zangon Kélata","lat":14.152966,"lon":6.488312,"type":"village"},{"id":"473077170","name":"Goumagoumai","lat":14.146431,"lon":6.487593,"type":"village"},{"id":"473077174","name":"Guidan Chékarawa","lat":14.126101,"lon":6.432442,"type":"village"},{"id":"473077177","name":"Guidan Bwayé","lat":14.122806,"lon":6.475776,"type":"village"},{"id":"473077180","name":"Karamé","lat":14.140337,"lon":6.420841,"type":"village"},{"id":"473077183","name":"Zouta","lat":14.155359,"lon":6.437353,"type":"village"},{"id":"473077187","name":"Toudoun Jimina","lat":14.225822,"lon":6.753029,"type":"village"},{"id":"473077189","name":"Tchintchia","lat":14.3280357,"lon":6.7208598,"type":"village"},{"id":"473077193","name":"Koukouta","lat":14.2,"lon":6.6833333,"type":"village"},{"id":"473077196","name":"Guidan Tounao","lat":14.249801,"lon":6.87595,"type":"village"},{"id":"473077198","name":"Guidan Saïdou","lat":14.248571,"lon":6.799168,"type":"village"},{"id":"473077202","name":"Guidan Maski","lat":14.1666667,"lon":6.8,"type":"village"},{"id":"473077205","name":"Galadima Darmaso","lat":14.260688,"lon":6.831458,"type":"village"},{"id":"473077207","name":"Dachel Barmo","lat":14.2306346,"lon":6.7347269,"type":"village"},{"id":"473077210","name":"Takouida","lat":14.309864,"lon":6.682515,"type":"village"},{"id":"473077212","name":"Nahaya","lat":14.29096,"lon":6.711484,"type":"village"},{"id":"473077215","name":"Héloun","lat":14.270989,"lon":6.69738,"type":"village"},{"id":"473077217","name":"Falkawa Kasa","lat":14.23327,"lon":6.650899,"type":"village"},{"id":"473077220","name":"Dan Mayaki Zénou","lat":14.207589,"lon":6.674824,"type":"village"},{"id":"473077223","name":"Ataou Dan Kourmi","lat":14.209398,"lon":6.711252,"type":"village"},{"id":"473077225","name":"Howaltchi","lat":14.220095,"lon":6.748026,"type":"village"},{"id":"473077227","name":"Serkin Toudou","lat":14.235087,"lon":6.73493,"type":"village"},{"id":"473077229","name":"Kouwa","lat":14.2595625,"lon":6.8054057,"type":"village"},{"id":"473077232","name":"Toudoun Jimina II","lat":14.205854,"lon":6.803482,"type":"village"},{"id":"473077234","name":"Dan Madougou","lat":14.2949546,"lon":6.7537199,"type":"village"},{"id":"473077236","name":"Dan Biri","lat":14.300714,"lon":6.78849,"type":"village"},{"id":"473077239","name":"Korodjo","lat":14.31832,"lon":6.72734,"type":"village"},{"id":"473077241","name":"May Dan Gari","lat":14.3093219,"lon":6.7367276,"type":"village"},{"id":"473077243","name":"Rougougwa","lat":14.299917,"lon":6.81983,"type":"village"},{"id":"473077245","name":"Kouchéwatawa","lat":14.324246,"lon":6.743703,"type":"village"},{"id":"473077247","name":"Sérkin","lat":14.286771,"lon":6.872926,"type":"village"},{"id":"473077249","name":"Namala","lat":14.311664,"lon":6.883928,"type":"village"},{"id":"473077251","name":"Koulki","lat":14.234141,"lon":6.871433,"type":"village"},{"id":"473077253","name":"Guidan Abou","lat":14.289154,"lon":6.828863,"type":"village"},{"id":"473077255","name":"Nakowana Sawa","lat":14.121057,"lon":6.8795,"type":"village"},{"id":"473077257","name":"Maykérawa","lat":14.1958037,"lon":6.8763152,"type":"village"},{"id":"473077259","name":"Guidan Magaji Maiki Aitchi I","lat":14.113351,"lon":6.75732,"type":"village"},{"id":"473077263","name":"Guidan Maynou","lat":14.138765,"lon":6.768393,"type":"village"},{"id":"473077266","name":"Gérao","lat":14.179489,"lon":6.748507,"type":"village"},{"id":"473077269","name":"Marké","lat":14.170053,"lon":6.735864,"type":"village"},{"id":"473077273","name":"Touk Kou","lat":14.142888,"lon":6.715473,"type":"village"},{"id":"473077276","name":"Guidan Magaji Maiki Aitchi II","lat":14.151449,"lon":6.680339,"type":"village"},{"id":"473077280","name":"Guidan Méli","lat":14.172551,"lon":6.809781,"type":"village"},{"id":"473077284","name":"Wakawa","lat":14.1864995,"lon":7.0676515,"type":"village"},{"id":"473077287","name":"Takouli Roumbouda","lat":14.3,"lon":6.95,"type":"village"},{"id":"473077291","name":"Sérkin Aski","lat":14.1453105,"lon":7.100322,"type":"village"},{"id":"473077294","name":"Namata","lat":14.1859655,"lon":7.118143,"type":"village"},{"id":"473077297","name":"Mato","lat":14.311189,"lon":7.105921,"type":"village"},{"id":"473077300","name":"Maski","lat":14.179055,"lon":7.086823,"type":"village"},{"id":"473077302","name":"Laléwa","lat":14.253972,"lon":6.937329,"type":"village"},{"id":"473077306","name":"Kochin Foura","lat":14.1483965,"lon":7.0848805,"type":"village"},{"id":"473077309","name":"Kataré","lat":14.1450595,"lon":7.057946,"type":"village"},{"id":"473077313","name":"Kahi","lat":14.232095,"lon":7.119003,"type":"village"},{"id":"473077317","name":"Ilia","lat":14.30571,"lon":7.070014,"type":"village"},{"id":"473077320","name":"Ihi","lat":14.2512925,"lon":7.0214475,"type":"village"},{"id":"473077323","name":"Guidan Toukou","lat":14.112011,"lon":7.018094,"type":"village"},{"id":"473077326","name":"Guidan Tanko","lat":14.2031965,"lon":7.0453355,"type":"village"},{"id":"473077332","name":"Guidan Tanimou","lat":14.211284,"lon":7.082871,"type":"village"},{"id":"473077333","name":"Guidan Salifou","lat":14.1200355,"lon":7.0672615,"type":"village"},{"id":"473077335","name":"Guidan Magaji","lat":14.1960725,"lon":7.0185105,"type":"village"},{"id":"473077337","name":"Guidan Mousa","lat":14.10129,"lon":7.012141,"type":"village"},{"id":"473077339","name":"Guidan Karo","lat":14.1,"lon":6.9333333,"type":"village"},{"id":"473077344","name":"Guidan Labo-Dan Magazia","lat":14.110731,"lon":7.105436,"type":"village"},{"id":"473077345","name":"Guidan Gado Agada","lat":14.1520315,"lon":7.0176425,"type":"village"},{"id":"473077347","name":"Guidan Gwari","lat":14.27773,"lon":7.1092705,"type":"village"},{"id":"473077348","name":"Barmo","lat":14.2011293,"lon":6.8982868,"type":"village"},{"id":"473077350","name":"Guidan Dala","lat":14.117387,"lon":7.04418,"type":"village"},{"id":"473077353","name":"Guidan Alo","lat":14.306001,"lon":7.100705,"type":"village"},{"id":"473077354","name":"Guidan Bara Dangaji","lat":14.2116135,"lon":7.026287,"type":"village"},{"id":"473077356","name":"Elkaswora","lat":14.231922,"lon":7.0138415,"type":"village"},{"id":"473077358","name":"Gajiri","lat":14.165023,"lon":7.125245,"type":"village"},{"id":"473077360","name":"Dan Ja Amouté","lat":14.153483,"lon":7.110461,"type":"village"},{"id":"473077361","name":"El Dala","lat":14.123328,"lon":7.061935,"type":"village"},{"id":"473077363","name":"Borota","lat":14.2966105,"lon":7.0214655,"type":"village"},{"id":"473077365","name":"Dameli","lat":14.2333333,"lon":6.9166667,"type":"village"},{"id":"473077366","name":"Nasalé","lat":14.253223,"lon":7.076741,"type":"village"},{"id":"473077368","name":"Dan Malam-Tanoudé","lat":14.2985379,"lon":7.0447806,"type":"village"},{"id":"473077370","name":"Bajadani","lat":14.232871,"lon":7.1248525,"type":"village"},{"id":"473077372","name":"Akora","lat":14.168093,"lon":7.050157,"type":"village"},{"id":"473077374","name":"Kota","lat":14.307626,"lon":6.99446,"type":"village"},{"id":"473077376","name":"Saboa Dounia","lat":14.296294,"lon":6.907378,"type":"village"},{"id":"473077379","name":"Takouré","lat":14.32431,"lon":6.934584,"type":"village"},{"id":"473077380","name":"Zougao","lat":14.33113,"lon":6.973402,"type":"village"},{"id":"473077383","name":"Agour Wala","lat":14.183211,"lon":6.990621,"type":"village"},{"id":"473077385","name":"Bakiré","lat":14.217245,"lon":6.941976,"type":"village"},{"id":"473077386","name":"Guidan Oumarou-Latata","lat":14.232898,"lon":6.909145,"type":"village"},{"id":"473077388","name":"Guidan Adamou","lat":14.216182,"lon":6.97846,"type":"village"},{"id":"473077389","name":"Toro Dan Barmo","lat":14.1499458,"lon":6.9352487,"type":"village"},{"id":"473077390","name":"Rikiskama","lat":14.136405,"lon":6.992851,"type":"village"},{"id":"473077391","name":"Wala Nomao Koro","lat":14.097382,"lon":6.934365,"type":"village"},{"id":"473077392","name":"Zangon Atéwa","lat":14.255895,"lon":7.306849,"type":"village"},{"id":"473077393","name":"Wawouré","lat":14.3231875,"lon":7.33857,"type":"village"},{"id":"473077394","name":"Toukou Toukou","lat":14.1225345,"lon":7.2305265,"type":"village"},{"id":"473077395","name":"Sakawa","lat":14.1366195,"lon":7.1849205,"type":"village"},{"id":"473077397","name":"Saidou Bidawa","lat":14.1749355,"lon":7.342868,"type":"village"},{"id":"473077398","name":"Rijya Ba","lat":14.251013,"lon":7.31425,"type":"village"},{"id":"473077399","name":"Rijya Aman","lat":14.227545,"lon":7.1777635,"type":"village"},{"id":"473077400","name":"May Malyo","lat":14.120718,"lon":7.265451,"type":"village"},{"id":"473077401","name":"Maykouré","lat":14.265097,"lon":7.33797,"type":"village"},{"id":"473077402","name":"Maykaka","lat":14.119142,"lon":7.348496,"type":"village"},{"id":"473077403","name":"Malamay","lat":14.121152,"lon":7.288443,"type":"village"},{"id":"473077404","name":"Louga Méléma","lat":14.31536,"lon":7.146459,"type":"village"},{"id":"473077405","name":"Louga Kataré","lat":14.2156005,"lon":7.345529,"type":"village"},{"id":"473077406","name":"Linkidim","lat":14.230752,"lon":7.2935765,"type":"village"},{"id":"473077408","name":"Koudou Baro","lat":14.211943,"lon":7.323688,"type":"village"},{"id":"473077409","name":"Kollo","lat":14.1088395,"lon":7.248045,"type":"village"},{"id":"473077410","name":"Koabouta","lat":14.3061725,"lon":7.205352,"type":"village"},{"id":"473077411","name":"Koagoni","lat":14.3149365,"lon":7.348448,"type":"village"},{"id":"473077416","name":"Kannfatawa","lat":14.3274425,"lon":7.221798,"type":"village"},{"id":"473077417","name":"Guidan Wajé","lat":14.3058695,"lon":7.294584,"type":"village"},{"id":"473077419","name":"Guidan Wané","lat":14.159993,"lon":7.2778045,"type":"village"},{"id":"473077421","name":"Guidan Salé","lat":14.141981,"lon":7.268698,"type":"village"},{"id":"473077423","name":"Guidan Touno","lat":14.161716,"lon":7.299265,"type":"village"},{"id":"473077424","name":"Guidan Saidou","lat":14.3049875,"lon":7.256134,"type":"village"},{"id":"473077427","name":"Guidan Salao","lat":14.1591845,"lon":7.3518125,"type":"village"},{"id":"473077429","name":"Guidan Mani Ada","lat":14.2729125,"lon":7.1475875,"type":"village"},{"id":"473077431","name":"Guidan Mannto","lat":14.132078,"lon":7.3293,"type":"village"},{"id":"473077433","name":"Guidan Madougou","lat":14.122545,"lon":7.165353,"type":"village"},{"id":"473077436","name":"Guidan Madougou","lat":14.19416,"lon":7.296664,"type":"village"},{"id":"473077437","name":"Guidan Kourouma","lat":14.121289,"lon":7.1435605,"type":"village"},{"id":"473077440","name":"Guidan Labo Ada","lat":14.272385,"lon":7.197077,"type":"village"},{"id":"473077443","name":"Guidan Inda","lat":14.151547,"lon":7.138303,"type":"village"},{"id":"473077445","name":"Guidan Guingué","lat":14.1549855,"lon":7.202993,"type":"village"},{"id":"473077448","name":"Guidan Kasou","lat":14.207137,"lon":7.341604,"type":"village"},{"id":"473077449","name":"Guidan Kalé","lat":14.208029,"lon":7.243389,"type":"village"},{"id":"473077452","name":"Guidan Bouzou","lat":14.199991,"lon":7.219329,"type":"village"},{"id":"473077454","name":"Guidan Bouja","lat":14.186527,"lon":7.2785625,"type":"village"},{"id":"473077455","name":"Guidan Gaya","lat":14.2107345,"lon":7.2038375,"type":"village"},{"id":"473077457","name":"Guidan Gabés","lat":14.257161,"lon":7.293419,"type":"village"},{"id":"473077458","name":"Guidan Aman Gachi","lat":14.1902255,"lon":7.319956,"type":"village"},{"id":"473077459","name":"Guidan Amani Ariwa","lat":14.143179,"lon":7.313934,"type":"village"},{"id":"473077461","name":"Guidan Bahago","lat":14.138446,"lon":7.300766,"type":"village"},{"id":"473077462","name":"Guidan Arjika","lat":14.2812165,"lon":7.3053285,"type":"village"},{"id":"473077463","name":"Guidan Abdou Maybaréwa","lat":14.1008605,"lon":7.198131,"type":"village"},{"id":"473077464","name":"Guidan Abarchi","lat":14.149261,"lon":7.361054,"type":"village"},{"id":"473077466","name":"Guidan Ali","lat":14.3140815,"lon":7.164823,"type":"village"},{"id":"473077467","name":"Guidan Adomou","lat":14.268119,"lon":7.357164,"type":"village"},{"id":"473077468","name":"Farou Bakoy","lat":14.127413,"lon":7.352502,"type":"village"},{"id":"473077470","name":"Gisgé","lat":14.109327,"lon":7.309871,"type":"village"},{"id":"473077471","name":"Goundidi","lat":14.1896485,"lon":7.2289615,"type":"village"},{"id":"473077473","name":"Goundounmawa","lat":14.112764,"lon":7.155686,"type":"village"},{"id":"473077474","name":"Dan Yaba","lat":14.249426,"lon":7.19767,"type":"village"},{"id":"473077476","name":"Danzabo","lat":14.2548765,"lon":7.161853,"type":"village"},{"id":"473077477","name":"Dogon Hano","lat":14.2236055,"lon":7.214445,"type":"village"},{"id":"473077479","name":"Ékaba","lat":14.16184,"lon":7.1563165,"type":"village"},{"id":"473077481","name":"Dan Kalgo","lat":14.25329,"lon":7.275437,"type":"village"},{"id":"473077482","name":"Dan Kandé","lat":14.2213325,"lon":7.169044,"type":"village"},{"id":"473077483","name":"Dan Kané","lat":14.250439,"lon":7.222502,"type":"village"},{"id":"473077485","name":"Dan Malam","lat":14.179172,"lon":7.232415,"type":"village"},{"id":"473077487","name":"Dakié","lat":14.203704,"lon":7.351461,"type":"village"},{"id":"473077489","name":"Dan Dawo","lat":14.284106,"lon":7.319588,"type":"village"},{"id":"473077491","name":"Dan Farou","lat":14.2245725,"lon":7.2635325,"type":"village"},{"id":"473077492","name":"Dan Goma","lat":14.2973525,"lon":7.231459,"type":"village"},{"id":"473077495","name":"Bakachanta","lat":14.2055535,"lon":7.2848155,"type":"village"},{"id":"473077497","name":"Bagaré","lat":14.2504625,"lon":7.1335275,"type":"village"},{"id":"473077498","name":"Atalabawa","lat":14.1677825,"lon":7.171755,"type":"village"},{"id":"473077501","name":"Amagano","lat":14.320463,"lon":7.162877,"type":"village"},{"id":"473077503","name":"Dadin Tamro","lat":14.183347,"lon":7.249041,"type":"village"},{"id":"473077505","name":"Bilbizo","lat":14.12617,"lon":7.221327,"type":"village"},{"id":"473077506","name":"Baraya","lat":14.1011945,"lon":7.363838,"type":"village"},{"id":"473077510","name":"Bantacha","lat":14.2646585,"lon":7.2265135,"type":"village"},{"id":"473077511","name":"Agar","lat":14.229365,"lon":7.24059,"type":"village"},{"id":"473077514","name":"Adinkia","lat":14.302797,"lon":7.32809,"type":"village"},{"id":"473077516","name":"Atayo","lat":14.129679,"lon":7.266746,"type":"village"},{"id":"473077518","name":"Djibi Sofoa","lat":14.2657425,"lon":7.2469835,"type":"village"},{"id":"473077520","name":"Al Moktar","lat":14.173003,"lon":7.31674,"type":"village"},{"id":"473077521","name":"Ali","lat":14.2131615,"lon":7.1778635,"type":"village"},{"id":"473077523","name":"Algoum","lat":14.285509,"lon":7.292131,"type":"village"},{"id":"473077525","name":"Ajia Saboa","lat":14.2067045,"lon":7.15811,"type":"village"},{"id":"473077526","name":"Alforma","lat":14.192086,"lon":7.1871725,"type":"village"},{"id":"473077527","name":"Zangon Yia","lat":14.128307,"lon":7.398556,"type":"village"},{"id":"473077528","name":"Zangon Kanta","lat":14.118964,"lon":7.424176,"type":"village"},{"id":"473077529","name":"Zangon Kané","lat":14.1384491,"lon":7.4294195,"type":"village"},{"id":"473077530","name":"Yérima","lat":14.227826,"lon":7.416926,"type":"village"},{"id":"473077532","name":"Iabakinka","lat":14.198936,"lon":7.506862,"type":"village"},{"id":"473077533","name":"Tosa","lat":14.1314125,"lon":7.491939,"type":"village"},{"id":"473077534","name":"Tawourinsaki","lat":14.212328,"lon":7.394294,"type":"village"},{"id":"473077535","name":"Souloulou","lat":14.315708,"lon":7.416497,"type":"village"},{"id":"473077536","name":"Sangalgala","lat":14.336209,"lon":7.368305,"type":"village"},{"id":"473077537","name":"Sami","lat":14.211432,"lon":7.52721,"type":"village"},{"id":"473077538","name":"Salé","lat":14.1928035,"lon":7.5806365,"type":"village"},{"id":"473077539","name":"Maykoulaha","lat":14.165026,"lon":7.493226,"type":"village"},{"id":"473077540","name":"Maykiéléwa","lat":14.2289635,"lon":7.4447555,"type":"village"},{"id":"473077541","name":"May Guizo","lat":14.2996655,"lon":7.4781525,"type":"village"},{"id":"473077548","name":"Maybagay","lat":14.15584,"lon":7.4471145,"type":"village"},{"id":"473077549","name":"Mahaman","lat":14.21485,"lon":7.57246,"type":"village"},{"id":"473077551","name":"Kwarou","lat":14.1295011,"lon":7.4458545,"type":"village"},{"id":"473077553","name":"Loso","lat":14.269605,"lon":7.4904155,"type":"village"},{"id":"473077555","name":"Kouiya","lat":14.296189,"lon":7.368918,"type":"village"},{"id":"473077557","name":"Kourou Kourou","lat":14.167564,"lon":7.367403,"type":"village"},{"id":"473077558","name":"Kowhasamo","lat":14.288715,"lon":7.512536,"type":"village"},{"id":"473077560","name":"Kasou","lat":14.188587,"lon":7.554847,"type":"village"},{"id":"473077562","name":"Kalgon Gaya","lat":14.264235,"lon":7.378569,"type":"village"},{"id":"473077564","name":"Kandili","lat":14.2882757,"lon":7.5298138,"type":"village"},{"id":"473077565","name":"Gijongo","lat":14.1420485,"lon":7.5440215,"type":"village"},{"id":"473077567","name":"Janrwa","lat":14.2624019,"lon":7.5881643,"type":"village"},{"id":"473077569","name":"Guidan Soli","lat":14.312175,"lon":7.383201,"type":"village"},{"id":"473077571","name":"Guidan Wajé","lat":14.158205,"lon":7.570839,"type":"village"},{"id":"473077573","name":"Guidan Matou","lat":14.2635525,"lon":7.434149,"type":"village"},{"id":"473077574","name":"Guidan Néno","lat":14.2096045,"lon":7.490929,"type":"village"},{"id":"473077575","name":"Guidan Labo","lat":14.2207098,"lon":7.4338233,"type":"village"},{"id":"473077576","name":"Guidan Laséyni","lat":14.2671495,"lon":7.418659,"type":"village"},{"id":"473077577","name":"Guidan Koré","lat":14.104205,"lon":7.440669,"type":"village"},{"id":"473077578","name":"Guidan Kaka","lat":14.243882,"lon":7.42969,"type":"village"},{"id":"473077579","name":"Guidan Kwari","lat":14.220887,"lon":7.5541655,"type":"village"},{"id":"473077580","name":"Guidan Kouré","lat":14.109874,"lon":7.513366,"type":"village"},{"id":"473077581","name":"Guidan Hakourao","lat":14.1305925,"lon":7.5172135,"type":"village"},{"id":"473077583","name":"Guilmago","lat":14.266991,"lon":7.454573,"type":"village"},{"id":"473077584","name":"Guidan Jalili","lat":14.228112,"lon":7.498301,"type":"village"},{"id":"473077586","name":"Guidan Isa","lat":14.1091186,"lon":7.5643645,"type":"village"},{"id":"473077587","name":"Guidan Doutchi","lat":14.175085,"lon":7.3964805,"type":"village"},{"id":"473077588","name":"Guidan Chantali","lat":14.3215965,"lon":7.5726965,"type":"village"},{"id":"473077589","name":"Guidan Ganao","lat":14.115784,"lon":7.5945507,"type":"village"},{"id":"473077591","name":"Guidan Galadima","lat":14.3035575,"lon":7.432533,"type":"village"},{"id":"473077592","name":"Guidan Bara","lat":14.210523,"lon":7.5978728,"type":"village"},{"id":"473077593","name":"Guidan Baoura","lat":14.228907,"lon":7.560981,"type":"village"},{"id":"473077595","name":"Guidan Boubé","lat":14.232863,"lon":7.386537,"type":"village"},{"id":"473077596","name":"Guidan Barmo","lat":14.333949,"lon":7.392819,"type":"village"},{"id":"473077597","name":"Guidan Amoumou","lat":14.261611,"lon":7.3891095,"type":"village"},{"id":"473077598","name":"Guidan Ango","lat":14.206122,"lon":7.367483,"type":"village"},{"id":"473077599","name":"Guidan Anna","lat":14.1020745,"lon":7.5334605,"type":"village"},{"id":"473077601","name":"Guidan Bakoy","lat":14.327605,"lon":7.375893,"type":"village"},{"id":"473077603","name":"Gardi","lat":14.210437,"lon":7.461767,"type":"village"},{"id":"473077604","name":"Guidan Agali","lat":14.2035765,"lon":7.458033,"type":"village"},{"id":"473077606","name":"Guidan Ali","lat":14.247828,"lon":7.418323,"type":"village"},{"id":"473077608","name":"Guidan Aman","lat":14.14357,"lon":7.375434,"type":"village"},{"id":"473077609","name":"Dan Yia","lat":14.111435,"lon":7.472274,"type":"village"},{"id":"473077611","name":"Dan Zabaya","lat":14.325982,"lon":7.457674,"type":"village"},{"id":"473077614","name":"Dan Zabo","lat":14.1910415,"lon":7.3805245,"type":"village"},{"id":"473077615","name":"Gakwéy","lat":14.1612135,"lon":7.5223695,"type":"village"},{"id":"473077617","name":"Dan Kisko","lat":14.1350215,"lon":7.388761,"type":"village"},{"id":"473077619","name":"Dan Sara","lat":14.163664,"lon":7.5455165,"type":"village"},{"id":"473077620","name":"Dan Tchili","lat":14.1968282,"lon":7.4387308,"type":"village"},{"id":"473077622","name":"Dan Toudou","lat":14.2662869,"lon":7.5323596,"type":"village"},{"id":"473077624","name":"Bouzou Sougoné","lat":14.256436,"lon":7.5556995,"type":"village"},{"id":"473077626","name":"Batchyéri","lat":14.1426303,"lon":7.5884949,"type":"village"},{"id":"473077628","name":"Arjika","lat":14.330826,"lon":7.534737,"type":"village"},{"id":"473077630","name":"Arji","lat":14.310375,"lon":7.532788,"type":"village"},{"id":"473077632","name":"Dan Kandé","lat":14.0993035,"lon":7.475455,"type":"village"},{"id":"473077634","name":"Dan Gao","lat":14.3153145,"lon":7.4925095,"type":"village"},{"id":"473077636","name":"Dan Douna","lat":14.25395,"lon":7.48067,"type":"village"},{"id":"473077637","name":"Dan Barno","lat":14.2163115,"lon":7.4129285,"type":"village"},{"id":"473077639","name":"Ardo Aléké","lat":14.170291,"lon":7.49183,"type":"village"},{"id":"473077641","name":"Amo","lat":14.144125,"lon":7.515516,"type":"village"},