[{"id":"27565036","name":"Ọ̀yọ́","lat":7.8410537,"lon":3.9315363,"type":"city"},{"id":"27565054","name":"Ogbomosho","lat":8.133,"lon":4.25,"type":"city"},{"id":"27565065","name":"Port Harcourt","lat":4.7676576,"lon":7.0188527,"type":"city"},{"id":"27565066","name":"Ìbàdàn","lat":7.3786064,"lon":3.8969928,"type":"city"},{"id":"27565089","name":"Ìlọrin","lat":8.4963657,"lon":4.5480484,"type":"city"},{"id":"27565091","name":"Kaduna","lat":10.5182899,"lon":7.4359863,"type":"city"},{"id":"27565107","name":"Enugu","lat":6.4496519,"lon":7.5136856,"type":"city"},{"id":"27565109","name":"Abeokuta","lat":7.161,"lon":3.348,"type":"city"},{"id":"27565111","name":"Maiduguri","lat":11.8395375,"lon":13.1536214,"type":"city"},{"id":"27565124","name":"Lagos","lat":6.4550575,"lon":3.3941795,"type":"city"},{"id":"31203257","name":"Abuja","lat":9.0643305,"lon":7.4892974,"type":"city"},{"id":"245914677","name":"Yenagoa","lat":4.9334651,"lon":6.2747786,"type":"city"},{"id":"251608378","name":"Calabar","lat":4.9795999,"lon":8.3373597,"type":"city"},{"id":"255322295","name":"Potiskum","lat":11.7122553,"lon":11.0762744,"type":"city"},{"id":"255425308","name":"Bauchi","lat":10.3147618,"lon":9.8454417,"type":"city"},{"id":"312045131","name":"Jalingo","lat":8.894985,"lon":11.360042,"type":"city"},{"id":"312045158","name":"Makurdi","lat":7.7312634,"lon":8.538425,"type":"city"},{"id":"317914214","name":"Akugba","lat":7.4617211,"lon":5.7330592,"type":"town"},{"id":"317967216","name":"Akwanga","lat":8.9112888,"lon":8.4080322,"type":"town"},{"id":"317967219","name":"Lafia","lat":8.4960459,"lon":8.5147636,"type":"city"},{"id":"318084136","name":"Nagazi","lat":7.5981262,"lon":6.2317518,"type":"town"},{"id":"318085912","name":"Ikole","lat":7.7888484,"lon":5.5050471,"type":"town"},{"id":"318086596","name":"Ijan","lat":7.6220257,"lon":5.3919351,"type":"town"},{"id":"318095353","name":"Koi","lat":9.4536181,"lon":8.0105654,"type":"town"},{"id":"319292827","name":"Dutsen Alhaji","lat":9.1399589,"lon":7.3726609,"type":"town"},{"id":"330861062","name":"Saki","lat":8.6742435,"lon":3.397191,"type":"town"},{"id":"330996381","name":"Wuya","lat":9.1392964,"lon":5.8227761,"type":"town"},{"id":"413128703","name":"Dutsen","lat":10.8415156,"lon":8.2036892,"type":"village"},{"id":"413128705","name":"Soba","lat":10.9832503,"lon":8.0588025,"type":"village"},{"id":"462025382","name":"Kaura-Namoda","lat":12.5941248,"lon":6.5860718,"type":"town"},{"id":"463570158","name":"Kan Rafi","lat":10.6000393,"lon":7.6163549,"type":"village"},{"id":"469220680","name":"Damasak","lat":13.1039982,"lon":12.5106188,"type":"town"},{"id":"469220976","name":"Gajiram","lat":12.4911,"lon":13.2122,"type":"town"},{"id":"469221065","name":"Kukawa","lat":12.924753,"lon":13.566168,"type":"town"},{"id":"469246769","name":"Dakingari","lat":11.6449942,"lon":4.0615253,"type":"town"},{"id":"469247299","name":"Kaingiwa","lat":12.5533464,"lon":3.8175265,"type":"town"},{"id":"469351704","name":"Kaita","lat":13.0843917,"lon":7.7409715,"type":"town"},{"id":"469369303","name":"Machina","lat":13.1366163,"lon":10.0491736,"type":"town"},{"id":"469369817","name":"Gumsi","lat":13.1721811,"lon":10.2561043,"type":"village"},{"id":"469753027","name":"Dan Mani","lat":13.2994823,"lon":6.7100475,"type":"village"},{"id":"472325236","name":"Koundoukoundou","lat":13.178641,"lon":13.9748922,"type":"village"},{"id":"472457829","name":"Dantika","lat":13.3613427,"lon":6.6699112,"type":"village"},{"id":"472483620","name":"Rouda","lat":13.2076253,"lon":12.5373155,"type":"village"},{"id":"473684024","name":"Guidan Ahmed","lat":13.6533911,"lon":6.1336347,"type":"village"},{"id":"473696500","name":"Fiega Balargé","lat":13.3555624,"lon":12.7517064,"type":"village"},{"id":"473696645","name":"Nakin Tawingo","lat":13.603935,"lon":13.2509275,"type":"village"},{"id":"473850951","name":"Tabkin Kiria","lat":13.3098899,"lon":6.7062165,"type":"village"},{"id":"473850956","name":"Malam","lat":13.2449491,"lon":6.7554867,"type":"village"},{"id":"473850958","name":"Guidan Asan","lat":13.3281116,"lon":6.6875454,"type":"village"},{"id":"473850962","name":"Fangari","lat":13.2979426,"lon":6.7187247,"type":"village"},{"id":"473850978","name":"Guidan Labou","lat":13.4203289,"lon":6.6098488,"type":"village"},{"id":"473852085","name":"Doutchi Koûrâ","lat":13.1013491,"lon":7.3554463,"type":"village"},{"id":"473852086","name":"Dan Abdallah","lat":13.0896218,"lon":7.1865938,"type":"village"},{"id":"473852089","name":"Garin Kaoura","lat":13.0643504,"lon":7.1706104,"type":"village"},{"id":"473852093","name":"May Daboro","lat":13.1080693,"lon":7.3028722,"type":"village"},{"id":"473857349","name":"Dan Baba","lat":13.2784449,"lon":8.1401825,"type":"village"},{"id":"476808332","name":"Damba","lat":10.484144,"lon":7.2100135,"type":"village"},{"id":"476808904","name":"Kadi","lat":10.4525776,"lon":7.2541305,"type":"village"},{"id":"476809250","name":"Tagwaye","lat":10.5057432,"lon":7.3071166,"type":"village"},{"id":"476810229","name":"Tudu","lat":10.4667575,"lon":7.3521491,"type":"village"},{"id":"476818617","name":"Afaka","lat":10.6666303,"lon":7.3877993,"type":"village"},{"id":"476827148","name":"Rigachikum","lat":10.6403478,"lon":7.4721991,"type":"village"},{"id":"476832912","name":"Rihogi","lat":10.6253745,"lon":7.5805174,"type":"village"},{"id":"476838629","name":"Kan Girni","lat":10.739027,"lon":7.5967394,"type":"village"},{"id":"476840558","name":"Amana","lat":10.7319434,"lon":7.662829,"type":"village"},{"id":"476848495","name":"Kakau","lat":10.3762032,"lon":7.3957852,"type":"village"},{"id":"481404438","name":"Samaru","lat":11.1653607,"lon":7.6516217,"type":"village"},{"id":"482143696","name":"Kenieba","lat":12.8564377,"lon":11.2415847,"type":"village"},{"id":"483571821","name":"Azare","lat":11.6729045,"lon":10.1918308,"type":"town"},{"id":"496091921","name":"Kaiama","lat":9.6099484,"lon":3.9414245,"type":"town"},{"id":"496092553","name":"Wawa","lat":9.9037231,"lon":4.4100975,"type":"town"},{"id":"496094518","name":"Shangunu","lat":10.3408166,"lon":4.4692832,"type":"town"},{"id":"496099878","name":"Babana","lat":10.433683,"lon":3.8181716,"type":"town"},{"id":"496103825","name":"Rofia","lat":10.7121403,"lon":4.7094317,"type":"village"},{"id":"496290049","name":"Konwesso","lat":10.8998309,"lon":4.2943156,"type":"village"},{"id":"497045433","name":"Faku","lat":9.8536826,"lon":4.6135021,"type":"village"},{"id":"497055309","name":"Gurai","lat":9.6283927,"lon":3.2927872,"type":"village"},{"id":"497055576","name":"Yashikera","lat":9.7713582,"lon":3.3983586,"type":"village"},{"id":"497056008","name":"Sare","lat":9.7075746,"lon":3.3720944,"type":"village"},{"id":"497056633","name":"Gbani","lat":9.5274941,"lon":3.3379338,"type":"village"},{"id":"497059166","name":"Gwasero","lat":9.4875385,"lon":3.5059903,"type":"village"},{"id":"497071700","name":"Kenu","lat":9.1081593,"lon":3.1122191,"type":"village"},{"id":"501193829","name":"Uyo","lat":5.0322447,"lon":7.924791,"type":"city"},{"id":"501253172","name":"Alamoji","lat":7.664568,"lon":5.2480027,"type":"town"},{"id":"501254449","name":"Pelguji","lat":10.187968,"lon":10.86717,"type":"village"},{"id":"501267628","name":"Goulbin Ka","lat":11.6932485,"lon":4.4114328,"type":"village"},{"id":"501271774","name":"Elelenwo","lat":4.8499091,"lon":7.0667072,"type":"town"},{"id":"501271858","name":"Duwop","lat":9.4151725,"lon":9.2161348,"type":"village"},{"id":"501280697","name":"Maromarum","lat":13.0717674,"lon":5.189943,"type":"village"},{"id":"501292948","name":"Korokopogbene","lat":4.6556604,"lon":5.7119425,"type":"village"},{"id":"501295006","name":"Central Shen","lat":9.7665698,"lon":8.9500044,"type":"village"},{"id":"501328810","name":"Dunba","lat":12.1450771,"lon":6.7429328,"type":"village"},{"id":"501328833","name":"Abulabiri","lat":4.7048317,"lon":6.2790389,"type":"village"},{"id":"501328885","name":"Doro Gowon","lat":13.117302,"lon":13.8604144,"type":"town"},{"id":"501328904","name":"Foliwa","lat":13.4902807,"lon":13.3261665,"type":"village"},{"id":"501328932","name":"Dutsen Kam","lat":11.116667,"lon":9.85,"type":"village"},{"id":"501328966","name":"Marikishi","lat":9.55,"lon":6.65,"type":"village"},{"id":"501328998","name":"Lafanichiwake","lat":13.7529335,"lon":5.4248796,"type":"village"},{"id":"501329006","name":"Barakin","lat":9.533333,"lon":8.9,"type":"village"},{"id":"501329030","name":"Ngbalang","lat":9.517869,"lon":12.021804,"type":"village"},{"id":"501329048","name":"Sabon Birni","lat":12.4640064,"lon":4.769154,"type":"village"},{"id":"501329248","name":"Asafo","lat":6.799071,"lon":2.9309877,"type":"village"},{"id":"501329254","name":"Longo Makera","lat":12.5125403,"lon":5.0693921,"type":"village"},{"id":"501329283","name":"Ipetu","lat":7.466667,"lon":4.883333,"type":"village"},{"id":"501329355","name":"Dadin Sarki","lat":13.2056334,"lon":8.2233975,"type":"village"},{"id":"501329389","name":"Ososa","lat":6.794565,"lon":3.8559855,"type":"village"},{"id":"501329415","name":"Odo-Mola","lat":6.6071265,"lon":3.9855455,"type":"village"},{"id":"501329425","name":"Itamaga","lat":6.631181,"lon":3.5328165,"type":"village"},{"id":"501329546","name":"Ogonokom","lat":4.7910965,"lon":6.7091815,"type":"village"},{"id":"501329637","name":"Kala Orubou","lat":4.3860475,"lon":6.2451715,"type":"village"},{"id":"501329676","name":"Gandabura","lat":11.6531,"lon":11.0693,"type":"village"},{"id":"501329683","name":"Kureke","lat":6.4752033,"lon":9.4483767,"type":"village"},{"id":"501329707","name":"Gari","lat":12.8723133,"lon":10.4418274,"type":"village"},{"id":"501329795","name":"Asa-Oke-Oko","lat":6.9365185,"lon":3.077493,"type":"village"},{"id":"501329825","name":"Araromi-Tope","lat":6.5096182,"lon":3.7882679,"type":"village"},{"id":"501329833","name":"Kukun","lat":11.4164658,"lon":5.1832397,"type":"village"},{"id":"501329842","name":"Danrenge","lat":11.275415,"lon":5.2766054,"type":"village"},{"id":"501329853","name":"Okobor","lat":4.884909,"lon":6.6176415,"type":"village"},{"id":"501329908","name":"Ninowa","lat":11.0099442,"lon":11.4420959,"type":"village"},{"id":"501329985","name":"Akodo","lat":6.435457,"lon":3.9302655,"type":"village"},{"id":"501330003","name":"Okpoma","lat":4.3027835,"lon":6.2933112,"type":"town"},{"id":"501330016","name":"Lelekiri","lat":4.6633367,"lon":6.7770521,"type":"village"},{"id":"501330021","name":"Layemi","lat":6.7947672,"lon":3.3152176,"type":"village"},{"id":"501330050","name":"Bam","lat":11.7576023,"lon":11.4961726,"type":"village"},{"id":"501330073","name":"Arapagi","lat":6.5090333,"lon":3.7771754,"type":"village"},{"id":"501330080","name":"Agura","lat":6.5750627,"lon":3.6293858,"type":"village"},{"id":"501330113","name":"Marke","lat":11.7196877,"lon":11.2172727,"type":"village"},{"id":"501330192","name":"Maimazari Katawa","lat":12.5689332,"lon":8.6149607,"type":"village"},{"id":"501330201","name":"Egbedeama","lat":4.7724482,"lon":6.2362306,"type":"village"},{"id":"501330207","name":"Frankkiri","lat":4.449329,"lon":6.605368,"type":"village"},{"id":"501330228","name":"Bagega","lat":11.8650174,"lon":6.0025358,"type":"village"},{"id":"501330251","name":"Cana","lat":11.4603,"lon":11.0249,"type":"village"},{"id":"501330271","name":"Sare","lat":6.987196,"lon":3.3405555,"type":"village"},{"id":"501330326","name":"Alapoti","lat":6.632027,"lon":3.028698,"type":"village"},{"id":"501330348","name":"Masholari","lat":11.8483838,"lon":11.5734539,"type":"village"},{"id":"501330380","name":"Sagamu","lat":6.8477165,"lon":3.6440551,"type":"city"},{"id":"501330508","name":"Omu","lat":6.495316,"lon":3.9735995,"type":"village"},{"id":"501330522","name":"Mingidukiri","lat":4.6241628,"lon":6.8360073,"type":"village"},{"id":"501330545","name":"Ewekoro","lat":6.907079,"lon":3.208703,"type":"village"},{"id":"501330568","name":"Kalalawa","lat":11.9389,"lon":11.8614,"type":"village"},{"id":"501330597","name":"Lengikiri","lat":4.5739397,"lon":6.2890368,"type":"village"},{"id":"501330614","name":"Ondewari","lat":4.7721365,"lon":6.0095113,"type":"village"},{"id":"501330624","name":"Ipatira","lat":6.5516734,"lon":3.1605905,"type":"village"},{"id":"501330656","name":"Anyama","lat":4.759865,"lon":6.2308988,"type":"village"},{"id":"501330695","name":"Dogon Bauci","lat":11.3258944,"lon":11.4778168,"type":"village"},{"id":"501330729","name":"Ipirigbene","lat":4.6884712,"lon":6.1561193,"type":"village"},{"id":"501330754","name":"Ibafo","lat":6.7424415,"lon":3.421874,"type":"village"},{"id":"501330779","name":"Gaudi","lat":11.8277245,"lon":5.4328469,"type":"village"},{"id":"501330808","name":"Rinjim Mukur","lat":10.1293656,"lon":9.2718301,"type":"village"},{"id":"501330814","name":"Abonnema","lat":4.708438,"lon":6.79307,"type":"village"},{"id":"501330823","name":"Yarumen Dan Galadima","lat":13.0110108,"lon":4.9975522,"type":"village"},{"id":"501330869","name":"Odiama","lat":4.3290975,"lon":6.43082,"type":"village"},{"id":"501330885","name":"Isola","lat":6.8354955,"lon":3.323469,"type":"village"},{"id":"501330905","name":"Ibon","lat":6.5457965,"lon":3.7392977,"type":"village"},{"id":"501330922","name":"Chibiyayi","lat":12.0087,"lon":10.2218,"type":"village"},{"id":"501330956","name":"Musari","lat":12.4742,"lon":10.4432,"type":"village"},{"id":"501330961","name":"Dansabo","lat":11.9694055,"lon":7.1610728,"type":"village"},{"id":"501331001","name":"Odokoro","lat":7.9452945,"lon":5.997953,"type":"village"},{"id":"501331008","name":"Iye","lat":7.9556175,"lon":5.2364945,"type":"village"},{"id":"501331063","name":"Nassarawa","lat":11.9563428,"lon":7.0762269,"type":"village"},{"id":"501331083","name":"Iyara","lat":7.8429885,"lon":5.9739825,"type":"village"},{"id":"501331099","name":"Oke Igbira","lat":7.8132849,"lon":5.5641165,"type":"town"},{"id":"501331105","name":"Odo-Igbira","lat":7.8157083,"lon":5.5805273,"type":"village"},{"id":"501331167","name":"Tarajim","lat":12.0238962,"lon":10.9567211,"type":"village"},{"id":"501331202","name":"Ode","lat":7.7899,"lon":5.7117,"type":"village"},{"id":"501331235","name":"Are-Ekiti","lat":7.7101,"lon":5.2998,"type":"village"},{"id":"501331249","name":"Abua","lat":4.8559516,"lon":6.6457627,"type":"town"},{"id":"501331256","name":"Igede-Ekiti","lat":7.6676114,"lon":5.1263452,"type":"town"},{"id":"501331289","name":"Eyio Ekiti","lat":7.7284,"lon":5.1827,"type":"village"},{"id":"501331305","name":"Oke Agbe","lat":7.641575,"lon":5.7610207,"type":"town"},{"id":"501331313","name":"Ode","lat":7.6456705,"lon":5.552041,"type":"village"},{"id":"501331328","name":"Gajari Jenawa","lat":13.1208286,"lon":4.7426175,"type":"village"},{"id":"501331343","name":"Adeyokun","lat":6.978322,"lon":3.5218135,"type":"village"},{"id":"501331380","name":"Garmakwa Yamma","lat":12.6952,"lon":10.504,"type":"village"},{"id":"501331386","name":"Hardo Buba","lat":12.7363,"lon":10.0932,"type":"village"},{"id":"501331485","name":"Gurka","lat":12.3529,"lon":10.2374,"type":"village"},{"id":"501331505","name":"Kafin Gwandu","lat":10.2956975,"lon":9.1152936,"type":"village"},{"id":"501331531","name":"Obuton","lat":5.7046315,"lon":8.4344885,"type":"village"},{"id":"501331538","name":"Leke-Onueme","lat":6.7193,"lon":7.6424,"type":"village"},{"id":"501331575","name":"Okom Ita","lat":5.3358965,"lon":8.332044,"type":"village"},{"id":"501331608","name":"Ukoshie","lat":6.5547,"lon":9.1231,"type":"village"},{"id":"501331616","name":"Yajiwa","lat":11.3862517,"lon":12.7201035,"type":"village"},{"id":"501331633","name":"Bulabulin Ngaburawa","lat":11.3904861,"lon":12.9087288,"type":"village"},{"id":"501331663","name":"Ekongahaku","lat":5.0564507,"lon":8.6232588,"type":"village"},{"id":"501331673","name":"Ekukata","lat":5.8568849,"lon":8.8789,"type":"village"},{"id":"501331735","name":"Gwagwari","lat":11.2459,"lon":12.1215,"type":"village"},{"id":"501331743","name":"Fai","lat":11.294517,"lon":12.664993,"type":"village"},{"id":"501331763","name":"Mkpani","lat":5.82345,"lon":8.1572605,"type":"town"},{"id":"501331784","name":"Gashua","lat":12.8728546,"lon":11.0387809,"type":"city"},{"id":"501331802","name":"Garin Alkali","lat":12.8369138,"lon":11.0660442,"type":"village"},{"id":"501331835","name":"Nachi","lat":6.2848,"lon":7.3386,"type":"town"},{"id":"501331851","name":"Umuka","lat":6.0144,"lon":7.8835,"type":"village"},{"id":"501331886","name":"Nallewa","lat":12.7518,"lon":11.8933,"type":"village"},{"id":"501331902","name":"Damaia","lat":12.7957158,"lon":11.5375783,"type":"village"},{"id":"501331910","name":"Nwofia","lat":6.1882,"lon":7.0161,"type":"village"},{"id":"501331978","name":"Ago-Oka","lat":7.332,"lon":5.6837,"type":"village"},{"id":"501332037","name":"Umualu Ugwoioba","lat":6.2443,"lon":7.1665,"type":"village"},{"id":"501332093","name":"Ago-Julia","lat":7.2881,"lon":5.0095,"type":"village"},{"id":"501332121","name":"Ode Oke","lat":7.935224,"lon":5.0348135,"type":"village"},{"id":"501332154","name":"Umuezeaka","lat":6.196866,"lon":7.9733858,"type":"village"},{"id":"501332161","name":"Nara Unateze","lat":6.2139215,"lon":7.655137,"type":"village"},{"id":"501332173","name":"Umulokpa","lat":6.5062,"lon":7.1002,"type":"village"},{"id":"501332180","name":"Awaiye","lat":7.0178963,"lon":5.1449204,"type":"village"},{"id":"501332352","name":"Ugwaka","lat":6.946,"lon":7.2386,"type":"village"},{"id":"501332364","name":"Aifam","lat":6.9775,"lon":7.7202,"type":"village"},{"id":"501332377","name":"Uburu","lat":6.044504,"lon":7.7692054,"type":"village"},{"id":"501332392","name":"Owena-Egbeda","lat":7.0065,"lon":5.0187,"type":"village"},{"id":"501332406","name":"Abababubu","lat":7.0953116,"lon":5.0093715,"type":"village"},{"id":"501332413","name":"Obatedo","lat":7.1055805,"lon":5.0435387,"type":"village"},{"id":"501332456","name":"Okpon","lat":5.1465,"lon":8.414,"type":"village"},{"id":"501332515","name":"Ndon Nwong","lat":5.195,"lon":8.169,"type":"village"},{"id":"501332528","name":"Nkpan Uruk","lat":5.2165655,"lon":8.076203,"type":"village"},{"id":"501332543","name":"Okorroba","lat":5.6053752,"lon":8.8225039,"type":"village"},{"id":"501332550","name":"Fulatari","lat":12.0668,"lon":11.1493,"type":"village"},{"id":"501332557","name":"Madawun","lat":12.1099393,"lon":11.030807,"type":"village"},{"id":"501332565","name":"Bindigi","lat":12.1848625,"lon":11.2496757,"type":"village"},{"id":"501332583","name":"Mgbaukwu","lat":6.1426,"lon":7.0744,"type":"village"},{"id":"501332620","name":"Ilemo","lat":7.0793838,"lon":5.0995301,"type":"village"},{"id":"501332646","name":"Ago Aduloju","lat":7.603812,"lon":5.3330015,"type":"village"},{"id":"501332654","name":"Oba","lat":7.3730155,"lon":5.7249718,"type":"town"},{"id":"501332687","name":"Akungba","lat":7.4696003,"lon":5.7361985,"type":"village"},{"id":"501332703","name":"Owom","lat":5.5461337,"lon":8.7981344,"type":"village"},{"id":"501332710","name":"Ndebiji","lat":5.5878899,"lon":8.8214716,"type":"village"},{"id":"501332743","name":"Obudu","lat":6.6682429,"lon":9.1684558,"type":"town"},{"id":"501332825","name":"Ireje","lat":7.5955366,"lon":5.2524267,"type":"village"},{"id":"501332838","name":"Nyakasang","lat":5.1395,"lon":8.2116,"type":"village"},{"id":"501332860","name":"Onyen Okpon","lat":5.9748775,"lon":8.4727092,"type":"village"},{"id":"501332876","name":"Akpoha-Igbo","lat":5.992937,"lon":8.0122345,"type":"village"},{"id":"501332893","name":"Neni","lat":6.0826886,"lon":7.0047316,"type":"town"},{"id":"501332939","name":"Ogologo-Olo","lat":6.4095745,"lon":7.1499795,"type":"village"},{"id":"501332944","name":"Umundu","lat":6.8869334,"lon":7.4940778,"type":"village"},{"id":"501332983","name":"Bimi","lat":11.7619978,"lon":12.9338718,"type":"village"},{"id":"501333059","name":"Ndebiji","lat":5.4209302,"lon":8.8119533,"type":"village"},{"id":"501333080","name":"Ewe","lat":5.436713,"lon":8.0046915,"type":"village"},{"id":"501333104","name":"Umudim","lat":6.3364184,"lon":7.3846796,"type":"village"},{"id":"501333146","name":"Wasaram Lawan","lat":11.6321474,"lon":12.3199558,"type":"village"},{"id":"501333256","name":"Ochon","lat":5.9332,"lon":8.4413,"type":"village"},{"id":"501333262","name":"Iwuru Obiontan","lat":5.420663,"lon":8.1768115,"type":"village"},{"id":"501333323","name":"Zokoja","lat":7.802359,"lon":6.7430045,"type":"village"},{"id":"501333336","name":"Etikumi","lat":5.3195269,"lon":8.3967262,"type":"village"},{"id":"501333409","name":"Masta Fanameri","lat":11.5324,"lon":12.99,"type":"village"},{"id":"501333423","name":"Singiokolo Creek","lat":6.6213525,"lon":3.036096,"type":"village"},{"id":"501333474","name":"Egorbiri","lat":4.809369,"lon":6.594623,"type":"village"},{"id":"501333531","name":"Eredo","lat":6.6423569,"lon":3.9898394,"type":"village"},{"id":"501333590","name":"Dogon Daji","lat":10.1246669,"lon":9.2026636,"type":"village"},{"id":"501333621","name":"Iole","lat":7.9504776,"lon":7.5593857,"type":"village"},{"id":"501333647","name":"Lashilaw","lat":7.083333,"lon":2.933333,"type":"village"},{"id":"501333662","name":"Bode Ase","lat":6.55,"lon":2.766667,"type":"village"},{"id":"501333675","name":"Arogun","lat":6.85328,"lon":3.4488135,"type":"village"},{"id":"501333683","name":"Isan Town","lat":6.5180735,"lon":3.6756969,"type":"village"},{"id":"501333720","name":"Gubio","lat":12.4978949,"lon":12.7821926,"type":"town"},{"id":"501333771","name":"Dekina","lat":7.6887069,"lon":7.0333153,"type":"village"},{"id":"501333796","name":"Iyare","lat":7.0398113,"lon":6.5439975,"type":"village"},{"id":"501333936","name":"Ofokopi","lat":7.2785,"lon":6.973673,"type":"village"},{"id":"501333971","name":"Edipe Eke","lat":7.126303,"lon":7.568902,"type":"village"},{"id":"501334011","name":"Gbagede","lat":7.6994931,"lon":6.7784721,"type":"village"},{"id":"501334030","name":"Agbado","lat":7.9185,"lon":6.2681,"type":"village"},{"id":"501334081","name":"Gbashemo","lat":7.033333,"lon":3.65,"type":"village"},{"id":"501334174","name":"Olodo","lat":7.2975619,"lon":3.6126007,"type":"village"},{"id":"501334183","name":"Efafo","lat":7.1961,"lon":7.7047,"type":"village"},{"id":"501334192","name":"Emichi","lat":7.2473,"lon":7.9303,"type":"village"},{"id":"501334201","name":"Falodun","lat":6.75,"lon":5.566667,"type":"village"},{"id":"501334221","name":"Filele","lat":7.8518,"lon":6.7241,"type":"village"},{"id":"501334275","name":"Bitoa","lat":13.3440627,"lon":11.4532205,"type":"village"},{"id":"501334285","name":"Wnioke","lat":7.159,"lon":6.3289,"type":"village"},{"id":"501334293","name":"Imakebu","lat":7.2118,"lon":6.4366,"type":"village"},{"id":"501334338","name":"Idominasi","lat":7.683333,"lon":4.7,"type":"village"},{"id":"501334377","name":"Baala","lat":7.15,"lon":3.533333,"type":"village"},{"id":"501334398","name":"Igan","lat":7.0601513,"lon":2.9028623,"type":"village"},{"id":"501334408","name":"Isokwe","lat":7.2139,"lon":6.4499,"type":"village"},{"id":"501334436","name":"Kewo","lat":7.883333,"lon":4.766667,"type":"village"},{"id":"501334493","name":"Igarra","lat":7.2826833,"lon":6.0878,"type":"village"},{"id":"501334521","name":"Agudakiri","lat":4.4042666,"lon":6.6871147,"type":"village"},{"id":"501334531","name":"Lukosi","lat":7.366667,"lon":4.583333,"type":"village"},{"id":"501334582","name":"Abule Alfa","lat":6.7993227,"lon":2.9671723,"type":"village"},{"id":"501334632","name":"Ologundu","lat":7.266667,"lon":4.866667,"type":"village"},{"id":"501334714","name":"Ipaja","lat":6.8210487,"lon":2.882566,"type":"village"},{"id":"501334722","name":"Tirwun","lat":10.3582418,"lon":9.8831567,"type":"village"},{"id":"501334795","name":"Abudo","lat":7.816667,"lon":4.4,"type":"village"},{"id":"501334824","name":"Uokha","lat":7.0739,"lon":6.0449,"type":"village"},{"id":"501334835","name":"Afana","lat":7.1398353,"lon":6.3912259,"type":"village"},{"id":"501334845","name":"Meke","lat":7.1299437,"lon":6.2587834,"type":"village"},{"id":"501334902","name":"Banimgbe","lat":6.516667,"lon":2.883333,"type":"village"},{"id":"501335040","name":"Ijegge","lat":7.712981,"lon":7.829129,"type":"village"},{"id":"501335181","name":"Oshigbudu","lat":7.83008,"lon":7.870481,"type":"village"},{"id":"501335236","name":"Sabo","lat":7.166667,"lon":3.316667,"type":"village"},{"id":"501335282","name":"Atani Aro","lat":5.4000487,"lon":7.883339,"type":"village"},{"id":"501335341","name":"Kobejo","lat":6.916667,"lon":2.766667,"type":"village"},{"id":"501335350","name":"Ijomu","lat":6.616667,"lon":2.95,"type":"village"},{"id":"501335495","name":"Ayibobiri","lat":5.0803778,"lon":6.2576669,"type":"village"},{"id":"501335509","name":"Dabira","lat":12.5825467,"lon":12.5338472,"type":"village"},{"id":"501335548","name":"Erema","lat":5.216667,"lon":6.7,"type":"village"},{"id":"501335568","name":"Mbiakpaba","lat":4.5660966,"lon":6.2661036,"type":"village"},{"id":"501335599","name":"Iro","lat":6.883333,"lon":3.366667,"type":"village"},{"id":"501335608","name":"Oje","lat":7.333333,"lon":3.1,"type":"village"},{"id":"501335657","name":"Kodera","lat":7.05,"lon":2.8,"type":"village"},{"id":"501335672","name":"Ewokiri","lat":4.568615,"lon":6.3491549,"type":"village"},{"id":"501335813","name":"Kundum","lat":10.4391755,"lon":9.6476753,"type":"village"},{"id":"501335872","name":"Ikoga","lat":6.5168761,"lon":2.9516418,"type":"town"},{"id":"501335892","name":"Oloparun","lat":6.9,"lon":2.933333,"type":"village"},{"id":"501336036","name":"Galagara","lat":10.104109,"lon":9.374829,"type":"village"},{"id":"501336104","name":"Okarki","lat":4.9831176,"lon":6.429248,"type":"village"},{"id":"501336132","name":"Odekiri","lat":4.6672503,"lon":6.5090947,"type":"village"},{"id":"501336141","name":"Owinkiri Kalama","lat":4.737763,"lon":6.8339325,"type":"village"},{"id":"501336151","name":"Abessa","lat":4.9586222,"lon":6.5366209,"type":"village"},{"id":"501336235","name":"Ubaha Oloko","lat":5.366667,"lon":7.5,"type":"village"},{"id":"501336420","name":"Uma","lat":7.1128,"lon":8.8545,"type":"village"},{"id":"501336578","name":"Kari","lat":11.2434723,"lon":10.5590089,"type":"town"},{"id":"501336671","name":"Nyutsa","lat":7.9620762,"lon":8.5685475,"type":"village"},{"id":"501336682","name":"Iliyasu","lat":11.0537595,"lon":10.4452225,"type":"village"},{"id":"501336774","name":"Ortaver","lat":7.9362378,"lon":8.5752301,"type":"village"},{"id":"501336873","name":"Mallemadigo","lat":11.9596,"lon":10.2148,"type":"village"},{"id":"501336924","name":"Gawani","lat":10.0981507,"lon":9.5655126,"type":"village"},{"id":"501337125","name":"Yaor Caro","lat":7.7071,"lon":8.6553,"type":"village"},{"id":"501337340","name":"Zanko","lat":7.5302,"lon":8.0726,"type":"village"},{"id":"501337477","name":"Keri","lat":12.5964407,"lon":8.3481387,"type":"village"},{"id":"501339091","name":"Orhemen Amire","lat":7.6274,"lon":8.909,"type":"village"},{"id":"501339240","name":"Boju-Ega","lat":7.348151,"lon":8.044698,"type":"town"},{"id":"501339311","name":"Gando","lat":7.6122,"lon":8.8469,"type":"village"},{"id":"501339589","name":"Karaye","lat":12.0296662,"lon":4.2725668,"type":"village"},{"id":"501339605","name":"Kamakawo","lat":12.1239705,"lon":4.0020057,"type":"village"},{"id":"501339626","name":"Kamagama","lat":12.7348456,"lon":4.8667778,"type":"village"},{"id":"501339635","name":"Kaikayaje","lat":12.560194,"lon":4.1939825,"type":"village"},{"id":"501339643","name":"Danca","lat":12.7919045,"lon":4.4233052,"type":"village"},{"id":"501339663","name":"Dalwa","lat":12.9765142,"lon":4.3437703,"type":"village"},{"id":"501339684","name":"Dahole","lat":12.4216486,"lon":4.0091952,"type":"village"},{"id":"501339711","name":"Mesani","lat":12.5358901,"lon":4.4735522,"type":"village"},{"id":"501339724","name":"Gunbiri","lat":12.1701628,"lon":4.1077718,"type":"village"},{"id":"501339735","name":"Tunga Lele","lat":12.1603435,"lon":4.1145316,"type":"village"},{"id":"501339761","name":"Tungan Sauna","lat":12.1466289,"lon":4.116544,"type":"village"},{"id":"501339774","name":"Rafin-Naginai","lat":12.0977532,"lon":4.221519,"type":"village"},{"id":"501339797","name":"Runto","lat":12.1117128,"lon":4.0465128,"type":"village"},{"id":"501339812","name":"Gangara","lat":11.3971598,"lon":6.027537,"type":"village"},{"id":"501339851","name":"Dutsin Kura Sauri","lat":11.6717138,"lon":6.7562959,"type":"village"},{"id":"501339942","name":"Katu","lat":11.8917113,"lon":4.2676065,"type":"village"},{"id":"501339976","name":"Sharifuri","lat":10.3164761,"lon":10.5701512,"type":"village"},{"id":"501340036","name":"Jebga","lat":12.1209067,"lon":4.841767,"type":"village"},{"id":"501340048","name":"Illela","lat":12.2545566,"lon":4.3037261,"type":"village"},{"id":"501340082","name":"Busawa","lat":12.544921,"lon":4.9349359,"type":"village"},{"id":"501340096","name":"Birnin Malam","lat":12.1255173,"lon":4.5371391,"type":"village"},{"id":"501340116","name":"Maitsari","lat":12.4574419,"lon":4.5302391,"type":"village"},{"id":"501340127","name":"Bawada","lat":12.4470982,"lon":4.5077721,"type":"village"},{"id":"501340150","name":"Abdul Rahini","lat":12.3937486,"lon":4.527749,"type":"village"},{"id":"501340162","name":"Road Camp","lat":12.3466111,"lon":4.5511509,"type":"village"},{"id":"501340196","name":"Bamungadi","lat":12.1738013,"lon":4.2099433,"type":"village"},{"id":"501340205","name":"Doka Yonga","lat":11.287651,"lon":6.4434309,"type":"village"},{"id":"501340213","name":"Doka","lat":11.457788,"lon":6.3062682,"type":"village"},{"id":"501340239","name":"Ugborikoko","lat":5.5370568,"lon":5.764538,"type":"village"},{"id":"501340249","name":"Dungere","lat":11.2442458,"lon":4.3449798,"type":"village"},{"id":"501340353","name":"Ungwan Matangi","lat":10.717575,"lon":8.282243,"type":"village"},{"id":"501340376","name":"Gari Danteni","lat":11.5501304,"lon":4.9754725,"type":"village"},{"id":"501340386","name":"Gayewa","lat":11.5169635,"lon":4.9256494,"type":"village"},{"id":"501340413","name":"Shagiya","lat":11.3939459,"lon":4.9886823,"type":"village"},{"id":"501340422","name":"Makeri","lat":11.3746161,"lon":4.9654156,"type":"village"},{"id":"501340454","name":"Kadoli","lat":10.3044903,"lon":10.7407667,"type":"village"},{"id":"501340458","name":"Jerkam","lat":10.8042371,"lon":10.9095338,"type":"village"},{"id":"501340487","name":"Bungan Ningi","lat":11.0554086,"lon":9.6383579,"type":"village"},{"id":"501340515","name":"Harasawa","lat":12.4272024,"lon":4.247217,"type":"village"},{"id":"501340532","name":"Gwombe","lat":12.5283035,"lon":4.7298147,"type":"village"},{"id":"501340553","name":"Bayawa","lat":12.843949,"lon":4.6913041,"type":"village"},{"id":"501340562","name":"Bangara","lat":12.8354277,"lon":4.629904,"type":"village"},{"id":"501340581","name":"Masawari","lat":12.3315853,"lon":4.7117974,"type":"village"},{"id":"501340590","name":"Illela","lat":12.3919949,"lon":4.7492167,"type":"village"},{"id":"501340596","name":"Ungwan Dabagudu","lat":12.3664607,"lon":4.7427209,"type":"village"},{"id":"501340643","name":"Sofo-Birnin-Gwari","lat":11.015374,"lon":6.780358,"type":"village"},{"id":"501340654","name":"Bilbi","lat":11.813276,"lon":6.990841,"type":"village"},{"id":"501340662","name":"Angwan Nababa","lat":11.2267279,"lon":6.5147162,"type":"village"},{"id":"501340680","name":"Angwan Jikambara","lat":11.3892592,"lon":6.5174496,"type":"village"},{"id":"501340700","name":"Okrufor-Okpara","lat":5.6446754,"lon":5.9462634,"type":"village"},{"id":"501340729","name":"Ighwrenene","lat":5.5251941,"lon":5.9888069,"type":"village"},{"id":"501340745","name":"Shuni","lat":12.945926,"lon":5.2854565,"type":"village"},{"id":"501340754","name":"Ruwan Gora","lat":12.3702908,"lon":5.8638857,"type":"village"},{"id":"501340808","name":"Madara","lat":12.3713263,"lon":4.8295636,"type":"village"},{"id":"501340824","name":"Gumawa","lat":12.2940158,"lon":4.2305365,"type":"village"},{"id":"501340841","name":"Goru","lat":12.3968456,"lon":4.1999093,"type":"village"},{"id":"501340861","name":"Bagoni","lat":12.8176971,"lon":4.4730995,"type":"village"},{"id":"501340879","name":"Bagare","lat":12.508862,"lon":4.686042,"type":"village"},{"id":"501340895","name":"Samna","lat":12.8620545,"lon":4.5799851,"type":"village"},{"id":"501340905","name":"Tung Fara","lat":12.4312228,"lon":4.724801,"type":"village"},{"id":"501340915","name":"Kanawo Adarawa","lat":12.3221293,"lon":4.6605612,"type":"village"},{"id":"501340936","name":"Gidan Tudu","lat":12.4880923,"lon":4.9046273,"type":"village"},{"id":"501340947","name":"Gandu","lat":12.3720223,"lon":4.8187821,"type":"village"},{"id":"501340975","name":"Oporopogbene","lat":4.4824879,"lon":5.9186853,"type":"village"},{"id":"501341082","name":"Unguwar Masama","lat":10.6688612,"lon":8.703408,"type":"village"},{"id":"501341120","name":"Dogon Kade","lat":11.3276977,"lon":4.407103,"type":"village"},{"id":"501341126","name":"Tunga Zabaruma","lat":11.3067209,"lon":4.3640305,"type":"village"},{"id":"501341139","name":"Tangarawu","lat":11.2981543,"lon":4.3861921,"type":"village"},{"id":"501341146","name":"Tunga Mailafia","lat":11.3983988,"lon":4.2732039,"type":"village"},{"id":"501341218","name":"Babban Kwari","lat":12.0016172,"lon":4.1491039,"type":"village"},{"id":"501341267","name":"Tungar Zazzagawa","lat":12.7045906,"lon":4.3673409,"type":"village"},{"id":"501341275","name":"Dogon-Kade","lat":12.0616698,"lon":4.9730653,"type":"village"},{"id":"501341316","name":"Tudun Jatau","lat":10.755465,"lon":7.298329,"type":"village"},{"id":"501341355","name":"Ajasolo","lat":5.7897897,"lon":5.5775603,"type":"village"},{"id":"501341392","name":"Gelawa","lat":11.25734,"lon":4.6500086,"type":"village"},{"id":"501341410","name":"Tagwaye","lat":10.26707,"lon":8.5688643,"type":"village"},{"id":"501341445","name":"Rafi Alhaji","lat":11.3656432,"lon":4.4786278,"type":"village"},{"id":"501341493","name":"Homa","lat":11.1658689,"lon":4.520369,"type":"village"},{"id":"501341528","name":"Kurfa","lat":12.2044303,"lon":4.9910752,"type":"village"},{"id":"501341550","name":"Koya","lat":12.6538372,"lon":4.9088173,"type":"village"},{"id":"501341569","name":"Garam","lat":12.8026396,"lon":4.7589433,"type":"village"},{"id":"501341591","name":"Alwaza","lat":12.6191474,"lon":4.4378157,"type":"village"},{"id":"501341601","name":"Aljena","lat":12.7743497,"lon":4.0113809,"type":"village"},{"id":"501341610","name":"Aliero","lat":12.2882578,"lon":4.4706915,"type":"town"},{"id":"501341643","name":"Rafin Baona","lat":12.2727036,"lon":4.3995921,"type":"village"},{"id":"501341657","name":"Bayan Dutse","lat":12.0302155,"lon":4.1922438,"type":"village"},{"id":"501341699","name":"Rishi","lat":10.4787327,"lon":8.9410787,"type":"village"},{"id":"501341808","name":"Kebbe","lat":12.128802,"lon":4.7350925,"type":"town"},{"id":"501341820","name":"Gagawa","lat":12.7012646,"lon":4.9512171,"type":"village"},{"id":"501341847","name":"Gwarazo","lat":12.08967,"lon":4.4586295,"type":"village"},{"id":"501341885","name":"Fanadi","lat":12.0642796,"lon":4.1242483,"type":"village"},{"id":"501341904","name":"Gardi","lat":12.0891114,"lon":4.0562393,"type":"village"},{"id":"501341915","name":"Gandu","lat":12.6385278,"lon":4.5497416,"type":"village"},{"id":"501341999","name":"Turawa","lat":11.5608626,"lon":4.9691559,"type":"village"},{"id":"501342015","name":"Tungan-Doro","lat":11.5669624,"lon":4.9114654,"type":"village"},{"id":"501342024","name":"Zangala","lat":10.722318,"lon":10.78785,"type":"village"},{"id":"501342086","name":"Dimbogo","lat":12.2915093,"lon":4.3317167,"type":"village"},{"id":"501342096","name":"Dankanowa","lat":12.738184,"lon":4.4435431,"type":"village"},{"id":"501342110","name":"Otuofor","lat":4.362924,"lon":5.980642,"type":"village"},{"id":"501342208","name":"Tunga Hakimi Umaru","lat":11.0253163,"lon":4.3275685,"type":"village"},{"id":"501342242","name":"Salmonde","lat":11.2831805,"lon":9.9629255,"type":"village"},{"id":"501342277","name":"Ungwan Malam","lat":12.5460752,"lon":4.476067,"type":"village"},{"id":"501342297","name":"Baga Sakka","lat":12.2956837,"lon":4.5798561,"type":"village"},{"id":"501342307","name":"Bangannan","lat":12.301174,"lon":4.0013806,"type":"village"},{"id":"501342316","name":"Kulu","lat":11.6202249,"lon":4.7514029,"type":"village"},{"id":"501342342","name":"Tungan Kwokene","lat":11.5610245,"lon":4.0413277,"type":"village"},{"id":"501342350","name":"Kwanta","lat":11.7067925,"lon":4.4060084,"type":"village"},{"id":"501342370","name":"Tunga Alhaji","lat":11.4282651,"lon":4.2561374,"type":"village"},{"id":"501342407","name":"Ekete","lat":5.5063641,"lon":5.8031183,"type":"village"},{"id":"501342426","name":"Tongo","lat":10.3061654,"lon":10.9339553,"type":"village"},{"id":"501342457","name":"Gumbikure","lat":12.2461514,"lon":4.2245375,"type":"village"},{"id":"501342473","name":"Rumfa","lat":12.2118574,"lon":4.1663311,"type":"village"},{"id":"501342526","name":"Ogoba","lat":5.4963,"lon":5.3043157,"type":"village"},{"id":"501342541","name":"Tungin-Shakushe","lat":11.7024657,"lon":4.821664,"type":"village"},{"id":"501342549","name":"Runtu Magaji","lat":11.687244,"lon":4.8202528,"type":"village"},{"id":"501342579","name":"Macheri","lat":11.4307687,"lon":4.6692201,"type":"village"},{"id":"501342588","name":"Dantani","lat":11.4447352,"lon":4.911323,"type":"village"},{"id":"501342603","name":"Bezere","lat":11.4952788,"lon":4.9840422,"type":"village"},{"id":"501342637","name":"Gajigala","lat":10.848237,"lon":10.635674,"type":"village"},{"id":"501342656","name":"Uruokpe","lat":5.6973745,"lon":5.9906061,"type":"village"},{"id":"501342725","name":"Kachere","lat":10.322388,"lon":7.217121,"type":"village"},{"id":"501342757","name":"Sabon Birnin Yero","lat":10.764851,"lon":7.522933,"type":"village"},{"id":"501342785","name":"Barogu","lat":10.9941683,"lon":4.8305407,"type":"village"},{"id":"501342796","name":"Zarumai","lat":11.0150802,"lon":4.8149949,"type":"village"},{"id":"501342828","name":"Luka","lat":11.4321944,"lon":4.5961505,"type":"village"},{"id":"501342867","name":"Gadauna","lat":12.1610181,"lon":6.4845287,"type":"village"},{"id":"501342878","name":"Alu","lat":11.2029816,"lon":4.5283828,"type":"village"},{"id":"501342911","name":"Tunga Malam Garba","lat":11.3726316,"lon":4.4295292,"type":"village"},{"id":"501342931","name":"Sabon Gari Gwargaba","lat":11.3591168,"lon":4.2903615,"type":"village"},{"id":"501342940","name":"Tunga Numafara","lat":11.1336839,"lon":4.2163632,"type":"village"},{"id":"501342995","name":"Gidan Barke","lat":12.5095106,"lon":5.0634398,"type":"village"},{"id":"501343003","name":"Igbudu","lat":5.5252541,"lon":5.7726037,"type":"village"},{"id":"501343053","name":"Kwandaji","lat":11.8346235,"lon":4.0257507,"type":"village"},{"id":"501343062","name":"Chase","lat":11.3551175,"lon":4.9453891,"type":"village"},{"id":"501343069","name":"Ashana","lat":11.3438573,"lon":4.8507687,"type":"village"},{"id":"501343085","name":"Kade","lat":11.1858998,"lon":4.6354896,"type":"village"},{"id":"501343093","name":"Unguwar Nasudu","lat":10.590054,"lon":8.626293,"type":"village"},{"id":"501343102","name":"Hama","lat":11.104953,"lon":4.815777,"type":"village"},{"id":"501343152","name":"Sunkani","lat":10.379041,"lon":10.805659,"type":"village"},{"id":"501343172","name":"Yole","lat":12.4077233,"lon":5.0043171,"type":"village"},{"id":"501343202","name":"Tundun-Goggo-Fulani","lat":12.109809,"lon":4.9817616,"type":"village"},{"id":"501343315","name":"Tunga Kwala","lat":11.3239748,"lon":4.1763502,"type":"village"},{"id":"501343331","name":"Tunga Yelwa Borgu","lat":11.3039619,"lon":4.1766016,"type":"village"},{"id":"501343341","name":"Ahonda","lat":11.6718871,"lon":4.8526486,"type":"village"},{"id":"501343388","name":"Oguname-Olomu","lat":5.4587758,"lon":5.9198186,"type":"village"},{"id":"501343418","name":"Ungwan Kambari","lat":12.4187708,"lon":4.8690128,"type":"village"},{"id":"501343426","name":"Ungwan Dikko","lat":12.3330854,"lon":4.2209957,"type":"village"},{"id":"501343445","name":"Sarkowa","lat":12.7217677,"lon":4.4331816,"type":"village"},{"id":"501343474","name":"Roga","lat":12.5274851,"lon":4.9107192,"type":"village"},{"id":"501343485","name":"Razai","lat":12.2086736,"lon":4.4364595,"type":"village"},{"id":"501343493","name":"Raya","lat":12.7585668,"lon":4.3738419,"type":"village"},{"id":"501343513","name":"Rafin Tofa","lat":12.1063127,"lon":4.2733167,"type":"village"},{"id":"501343591","name":"Tunga Zabarmawa","lat":11.4684785,"lon":4.4130675,"type":"village"},{"id":"501343618","name":"Ungwan Daudu","lat":10.903178,"lon":7.481608,"type":"village"},{"id":"501343652","name":"Sukandu","lat":12.8816544,"lon":5.4342064,"type":"village"},{"id":"501343659","name":"Bonuwagbene","lat":5.2610942,"lon":5.7119638,"type":"village"},{"id":"501343692","name":"Samma","lat":12.4322235,"lon":4.8441541,"type":"village"},{"id":"501343703","name":"Saharma","lat":12.7897389,"lon":4.5977188,"type":"village"},{"id":"501343733","name":"Runji","lat":12.5797005,"lon":4.9403155,"type":"village"},{"id":"501343753","name":"Rumbuki","lat":12.9244336,"lon":4.7967041,"type":"village"},{"id":"501343765","name":"Rumbuki","lat":12.4749799,"lon":4.7237409,"type":"village"},{"id":"501343794","name":"Mazagoma","lat":12.3105843,"lon":4.3189618,"type":"village"},{"id":"501343804","name":"Maruda","lat":12.4932843,"lon":4.7636044,"type":"village"},{"id":"501343814","name":"Majiatudu","lat":12.7802926,"lon":4.1447979,"type":"village"},{"id":"501343837","name":"Maiyama","lat":12.0825973,"lon":4.3677034,"type":"village"},{"id":"501343910","name":"Tuimpeigagbene","lat":4.408004,"lon":5.85394,"type":"village"},{"id":"501343920","name":"Alelu","lat":12.1941409,"lon":4.4629683,"type":"village"},{"id":"501343964","name":"Eteo","lat":4.7501074,"lon":7.1845782,"type":"village"},{"id":"501343986","name":"Eket","lat":4.6421004,"lon":7.9264074,"type":"town"},{"id":"501343997","name":"Egburu","lat":4.809819,"lon":7.28005,"type":"village"},{"id":"501344008","name":"Ikot Nkan","lat":4.639525,"lon":7.83517,"type":"village"},{"id":"501344045","name":"Opu Arugbana","lat":4.6422379,"lon":7.0106117,"type":"village"},{"id":"501344063","name":"Adokiakiri","lat":4.6499412,"lon":7.0274245,"type":"village"},{"id":"501344070","name":"Ikeinyabiri","lat":4.7191884,"lon":5.9949183,"type":"village"},{"id":"501344087","name":"Gbaran","lat":4.7939323,"lon":5.8912028,"type":"village"},{"id":"501344122","name":"Friday","lat":4.9755666,"lon":5.6396995,"type":"village"},{"id":"501344167","name":"Owokpo","lat":4.4954962,"lon":7.3288431,"type":"village"},{"id":"501344178","name":"Aganfor","lat":4.4953861,"lon":7.425924,"type":"village"},{"id":"501344200","name":"Marabu-Abu","lat":11.4944589,"lon":6.5404466,"type":"village"},{"id":"501344209","name":"Macikawa Matoru","lat":11.3624544,"lon":6.514576,"type":"village"},{"id":"501344229","name":"Malekete","lat":11.007465,"lon":6.574296,"type":"village"},{"id":"501344240","name":"Gidan Malam Audu","lat":11.4343407,"lon":6.521668,"type":"village"},{"id":"501344249","name":"Akosi","lat":4.962755,"lon":5.652598,"type":"village"},{"id":"501344287","name":"Baen","lat":4.6303684,"lon":7.4562856,"type":"village"},{"id":"501344410","name":"Otudon","lat":4.4513722,"lon":7.3354739,"type":"village"},{"id":"501344492","name":"Akwete","lat":4.8866031,"lon":7.357497,"type":"town"},{"id":"501344528","name":"Sarkin-Daji","lat":11.4175944,"lon":6.5317922,"type":"village"},{"id":"501344606","name":"Igbo-Ekhe","lat":4.948964,"lon":7.0841201,"type":"town"},{"id":"501344635","name":"Haikini","lat":11.3195631,"lon":6.5352708,"type":"village"},{"id":"501344654","name":"Angwan-Lima","lat":11.2810215,"lon":6.5267005,"type":"village"},{"id":"501344709","name":"Maholo","lat":11.1811705,"lon":6.3455,"type":"village"},{"id":"501344762","name":"Ogani","lat":4.7800181,"lon":7.1524365,"type":"village"},{"id":"501344769","name":"Arawsaya","lat":11.8171416,"lon":4.5943176,"type":"village"},{"id":"501344791","name":"Iyaba","lat":4.5908447,"lon":7.4697502,"type":"village"},{"id":"501344827","name":"Aba","lat":8.914444,"lon":7.635556,"type":"village"},{"id":"501344839","name":"Matate","lat":13.1928213,"lon":6.3003525,"type":"village"},{"id":"501344848","name":"Burukusuma","lat":13.359186,"lon":6.592157,"type":"village"},{"id":"501344856","name":"Kaiaji","lat":13.1373145,"lon":6.4831902,"type":"village"},{"id":"501345027","name":"Nyogor Luekon","lat":4.75028,"lon":7.434275,"type":"village"},{"id":"501345098","name":"Garin Sabon Gandu","lat":12.6367834,"lon":4.5402279,"type":"village"},{"id":"501345108","name":"Ungwan Ardua","lat":12.3421709,"lon":4.1690821,"type":"village"},{"id":"501345144","name":"Shinkafi","lat":13.075339,"lon":6.510465,"type":"village"},{"id":"501345179","name":"Ita-Oniyan","lat":7.271765,"lon":5.093494,"type":"village"},{"id":"501345243","name":"Kirsinga","lat":10.782845,"lon":13.355624,"type":"village"},{"id":"501345264","name":"Kircinga","lat":10.782845,"lon":13.355624,"type":"village"},{"id":"501345347","name":"Boloba","lat":4.5636264,"lon":7.1708179,"type":"village"},{"id":"501345387","name":"Kuda","lat":10.640154,"lon":13.322543,"type":"village"},{"id":"501345406","name":"Adun","lat":7.2847,"lon":5.0951,"type":"village"},{"id":"501345449","name":"Sobiekiri III","lat":4.5324827,"lon":7.240715,"type":"village"},{"id":"501345490","name":"Angwa Yisa","lat":11.3527474,"lon":6.4939213,"type":"village"},{"id":"501345499","name":"Gidan Bido","lat":11.354428,"lon":6.1115547,"type":"village"},{"id":"501345646","name":"Rumuokwuta","lat":4.8408301,"lon":6.9860638,"type":"village"},{"id":"501345700","name":"Kahaure","lat":11.8663774,"lon":6.8540175,"type":"village"},{"id":"501345709","name":"Ungwan Rogo","lat":11.8529215,"lon":6.9366819,"type":"village"},{"id":"501345727","name":"Ungwan Ango","lat":11.8113908,"lon":6.9366263,"type":"village"},{"id":"501345820","name":"Ugu","lat":6.54919,"lon":6.435925,"type":"village"},{"id":"501345951","name":"Udo","lat":6.627826,"lon":6.339003,"type":"village"},{"id":"501345991","name":"Ganjuwa","lat":10.859426,"lon":10.168795,"type":"village"},{"id":"501346029","name":"Ungwan Bawa Gangan","lat":11.9670401,"lon":6.7570713,"type":"village"},{"id":"501346039","name":"Ungwan Mani","lat":11.9925805,"lon":6.9616818,"type":"village"},{"id":"501346051","name":"Rekebu","lat":11.931834,"lon":6.8349096,"type":"village"},{"id":"501346143","name":"Ughoru","lat":6.180687,"lon":6.651367,"type":"village"},{"id":"501346181","name":"Gidan Isa","lat":11.4394188,"lon":8.1476478,"type":"village"},{"id":"501346191","name":"Gidan Karowi","lat":11.3238128,"lon":8.1134587,"type":"village"},{"id":"501346210","name":"Gerabi","lat":11.49682,"lon":8.511404,"type":"village"},{"id":"501346221","name":"Gidan Sani","lat":11.408064,"lon":8.040349,"type":"village"},{"id":"501346286","name":"Mogho","lat":4.6475898,"lon":7.290184,"type":"village"},{"id":"501346334","name":"Lafiaro","lat":10.4051266,"lon":3.8147752,"type":"village"},{"id":"501346356","name":"Gidan Umaru","lat":11.380966,"lon":8.204283,"type":"village"},{"id":"501346466","name":"Tungan Umuro","lat":10.4303703,"lon":3.8603628,"type":"village"},{"id":"501346557","name":"Oshita","lat":6.0363551,"lon":6.7490306,"type":"village"},{"id":"501346592","name":"Ologhe","lat":6.478473,"lon":6.234143,"type":"village"},{"id":"501346656","name":"Onitsha Ugbo","lat":6.316343,"lon":6.421365,"type":"village"},{"id":"501346873","name":"Ogwashi Olor","lat":6.124524,"lon":6.523351,"type":"village"},{"id":"501346890","name":"Gidan Buhari","lat":11.414802,"lon":8.250821,"type":"village"},{"id":"501346961","name":"Odige","lat":6.866649,"lon":6.266486,"type":"village"},{"id":"501347024","name":"Nkpor","lat":6.15055,"lon":6.842826,"type":"town"},{"id":"501347033","name":"Ngegwu","lat":6.370658,"lon":6.669879,"type":"village"},{"id":"501347104","name":"Ikpetim","lat":4.56896,"lon":7.567858,"type":"village"},{"id":"501347133","name":"Ikot Ukpong Manta","lat":4.684973,"lon":7.56005,"type":"village"},{"id":"501347157","name":"Kapali","lat":10.1724296,"lon":10.1730827,"type":"village"},{"id":"501347173","name":"Kafin Sarkin Yaki","lat":10.5397899,"lon":10.4134686,"type":"village"},{"id":"501347259","name":"Ikot Okoro","lat":4.902422,"lon":7.711016,"type":"village"},{"id":"501347334","name":"Ikot Inyang Nung Ita","lat":4.758536,"lon":7.586975,"type":"village"},{"id":"501347364","name":"Takalafiya","lat":10.1059091,"lon":10.2153969,"type":"village"},{"id":"501347411","name":"Ikot Ibritam","lat":4.8084719,"lon":7.615905,"type":"town"},{"id":"501347426","name":"Ikot Esenam","lat":4.682425,"lon":7.630911,"type":"village"},{"id":"501347447","name":"Zango","lat":11.825279,"lon":8.010381,"type":"village"},{"id":"501347484","name":"Ikot Akpan Nsek","lat":4.729218,"lon":7.56983,"type":"village"},{"id":"501347524","name":"Ikot Akpabin","lat":4.71262,"lon":7.947728,"type":"village"},{"id":"501347768","name":"Iguazogbar","lat":6.386411,"lon":6.000306,"type":"village"},{"id":"501347776","name":"Eguro","lat":6.681551,"lon":6.519421,"type":"village"},{"id":"501347807","name":"Igbodo","lat":6.306155,"lon":6.369726,"type":"village"},{"id":"501347817","name":"Igbamam","lat":6.3914096,"lon":6.9481981,"type":"village"},{"id":"501347837","name":"Igbaku","lat":6.54433,"lon":6.943521,"type":"village"},{"id":"501347848","name":"Idumwvago-Ugbeka","lat":6.185439,"lon":6.080903,"type":"village"},{"id":"501347859","name":"Idumujuno","lat":6.361825,"lon":6.448866,"type":"village"},{"id":"501347875","name":"Ubulu-uku","lat":6.234305,"lon":6.446112,"type":"village"},{"id":"501347916","name":"Ebu","lat":6.866,"lon":6.462149,"type":"village"},{"id":"501347963","name":"Ugiamen","lat":6.675216,"lon":6.087221,"type":"village"},{"id":"501348003","name":"Amedokai","lat":6.721508,"lon":6.374625,"type":"village"},{"id":"501348011","name":"Aliagwai Agbor","lat":6.238193,"lon":6.15711,"type":"village"},{"id":"501348017","name":"Akwukwu Igbo","lat":6.3569289,"lon":6.5912164,"type":"town"},{"id":"501348032","name":"Notem","lat":4.6722786,"lon":7.3689195,"type":"village"},{"id":"501348079","name":"Atumo","lat":6.3437,"lon":6.579445,"type":"village"},{"id":"501348132","name":"Kafin Iyal","lat":10.5877867,"lon":10.4693206,"type":"village"},{"id":"501348179","name":"Mamudu","lat":10.784443,"lon":10.465701,"type":"village"},{"id":"501348366","name":"Alidima","lat":6.023956,"lon":6.29514,"type":"village"},{"id":"501348448","name":"Akhia","lat":6.705976,"lon":6.144654,"type":"village"},{"id":"501348570","name":"Kadaja","lat":11.2294066,"lon":8.5078811,"type":"village"},{"id":"501348647","name":"Alkalere","lat":10.2659843,"lon":10.3352914,"type":"village"},{"id":"501348679","name":"Ungwan Kutari","lat":10.6360199,"lon":10.185073,"type":"village"},{"id":"501348689","name":"Badawari","lat":10.2828448,"lon":10.373615,"type":"village"},{"id":"501348740","name":"Buri Buri","lat":10.722213,"lon":10.486111,"type":"village"},{"id":"501348826","name":"Limido Kwai","lat":11.671824,"lon":8.18676,"type":"village"},{"id":"501348863","name":"Ungwar Mallam Audu","lat":11.0973325,"lon":8.5472261,"type":"village"},{"id":"501348883","name":"Amahor","lat":6.466667,"lon":6.19757,"type":"village"},{"id":"501348931","name":"Gasna","lat":11.110177,"lon":9.728141,"type":"village"},{"id":"501348941","name":"Okwale","lat":4.797527,"lon":7.389446,"type":"village"},{"id":"501348980","name":"Atuagbo","lat":6.805655,"lon":6.329387,"type":"village"},{"id":"501349057","name":"Dundubis","lat":11.846304,"lon":9.2000202,"type":"village"},{"id":"501349078","name":"Dindibus","lat":11.4951785,"lon":9.8029505,"type":"village"},{"id":"501349121","name":"Chamo","lat":11.977988,"lon":9.385013,"type":"village"},{"id":"501349152","name":"Ohambele","lat":4.889793,"lon":7.414593,"type":"village"},{"id":"501349166","name":"Ogu","lat":4.724511,"lon":7.198578,"type":"town"},{"id":"501349215","name":"Raha","lat":12.0948761,"lon":4.0514432,"type":"village"},{"id":"501349247","name":"Isanlu Esa","lat":8.4825343,"lon":5.4839619,"type":"village"},{"id":"501349318","name":"Nyimoa","lat":7.866667,"lon":7.083333,"type":"village"},{"id":"501349632","name":"Imala","lat":7.283333,"lon":3.133333,"type":"village"},{"id":"501349663","name":"Tungu Kone","lat":12.8821046,"lon":4.6614048,"type":"village"},{"id":"501349692","name":"Oniorosu","lat":6.85,"lon":2.783333,"type":"village"},{"id":"501349760","name":"Wanka","lat":10.7120489,"lon":11.8101242,"type":"village"},{"id":"501349802","name":"Ira","lat":8.0834086,"lon":4.6062105,"type":"village"},{"id":"501350018","name":"Panana","lat":10.9176,"lon":11.7695,"type":"village"},{"id":"501350030","name":"Wuro Jam","lat":8.483333,"lon":10.25,"type":"village"},{"id":"501350199","name":"Ungwan Mijinyawa","lat":11.383333,"lon":7.633333,"type":"village"},{"id":"501350224","name":"Odo Oba","lat":7.9,"lon":4.083333,"type":"village"},{"id":"501350262","name":"Madaka","lat":10.0115983,"lon":6.4587011,"type":"village"},{"id":"501350333","name":"Awkaka","lat":8.216667,"lon":3.466667,"type":"village"},{"id":"501350568","name":"Wate","lat":9.1452959,"lon":8.5283924,"type":"village"},{"id":"501350639","name":"Paroka","lat":11.1087291,"lon":5.8966204,"type":"village"},{"id":"501350674","name":"Orei","lat":8.216667,"lon":6.8,"type":"village"},{"id":"501350698","name":"Orie Uratta","lat":5.4965315,"lon":7.0744253,"type":"town"},{"id":"501350731","name":"Tafan","lat":9.516667,"lon":8.4,"type":"village"},{"id":"501350793","name":"Obedamagu","lat":7.166667,"lon":7.016667,"type":"village"},{"id":"501350817","name":"Kafin Wambai","lat":8.566667,"lon":8.45,"type":"village"},{"id":"501350893","name":"Gwarnani","lat":12.8729008,"lon":4.0672678,"type":"village"},{"id":"501350919","name":"Okpalla","lat":5.3123851,"lon":7.258133,"type":"town"},{"id":"501351902","name":"Katanga","lat":11.7003339,"lon":9.4683406,"type":"village"},{"id":"501351944","name":"Idu","lat":5.1028372,"lon":6.5499012,"type":"village"},{"id":"501351965","name":"Tignon","lat":9.546749,"lon":11.6942764,"type":"town"},{"id":"501352018","name":"Wobagi","lat":9.463143,"lon":4.8918091,"type":"village"},{"id":"501352042","name":"Odoro Ikpe","lat":5.3568604,"lon":7.7505071,"type":"town"},{"id":"501352143","name":"Titong","lat":6.783333,"lon":11.416667,"type":"village"},{"id":"501352293","name":"Irogun Akere","lat":6.8151298,"lon":2.9889302,"type":"village"},{"id":"501352329","name":"Omu Ipetu","lat":8.0986365,"lon":5.0839532,"type":"village"},{"id":"501352351","name":"Osuakwa","lat":5.866667,"lon":6.783333,"type":"village"},{"id":"501352538","name":"Lagbedu","lat":7.9162923,"lon":4.1498179,"type":"village"},{"id":"501352687","name":"Futuk","lat":9.8360301,"lon":10.8982873,"type":"town"},{"id":"501352770","name":"Ogunbayo","lat":8.516667,"lon":5.033333,"type":"village"},{"id":"501352881","name":"Ikoshin","lat":8.4338053,"lon":5.1110928,"type":"village"},{"id":"501352895","name":"KOMU","lat":8.233333,"lon":3.2,"type":"town"},{"id":"501352904","name":"Kachuwi","lat":9.933333,"lon":7.166667,"type":"village"},{"id":"501352995","name":"Zange","lat":10.2776,"lon":11.7653,"type":"village"},{"id":"501353021","name":"Tungawayin","lat":9.516667,"lon":6.266667,"type":"village"},{"id":"501353039","name":"Okwele","lat":5.733333,"lon":7.183333,"type":"village"},{"id":"501353100","name":"Utezi","lat":6.2833334,"lon":5.6999915,"type":"village"},{"id":"501353126","name":"Randa","lat":9.1217518,"lon":8.4798998,"type":"village"},{"id":"501353138","name":"Umuagu","lat":5.3090225,"lon":6.9423368,"type":"village"},{"id":"501353183","name":"Odi Odeyale","lat":7.316667,"lon":4.016667,"type":"village"},{"id":"501353271","name":"Namtari Kahu","lat":9.5,"lon":12.45,"type":"village"},{"id":"501353487","name":"Jalomiri","lat":11.26948,"lon":13.119962,"type":"village"},{"id":"501353554","name":"Idi Ori","lat":7.0651573,"lon":2.9003734,"type":"village"},{"id":"501353563","name":"Oruweiama","lat":4.6374566,"lon":6.3113992,"type":"village"},{"id":"501353583","name":"Oke Ode","lat":8.55,"lon":5.033333,"type":"village"},{"id":"501353624","name":"Okabeghe","lat":6.4166705,"lon":5.4666704,"type":"village"},{"id":"501353680","name":"Lisa","lat":7.25,"lon":3.6,"type":"village"},{"id":"501353766","name":"Oshuko","lat":8.85,"lon":4.05,"type":"village"},{"id":"501353891","name":"Oketepe Oniyangan","lat":8.5334875,"lon":4.3866747,"type":"village"},{"id":"501353911","name":"Okere","lat":6.685933,"lon":2.7771532,"type":"village"},{"id":"501353930","name":"Ita Okere","lat":6.6858904,"lon":2.7770674,"type":"village"},{"id":"501353938","name":"Oke Oyan","lat":8.3568001,"lon":5.1800042,"type":"village"},{"id":"501353955","name":"Idofin Ayekale","lat":8.2206915,"lon":5.2938939,"type":"village"},{"id":"501353964","name":"Olore","lat":7.683333,"lon":3.233333,"type":"village"},{"id":"501354008","name":"Waka","lat":8.866667,"lon":6.683333,"type":"village"},{"id":"501354015","name":"Tading Ngurore","lat":8.55,"lon":11.866667,"type":"village"},{"id":"501354126","name":"Wuro Basambo","lat":9.5,"lon":12.483333,"type":"village"},{"id":"501354173","name":"Wuro Bakumbo","lat":9.316667,"lon":12.033333,"type":"village"},{"id":"501354206","name":"Ogboin","lat":6.3676879,"lon":5.4332633,"type":"village"},{"id":"501354216","name":"Awdaw Refurefu","lat":6.933333,"lon":2.866667,"type":"village"},{"id":"501354244","name":"Umuariam","lat":5.5474756,"lon":7.3477083,"type":"village"},{"id":"501354272","name":"Otibio","lat":5.5627801,"lon":6.1683892,"type":"village"},{"id":"501354314","name":"Oke Omo","lat":7.866667,"lon":4.0,"type":"village"},{"id":"501354359","name":"Sabongari","lat":12.0167184,"lon":4.3007617,"type":"village"},{"id":"501354375","name":"Peteko","lat":8.883333,"lon":3.183333,"type":"village"},{"id":"501354470","name":"Tsartim","lat":7.3833177,"lon":8.6333471,"type":"village"},{"id":"501354533","name":"Hema Fulani","lat":10.4339071,"lon":11.949617,"type":"village"},{"id":"501354542","name":"Okporo","lat":6.6,"lon":8.05,"type":"village"},{"id":"501354572","name":"Sofon Dagga","lat":9.466667,"lon":6.483333,"type":"village"},{"id":"501354623","name":"Umuebu","lat":5.7568003,"lon":6.1615232,"type":"village"},{"id":"501354630","name":"Ofoni","lat":5.1,"lon":6.05,"type":"village"},{"id":"501354639","name":"Samadabi","lat":10.9172359,"lon":4.9650577,"type":"village"},{"id":"501354660","name":"Olude","lat":7.483056,"lon":3.838333,"type":"village"},{"id":"501354684","name":"Tawpo","lat":6.417556,"lon":2.9355957,"type":"village"},{"id":"501354712","name":"Ungwan Dan Baba","lat":11.4,"lon":7.616667,"type":"village"},{"id":"501354796","name":"Karu","lat":9.0113522,"lon":7.5750527,"type":"village"},{"id":"501354820","name":"Ikpa","lat":8.9500657,"lon":5.0207096,"type":"village"},{"id":"501354897","name":"Okonaovi","lat":6.2833384,"lon":5.6837199,"type":"village"},{"id":"501354960","name":"Okikiola","lat":7.983333,"lon":3.85,"type":"village"},{"id":"501355054","name":"Ukho","lat":7.133333,"lon":6.5,"type":"village"},{"id":"501355221","name":"Wai","lat":9.8666511,"lon":9.4333987,"type":"village"},{"id":"501355252","name":"Unguwar Tsamga","lat":13.05,"lon":7.366667,"type":"village"},{"id":"501355262","name":"Unguwar Tagwaye","lat":12.95,"lon":7.066667,"type":"village"},{"id":"501355291","name":"Unguwar Bako","lat":9.2353789,"lon":8.2173408,"type":"village"},{"id":"501355344","name":"Lafia Kpada","lat":8.7,"lon":6.683333,"type":"village"},{"id":"501355427","name":"Minda","lat":9.0428418,"lon":11.3181519,"type":"village"},{"id":"501355484","name":"Tulaye","lat":12.1048885,"lon":4.4039911,"type":"village"},{"id":"501355544","name":"Takalafiya","lat":9.0,"lon":6.666667,"type":"village"},{"id":"501355572","name":"Taiwo","lat":7.9686142,"lon":3.9867739,"type":"village"},{"id":"501355599","name":"Tabe","lat":9.116667,"lon":6.966667,"type":"village"},{"id":"501355662","name":"Goje","lat":7.386908,"lon":11.2477469,"type":"village"},{"id":"501355719","name":"Kwardum Yunana","lat":10.4263,"lon":11.9683,"type":"village"},{"id":"501355866","name":"Mfamkang","lat":5.716667,"lon":8.8,"type":"village"},{"id":"501355892","name":"Ota","lat":7.95,"lon":4.8,"type":"village"},{"id":"501355989","name":"Oba","lat":7.9,"lon":4.583333,"type":"village"},{"id":"501355997","name":"Oba","lat":6.866667,"lon":2.75,"type":"village"},{"id":"501356052","name":"Umu Ekwune","lat":5.2762454,"lon":7.0275926,"type":"village"},{"id":"501356061","name":"Utagban","lat":6.2927867,"lon":5.5654256,"type":"village"},{"id":"501356149","name":"Mape","lat":9.1446552,"lon":7.4926513,"type":"village"},{"id":"501356205","name":"Kogin Sidda","lat":11.533333,"lon":9.066667,"type":"village"},{"id":"501356238","name":"Ziyiko","lat":8.933333,"lon":6.3,"type":"village"},{"id":"501356300","name":"Nama Baba","lat":7.1,"lon":10.65,"type":"village"},{"id":"501356374","name":"Old Bishini","lat":9.6,"lon":7.433333,"type":"village"},{"id":"501356386","name":"Olayemi","lat":8.4,"lon":5.05,"type":"village"},{"id":"501356404","name":"Tokkos","lat":9.4658246,"lon":9.3735698,"type":"village"},{"id":"501356413","name":"Galadima","lat":10.25,"lon":11.216667,"type":"village"},{"id":"501356443","name":"Umuhu Abam","lat":5.633333,"lon":7.666667,"type":"village"},{"id":"501356541","name":"Adaiwai","lat":5.39377,"lon":6.4741763,"type":"village"},{"id":"501356582","name":"Gbimigi","lat":8.8824022,"lon":6.5412047,"type":"village"},{"id":"501356728","name":"Ilie","lat":7.9679162,"lon":4.5417868,"type":"town"},{"id":"501356755","name":"Nguroje","lat":6.957792,"lon":11.116667,"type":"town"},{"id":"501356761","name":"Munga","lat":9.3939333,"lon":11.2462219,"type":"village"},{"id":"501356773","name":"Igode","lat":6.7017539,"lon":3.5813117,"type":"village"},{"id":"501356786","name":"Kaffin-Sanu","lat":8.715833,"lon":7.83,"type":"village"},{"id":"501356826","name":"Goro","lat":9.8,"lon":8.3,"type":"village"},{"id":"501356841","name":"Gimare","lat":8.4851327,"lon":8.5535276,"type":"village"},{"id":"501356867","name":"Jiwawa","lat":9.8241887,"lon":5.9195236,"type":"village"},{"id":"501356916","name":"Bima","lat":10.8523607,"lon":11.8621453,"type":"village"},{"id":"501357091","name":"Gidan Ibrahim","lat":7.066667,"lon":10.666667,"type":"village"},{"id":"501357113","name":"Gidan Hashimu","lat":11.333333,"lon":7.666667,"type":"village"},{"id":"501357168","name":"Gorga","lat":12.0693529,"lon":11.0011426,"type":"village"},{"id":"501357219","name":"Jirgi Kumata","lat":12.8838141,"lon":5.0539911,"type":"village"},{"id":"501357310","name":"Bussa","lat":10.230833,"lon":4.475278,"type":"village"},{"id":"501357394","name":"Avutu","lat":5.5367972,"lon":7.3660748,"type":"village"},{"id":"501357551","name":"Mijigine","lat":12.1063,"lon":13.7745,"type":"village"},{"id":"501357593","name":"Gwafan","lat":9.9,"lon":8.966667,"type":"village"},{"id":"501357664","name":"Ibong Uruk","lat":5.266667,"lon":7.566667,"type":"village"},{"id":"501357708","name":"Dombulom","lat":10.226242,"lon":11.7271075,"type":"village"},{"id":"501357786","name":"Gawon","lat":9.4296659,"lon":12.297609,"type":"village"},{"id":"501357926","name":"New Stadium","lat":9.95,"lon":8.866667,"type":"village"},{"id":"501358006","name":"Ajebandele","lat":7.7836849,"lon":4.3368124,"type":"village"},{"id":"501358017","name":"Aje","lat":7.65,"lon":4.116667,"type":"village"},{"id":"501358110","name":"Ioiya","lat":7.833333,"lon":10.05,"type":"village"},{"id":"501358245","name":"Ikereku","lat":7.631944,"lon":3.975278,"type":"village"},{"id":"501358363","name":"Igude","lat":6.5002356,"lon":2.7841089,"type":"village"},{"id":"501358422","name":"Gbada","lat":7.3,"lon":4.066667,"type":"village"},{"id":"501358538","name":"Gidan Ali","lat":7.333333,"lon":10.583333,"type":"village"},{"id":"501358558","name":"Ajia","lat":12.3247223,"lon":6.9922299,"type":"village"},{"id":"501358601","name":"Isare","lat":8.1,"lon":5.233333,"type":"village"},{"id":"501358619","name":"Ganbum","lat":7.917054,"lon":11.2487081,"type":"village"},{"id":"501358748","name":"Malummaduri","lat":12.5645336,"lon":9.8815069,"type":"town"},{"id":"501358811","name":"Nung Ukim","lat":5.283333,"lon":7.75,"type":"village"},{"id":"501358832","name":"Kwata Kanawa","lat":9.266667,"lon":11.35,"type":"village"},{"id":"501358856","name":"Mutum Daya","lat":9.3631909,"lon":11.0786673,"type":"town"},{"id":"501358978","name":"Mpan","lat":9.3013722,"lon":9.18843,"type":"village"},{"id":"501359027","name":"Igbedi","lat":7.15,"lon":3.616667,"type":"village"},{"id":"501359056","name":"Hardo Deba","lat":10.1426495,"lon":11.3005751,"type":"village"},{"id":"501359065","name":"Harbo","lat":12.150833,"lon":9.541111,"type":"village"},{"id":"501359398","name":"Kwanupe","lat":10.0166742,"lon":6.8833308,"type":"former_village"},{"id":"501359481","name":"Isiaka","lat":8.4424982,"lon":5.0578438,"type":"village"},{"id":"501359517","name":"Momba","lat":10.4346238,"lon":4.886716,"type":"village"},{"id":"501359550","name":"Agukwu Nri","lat":6.1460939,"lon":7.0236545,"type":"village"},{"id":"501359591","name":"Ewoye","lat":6.0364326,"lon":5.1960949,"type":"village"},{"id":"501359657","name":"Achara Ndiagu Omegio","lat":6.133333,"lon":8.15,"type":"village"},{"id":"501359734","name":"Ide","lat":10.8,"lon":5.533333,"type":"village"},{"id":"501359759","name":"Jubu","lat":8.3,"lon":9.983333,"type":"village"},{"id":"501359794","name":"Ibokun","lat":7.783333,"lon":4.716667,"type":"village"},{"id":"501359829","name":"Kangli","lat":9.4,"lon":12.383333,"type":"village"},{"id":"501359846","name":"Limbori","lat":13.3328126,"lon":13.1274276,"type":"village"},{"id":"501359869","name":"Jerikom","lat":10.3657056,"lon":11.2750634,"type":"town"},{"id":"501359921","name":"Lamurde","lat":9.6072357,"lon":11.7930477,"type":"village"},{"id":"501359978","name":"Chemso","lat":9.5824475,"lon":9.2588996,"type":"village"},{"id":"501360102","name":"Ete Nawo","lat":7.083333,"lon":7.383333,"type":"village"},{"id":"501360127","name":"Doho","lat":10.4330837,"lon":11.2263465,"type":"town"},{"id":"501360247","name":"Karagari","lat":10.5040184,"lon":11.3520649,"type":"village"},{"id":"501360293","name":"Makatayi","lat":10.3866193,"lon":4.7511184,"type":"village"},{"id":"501360334","name":"Mayo Lope","lat":9.2421184,"lon":11.6796684,"type":"town"},{"id":"501360620","name":"Awomama","lat":5.65,"lon":6.933333,"type":"village"},{"id":"501360629","name":"Alwo-Esin","lat":7.416667,"lon":3.733333,"type":"village"},{"id":"501360671","name":"Eruwa Titun","lat":7.55,"lon":3.45,"type":"town"},{"id":"501360683","name":"Eruku","lat":8.15,"lon":5.416667,"type":"village"},{"id":"501360739","name":"Kukatania","lat":12.65,"lon":9.633333,"type":"village"},{"id":"501360756","name":"Murno","lat":9.7268656,"lon":9.280035,"type":"village"},{"id":"501360787","name":"Igbosa","lat":6.5164997,"lon":2.9344275,"type":"village"},{"id":"501360838","name":"Materum","lat":9.2470816,"lon":10.9350092,"type":"village"},{"id":"501360917","name":"Iyede","lat":5.43964,"lon":6.1036478,"type":"village"},{"id":"501360927","name":"Lohum","lat":5.65,"lon":7.55,"type":"village"},{"id":"501360950","name":"Bakin Rijiya","lat":9.016667,"lon":10.0,"type":"village"},{"id":"501361111","name":"Iwo","lat":7.633333,"lon":4.183333,"type":"town"},{"id":"501361210","name":"Mugdala","lat":12.0282845,"lon":14.0450225,"type":"village"},{"id":"501361307","name":"Karandadi","lat":10.5195362,"lon":4.4916744,"type":"village"},{"id":"501361361","name":"Akingbogun","lat":7.2,"lon":3.716667,"type":"village"},{"id":"501361386","name":"Akinbola","lat":7.693611,"lon":3.864722,"type":"village"},{"id":"501361402","name":"Damboma","lat":10.55,"lon":11.6,"type":"village"},{"id":"501361527","name":"Abia Okpo Ikotukana","lat":5.283333,"lon":7.616667,"type":"village"},{"id":"501361556","name":"Kajola","lat":6.766667,"lon":2.966667,"type":"village"},{"id":"501361615","name":"Gyangyan","lat":9.583333,"lon":9.816667,"type":"village"},{"id":"501361631","name":"Agadama","lat":5.2687917,"lon":6.0511221,"type":"village"},{"id":"501361691","name":"Isu","lat":5.133333,"lon":7.016667,"type":"village"},{"id":"501361734","name":"Kobo Ile","lat":8.85,"lon":3.15,"type":"village"},{"id":"501361792","name":"Kwarabe","lat":9.3469763,"lon":8.0428742,"type":"village"},{"id":"501361867","name":"Alimi","lat":7.183333,"lon":7.333333,"type":"village"},{"id":"501361917","name":"Abese","lat":7.58,"lon":3.955278,"type":"village"},{"id":"501361941","name":"Fusa","lat":9.7696043,"lon":9.0012574,"type":"village"},{"id":"501361972","name":"Mosafejo","lat":6.4314505,"lon":2.9502947,"type":"village"},{"id":"501362047","name":"AlakIa","lat":7.3908284,"lon":3.9738165,"type":"village"},{"id":"501362057","name":"Elume","lat":5.8994851,"lon":5.6190949,"type":"village"},{"id":"501362106","name":"Mai Mairamri","lat":11.425445,"lon":13.759331,"type":"village"},{"id":"501362134","name":"Kmakma","lat":9.8166588,"lon":6.8,"type":"village"},{"id":"501362164","name":"Kinkinyiun","lat":7.533333,"lon":3.85,"type":"village"},{"id":"501362205","name":"Damai","lat":10.766667,"lon":13.583333,"type":"village"},{"id":"501362237","name":"Jatayi;Gbodna","lat":9.5,"lon":6.8,"type":"village"},{"id":"501362339","name":"Feri","lat":9.533333,"lon":7.166667,"type":"village"},{"id":"501362514","name":"Kibori","lat":9.85,"lon":8.416667,"type":"village"},{"id":"501362685","name":"Dong","lat":9.9511655,"lon":11.6903652,"type":"town"},{"id":"501362748","name":"Kabo","lat":9.4120692,"lon":7.1798601,"type":"village"},{"id":"501362756","name":"Mal Umari","lat":11.4534516,"lon":12.6417549,"type":"village"},{"id":"501362763","name":"Malope","lat":8.6887313,"lon":12.3720743,"type":"village"},{"id":"501362828","name":"Izuwe","lat":11.4225955,"lon":13.2661262,"type":"village"},{"id":"501362842","name":"Kwekweri","lat":9.6,"lon":7.4,"type":"village"},{"id":"501362948","name":"Nkwerre","lat":5.7591349,"lon":7.103838,"type":"town"},{"id":"501362980","name":"Iware","lat":7.6515718,"lon":3.785661,"type":"village"},{"id":"501363012","name":"Kwagiri","lat":9.6329945,"lon":7.9680403,"type":"village"},{"id":"501363037","name":"Gazarago","lat":8.732222,"lon":7.436944,"type":"village"},{"id":"501363238","name":"Achara","lat":5.8166783,"lon":7.8333327,"type":"village"},{"id":"501363255","name":"Araromi-Opin","lat":8.066667,"lon":5.25,"type":"village"},{"id":"501363418","name":"Guni","lat":9.8075,"lon":6.9425,"type":"village"},{"id":"501363460","name":"Gini","lat":9.716667,"lon":6.916667,"type":"village"},{"id":"501363488","name":"Jibe","lat":9.983333,"lon":7.083333,"type":"village"},{"id":"501363495","name":"Lekitaba","lat":6.816667,"lon":11.233333,"type":"village"},{"id":"501363515","name":"Gudale","lat":12.8991843,"lon":4.6678257,"type":"village"},{"id":"501363523","name":"Guburunde","lat":10.3356152,"lon":11.7737909,"type":"village"},{"id":"501363572","name":"Laro","lat":9.8886153,"lon":13.2022652,"type":"village"},{"id":"501363624","name":"Natarbau","lat":8.466667,"lon":11.233333,"type":"village"},{"id":"501363658","name":"Inaja Alaro","lat":8.0802914,"lon":4.5846114,"type":"village"},{"id":"501363668","name":"Imoto I","lat":7.083333,"lon":2.866667,"type":"village"},{"id":"501363744","name":"Ewusse","lat":5.966667,"lon":6.033333,"type":"village"},{"id":"501363833","name":"Biri Bolawa","lat":10.916667,"lon":11.283333,"type":"village"},{"id":"501363865","name":"Etsuyum","lat":8.683333,"lon":6.0,"type":"village"},{"id":"501363935","name":"Balogun","lat":8.466667,"lon":4.833333,"type":"village"},{"id":"501363963","name":"Erinmope Ekiti","lat":8.033333,"lon":5.15,"type":"village"},{"id":"501363982","name":"Ekpuba","lat":6.1211005,"lon":5.0367747,"type":"village"},{"id":"501364558","name":"Agunjin","lat":8.4686604,"lon":4.9742961,"type":"village"},{"id":"501364595","name":"Igwedayi","lat":6.3500011,"lon":5.5333351,"type":"village"},{"id":"501364693","name":"Ungwan Nufawa","lat":12.3333867,"lon":4.2859283,"type":"village"},{"id":"501364721","name":"Dakachita","lat":9.05,"lon":6.466667,"type":"village"},{"id":"501364756","name":"Emu Ebendo","lat":5.6703016,"lon":6.3527747,"type":"village"},{"id":"501364800","name":"Afo Owebe","lat":7.216667,"lon":7.75,"type":"village"},{"id":"501364846","name":"Dikenafai","lat":5.7702109,"lon":7.1544417,"type":"town"},{"id":"501364889","name":"Alapamowo","lat":8.45,"lon":4.283333,"type":"village"},{"id":"501364907","name":"Bukan Kwaju","lat":8.4620402,"lon":8.5662293,"type":"village"},{"id":"501364916","name":"Gari","lat":12.8309061,"lon":4.9436485,"type":"village"},{"id":"501364923","name":"Baiona","lat":9.4,"lon":6.883333,"type":"village"},{"id":"501364994","name":"Degesin","lat":7.016667,"lon":3.333333,"type":"village"},{"id":"501365000","name":"Adum Afo","lat":7.183333,"lon":7.416667,"type":"village"},{"id":"501365061","name":"Bacita","lat":9.0660378,"lon":4.9577426,"type":"town"},{"id":"501365132","name":"Alagbede","lat":6.4831948,"lon":3.3672217,"type":"village"},{"id":"501365208","name":"Faforiji","lat":7.283333,"lon":4.716667,"type":"village"},{"id":"501365234","name":"Batungo","lat":10.1622094,"lon":11.3195938,"type":"village"},{"id":"501365241","name":"Batu Kamino","lat":7.033333,"lon":10.933333,"type":"village"},{"id":"501365288","name":"Asayitan","lat":6.466667,"lon":5.466667,"type":"village"},{"id":"501365296","name":"Faruku","lat":7.2813581,"lon":3.8867784,"type":"village"},{"id":"501365391","name":"Batsari Kuka","lat":10.5522,"lon":11.6392,"type":"village"},{"id":"501365597","name":"Ajemaje","lat":6.15,"lon":5.2333158,"type":"village"},{"id":"501365606","name":"Ajili","lat":11.316667,"lon":10.516667,"type":"village"},{"id":"501365633","name":"Fadan Kuower","lat":9.5865914,"lon":7.7920177,"type":"village"},{"id":"501365682","name":"Didango","lat":9.1590245,"lon":11.0406766,"type":"village"},{"id":"501365726","name":"Alapa","lat":6.7883765,"lon":2.9141221,"type":"village"},{"id":"501365740","name":"Emijindadi","lat":9.4175825,"lon":6.1976933,"type":"village"},{"id":"501365800","name":"Afolabi","lat":7.2999989,"lon":4.4833339,"type":"village"},{"id":"501366047","name":"Durumi","lat":9.1716047,"lon":7.499755,"type":"village"},{"id":"501366068","name":"Ado Awaiye","lat":7.833333,"lon":3.433333,"type":"village"},{"id":"501366139","name":"Barikin Gidar Kanat","lat":9.7667687,"lon":8.8166758,"type":"village"},{"id":"501366166","name":"Aiyekale","lat":8.283333,"lon":4.483333,"type":"village"},{"id":"501366211","name":"Aseseru","lat":8.6687372,"lon":4.3648299,"type":"village"},{"id":"501366287","name":"Amini","lat":7.25,"lon":3.75,"type":"village"},{"id":"501366361","name":"Asagba","lat":5.483333,"lon":5.783333,"type":"village"},{"id":"501366527","name":"Galadi","lat":12.7811546,"lon":9.5895651,"type":"village"},{"id":"501366580","name":"Appa","lat":6.4318831,"lon":2.820229,"type":"village"},{"id":"501366601","name":"Dabaga","lat":11.4751627,"lon":4.3059167,"type":"village"},{"id":"501366738","name":"Ohoba","lat":5.4126689,"lon":6.8811973,"type":"village"},{"id":"501366745","name":"Girigwe","lat":8.4494736,"lon":8.6975452,"type":"village"},{"id":"501366801","name":"Jajage","lat":12.5372814,"lon":4.130404,"type":"village"},{"id":"501366865","name":"Igbo Kekere","lat":8.0499987,"lon":3.7500322,"type":"village"},{"id":"501366875","name":"Mulke Barikin Sayejo","lat":9.65385,"lon":12.5576516,"type":"village"},{"id":"501366887","name":"Osan Ekiti","lat":8.0217752,"lon":5.06707,"type":"village"},{"id":"501366942","name":"Tofa","lat":6.4610303,"lon":2.8732483,"type":"village"},{"id":"501366953","name":"Udegi","lat":8.251389,"lon":7.902222,"type":"village"},{"id":"501366983","name":"Old Iyekezie","lat":6.466667,"lon":5.5,"type":"village"},{"id":"501367069","name":"Mbar","lat":9.2683157,"lon":8.9431507,"type":"village"},{"id":"501367103","name":"Mbilla","lat":9.9,"lon":12.616667,"type":"village"},{"id":"501367114","name":"Laminga","lat":9.8665919,"lon":8.9500044,"type":"village"},{"id":"501367179","name":"Kusoziko","lat":9.0566962,"lon":5.2103426,"type":"village"},{"id":"501367186","name":"Adeleye","lat":7.533147,"lon":3.5181415,"type":"village"},{"id":"501367212","name":"Torofani","lat":5.3033032,"lon":6.3303231,"type":"village"},{"id":"501367226","name":"Aba Osa","lat":7.633333,"lon":4.066667,"type":"village"},{"id":"501367294","name":"Nduku","lat":9.6833366,"lon":9.7833146,"type":"village"},{"id":"501367328","name":"Ileko","lat":7.716667,"lon":4.116667,"type":"village"},{"id":"501367383","name":"Gamadio","lat":9.4664765,"lon":11.6786445,"type":"village"},{"id":"501367482","name":"Akumani","lat":5.1012832,"lon":6.4047001,"type":"village"},{"id":"501367490","name":"Gasakba","lat":9.116667,"lon":6.866667,"type":"village"},{"id":"501367515","name":"Seko","lat":8.783333,"lon":4.433333,"type":"village"},{"id":"501367531","name":"Kafin Fulani","lat":11.35,"lon":9.733333,"type":"village"},{"id":"501367563","name":"Ajola","lat":7.2832101,"lon":3.94686,"type":"village"},{"id":"501367570","name":"Jem Petel","lat":9.322545,"lon":11.3787496,"type":"village"},{"id":"501367591","name":"Jauro Majo","lat":8.6913459,"lon":11.2853622,"type":"village"},{"id":"501367674","name":"Shanla","lat":8.916667,"lon":6.35,"type":"village"},{"id":"501367682","name":"Shania","lat":8.916667,"lon":6.35,"type":"village"},{"id":"501367748","name":"Akpuru","lat":5.916667,"lon":7.083333,"type":"town"},{"id":"501367765","name":"Dagilogba","lat":7.348056,"lon":3.750278,"type":"village"},{"id":"501367780","name":"Wase","lat":9.0952772,"lon":9.9580519,"type":"village"},{"id":"501367834","name":"Abuja","lat":9.25,"lon":6.933333,"type":"village"},{"id":"501367867","name":"Ekwereazu","lat":5.55,"lon":7.233333,"type":"village"},{"id":"501367882","name":"Maiyari;Maiyaki","lat":9.1465469,"lon":6.3191883,"type":"village"},{"id":"501367910","name":"Ayaboro","lat":7.0186515,"lon":10.7294168,"type":"village"},{"id":"501367941","name":"Shaki","lat":9.35,"lon":6.8,"type":"village"},{"id":"501367957","name":"Ngbele","lat":5.6811015,"lon":6.8482437,"type":"village"},{"id":"501367986","name":"Garin Jauro Adamu","lat":8.4664654,"lon":11.1166777,"type":"village"},{"id":"501368053","name":"Makwarua","lat":13.3364722,"lon":6.4015331,"type":"village"},{"id":"501368061","name":"Dan Tudu","lat":13.5990446,"lon":6.1562164,"type":"village"},{"id":"501368083","name":"Daura","lat":13.035917,"lon":8.319388,"type":"town"},{"id":"501368097","name":"Kutansami","lat":13.1191815,"lon":8.3310469,"type":"village"},{"id":"501368105","name":"Jerdedi","lat":13.0692297,"lon":8.3908291,"type":"village"},{"id":"501368121","name":"Babauri","lat":13.0910363,"lon":8.0390057,"type":"village"},{"id":"501368129","name":"Makerowa","lat":13.2666488,"lon":8.1410722,"type":"village"},{"id":"501368147","name":"Garrarak","lat":13.3512346,"lon":10.7960624,"type":"village"},{"id":"501368180","name":"Yalé","lat":11.707399,"lon":13.709149,"type":"village"},{"id":"501368202","name":"Malinda","lat":10.1580375,"lon":13.289045,"type":"village"},{"id":"501368226","name":"Giragira","lat":10.1203435,"lon":13.3881795,"type":"village"},{"id":"501368249","name":"Gombele Nassarau","lat":10.583445,"lon":13.0706,"type":"village"},{"id":"501368386","name":"Bararam Kura","lat":11.4816092,"lon":13.6159598,"type":"village"},{"id":"501368393","name":"Sabongari Chambula","lat":10.8667236,"lon":13.5190921,"type":"village"},{"id":"501368407","name":"Puba","lat":10.653367,"lon":13.192979,"type":"village"},{"id":"501368415","name":"Namtari","lat":10.249104,"lon":13.343685,"type":"village"},{"id":"501368429","name":"Sabongari Futu","lat":10.688722,"lon":13.248333,"type":"village"},{"id":"501368452","name":"Mairami","lat":11.6030762,"lon":13.4889038,"type":"village"},{"id":"501368486","name":"Kumumza","lat":10.9064565,"lon":13.317882,"type":"village"},{"id":"501368517","name":"Bagira","lat":10.3215757,"lon":13.4186292,"type":"village"},{"id":"501368603","name":"Paka","lat":10.107345,"lon":13.2286595,"type":"village"},{"id":"501368617","name":"Wamdida","lat":10.6522955,"lon":13.373612,"type":"village"},{"id":"501368632","name":"Kotchia","lat":10.255394,"lon":13.276735,"type":"village"},{"id":"501368640","name":"Ngorele","lat":10.7760935,"lon":13.335357,"type":"village"},{"id":"501368692","name":"Wuro Harde","lat":10.287316,"lon":13.2590465,"type":"village"},{"id":"501368728","name":"Kaya","lat":10.8155055,"lon":13.419515,"type":"village"},{"id":"501368793","name":"Gella","lat":10.1528945,"lon":13.2985395,"type":"village"},{"id":"501368918","name":"Lewa","lat":10.332272,"lon":13.3232665,"type":"village"},{"id":"501368946","name":"Tabzaiya","lat":10.2337475,"lon":13.317615,"type":"village"},{"id":"501368979","name":"Duda Wamngo","lat":10.288783,"lon":13.350534,"type":"village"},{"id":"501369002","name":"Allagarno","lat":11.1280258,"lon":13.1113395,"type":"village"},{"id":"501369008","name":"Ajiri","lat":11.6610484,"lon":13.1148915,"type":"village"},{"id":"501369055","name":"Kwang","lat":10.8434365,"lon":13.2226375,"type":"village"},{"id":"501369117","name":"Uvu","lat":10.495981,"lon":13.121852,"type":"village"},{"id":"501369240","name":"New Marte","lat":12.247594,"lon":13.870184,"type":"village"},{"id":"501369260","name":"Jakana","lat":11.6650495,"lon":14.0409705,"type":"village"},{"id":"501369267","name":"Rija","lat":11.6056716,"lon":14.0197535,"type":"village"},{"id":"501369287","name":"Laje","lat":12.1986,"lon":13.4277,"type":"village"},{"id":"501369436","name":"Bula-Bushara","lat":11.473369,"lon":14.1980795,"type":"village"},{"id":"501369483","name":"Bula Boyebe","lat":11.5559145,"lon":14.2268438,"type":"village"},{"id":"501369511","name":"Aduba","lat":12.8236771,"lon":13.1904749,"type":"village"},{"id":"501369574","name":"Metele","lat":13.358,"lon":13.4262,"type":"village"},{"id":"501369610","name":"Gamboro","lat":12.1325065,"lon":14.2228245,"type":"village"},{"id":"501369616","name":"Kaza","lat":12.007825,"lon":14.20909,"type":"village"},{"id":"501369625","name":"Wulgo","lat":12.2822185,"lon":14.1869605,"type":"village"},{"id":"501369639","name":"Bidawa","lat":13.3873791,"lon":13.2223471,"type":"village"},{"id":"501369646","name":"Kirta Wulgo","lat":12.7952883,"lon":14.1213813,"type":"village"},{"id":"501369660","name":"Yebi-Jemi","lat":13.1068151,"lon":13.5945075,"type":"village"},{"id":"501369701","name":"Ran","lat":12.0162792,"lon":14.4898788,"type":"village"},{"id":"501369706","name":"Daya","lat":13.517483,"lon":13.1209835,"type":"village"},{"id":"501369735","name":"Umuohiri","lat":5.733333,"lon":7.216667,"type":"village"},{"id":"501369742","name":"Kumo","lat":10.0490389,"lon":11.210524,"type":"town"},{"id":"501369766","name":"Wuro Bokka","lat":9.916129,"lon":13.2341274,"type":"village"},{"id":"501369771","name":"Yida","lat":9.383333,"lon":6.65,"type":"village"},{"id":"501369808","name":"Worumokato","lat":9.735278,"lon":4.110833,"type":"village"},{"id":"501369841","name":"Gu","lat":9.2590658,"lon":9.2820957,"type":"village"},{"id":"501369852","name":"Katsina Ala","lat":7.166667,"lon":9.283333,"type":"town"},{"id":"501369899","name":"Kurra","lat":9.4007812,"lon":8.7428803,"type":"village"},{"id":"501369922","name":"Odi","lat":5.5735361,"lon":5.7278957,"type":"village"},{"id":"501369971","name":"Panti Sawa","lat":8.95,"lon":11.516667,"type":"village"},{"id":"501369979","name":"Wurwar","lat":6.6665858,"lon":11.3039142,"type":"village"},{"id":"501370088","name":"Dan Karmawa","lat":13.4470366,"lon":6.3614099,"type":"village"},{"id":"501370120","name":"Gawasu","lat":13.2788756,"lon":5.606497,"type":"village"},{"id":"501370128","name":"Lano","lat":10.1724723,"lon":11.4715267,"type":"town"},{"id":"501370150","name":"Okuta","lat":9.2192002,"lon":3.1966797,"type":"village"},{"id":"501370162","name":"Mayir","lat":9.2501685,"lon":8.60074,"type":"village"},{"id":"501370207","name":"Tola Jabu","lat":8.766667,"lon":11.933333,"type":"village"},{"id":"501370285","name":"Dogon Ruwa","lat":9.648611,"lon":10.389444,"type":"village"},{"id":"501370521","name":"Didan","lat":7.333333,"lon":10.55,"type":"village"},{"id":"501370530","name":"Afon","lat":7.4314403,"lon":2.9343356,"type":"village"},{"id":"501370558","name":"Bashanko","lat":9.416667,"lon":6.216667,"type":"village"},{"id":"501370737","name":"Dumaji","lat":8.9632503,"lon":5.1388549,"type":"village"},{"id":"501370813","name":"Egudenago","lat":6.3,"lon":8.266667,"type":"village"},{"id":"501370827","name":"Asipa","lat":7.5,"lon":4.433333,"type":"village"},{"id":"501370860","name":"Abemo","lat":7.483333,"lon":3.566667,"type":"village"},{"id":"501370869","name":"Fulawari","lat":11.366667,"lon":12.683333,"type":"village"},{"id":"501370957","name":"Ajamagba","lat":8.35,"lon":4.3,"type":"village"},{"id":"501371040","name":"Iganmi","lat":6.65,"lon":2.783333,"type":"village"},{"id":"501371092","name":"Kutalifi","lat":10.333333,"lon":7.333333,"type":"village"},{"id":"501371123","name":"Cheche","lat":9.366667,"lon":6.266667,"type":"village"},{"id":"501371172","name":"Chawa","lat":9.35,"lon":12.7,"type":"village"},{"id":"501371190","name":"Eziama","lat":5.95,"lon":7.3,"type":"village"},{"id":"501371219","name":"Agurodo","lat":7.933333,"lon":4.266667,"type":"village"},{"id":"501371236","name":"Jadadi","lat":12.2074393,"lon":4.5142637,"type":"village"},{"id":"501371276","name":"Shimbo","lat":9.0999999,"lon":6.8833331,"type":"village"},{"id":"501371284","name":"Kwangwara","lat":11.4913245,"lon":9.5800265,"type":"village"},{"id":"501371322","name":"Obolimi","lat":7.083333,"lon":7.2,"type":"village"},{"id":"501371342","name":"Oloparun","lat":7.116667,"lon":3.65,"type":"village"},{"id":"501371394","name":"Anguwan Audu","lat":10.3439,"lon":11.9255,"type":"town"},{"id":"501371446","name":"Mangu Halle","lat":9.5064431,"lon":9.1070433,"type":"village"},{"id":"501371467","name":"Okopedi Itu","lat":5.2039942,"lon":7.9675178,"type":"village"},{"id":"501371476","name":"Wasimi","lat":8.0116353,"lon":2.721531,"type":"village"},{"id":"501371496","name":"Ilashe","lat":6.6930099,"lon":2.7931606,"type":"village"},{"id":"501371505","name":"Iiashe","lat":6.6929886,"lon":2.7931392,"type":"village"},{"id":"501371532","name":"Zangan Azumi","lat":10.783333,"lon":6.85,"type":"village"},{"id":"501371537","name":"Unguwa Kangarro","lat":9.7255921,"lon":7.7608734,"type":"village"},{"id":"501371663","name":"Ijomo","lat":8.2491261,"lon":4.9072129,"type":"village"},{"id":"501371717","name":"Utchi","lat":5.9079506,"lon":6.6666885,"type":"village"},{"id":"501371729","name":"Obala","lat":8.2740437,"lon":4.9541816,"type":"village"},{"id":"501371746","name":"Chenchenji","lat":7.516667,"lon":9.933333,"type":"village"},{"id":"501371869","name":"Sakuli","lat":8.5163205,"lon":12.2334896,"type":"village"},{"id":"501371897","name":"Okavborhan","lat":6.266667,"lon":5.683333,"type":"village"},{"id":"501371915","name":"Bana","lat":13.2690802,"lon":12.6510057,"type":"village"},{"id":"501371980","name":"Maigana","lat":10.3080502,"lon":11.5876768,"type":"village"},{"id":"501372033","name":"Ibili","lat":10.5467685,"lon":5.3213332,"type":"town"},{"id":"501372058","name":"Gwardin","lat":9.816667,"lon":9.85,"type":"village"},{"id":"501372086","name":"Oniog Ono","lat":5.366667,"lon":7.716667,"type":"village"},{"id":"501372105","name":"Idologun","lat":6.7885831,"lon":2.818654,"type":"village"},{"id":"501372137","name":"Modo","lat":6.5173818,"lon":2.8038027,"type":"village"},{"id":"501372203","name":"Owojo","lat":7.116667,"lon":3.683333,"type":"village"},{"id":"501372247","name":"Danbitam","lat":10.4463078,"lon":11.7474865,"type":"village"},{"id":"501372290","name":"Ovah","lat":6.3833249,"lon":5.5500069,"type":"village"},{"id":"501372299","name":"Raba","lat":9.2100995,"lon":5.0289058,"type":"village"},{"id":"501372302","name":"Obiaruku","lat":5.841407,"lon":6.153376,"type":"town"},{"id":"501372308","name":"Warihu","lat":8.783333,"lon":5.316667,"type":"village"},{"id":"501372400","name":"Mabirio","lat":10.9023388,"lon":5.0149772,"type":"village"},{"id":"501372418","name":"Odo-Oba","lat":7.85,"lon":4.066667,"type":"village"},{"id":"501372468","name":"Yupe","lat":8.6647916,"lon":12.6512683,"type":"village"},{"id":"501372590","name":"Eleke","lat":6.1099208,"lon":8.1556869,"type":"village"},{"id":"501372598","name":"Egbokoriko","lat":6.653083,"lon":8.707091,"type":"village"},{"id":"501372621","name":"Efie Mgbabu","lat":6.0959124,"lon":8.1527848,"type":"village"},{"id":"501372642","name":"Nnamg","lat":6.46691,"lon":8.68846,"type":"village"},{"id":"501372656","name":"Enyibichiri","lat":6.36974,"lon":8.059528,"type":"village"},{"id":"501372688","name":"Ofunyeonu","lat":6.380712,"lon":8.383512,"type":"village"},{"id":"501372706","name":"Yawuria","lat":12.0516947,"lon":3.832348,"type":"village"},{"id":"501372728","name":"Ogbaga","lat":6.376204,"lon":8.129187,"type":"village"},{"id":"501372760","name":"Dabi","lat":12.0889655,"lon":8.963763,"type":"village"},{"id":"501372812","name":"Arrimakpan","lat":6.128969,"lon":8.892957,"type":"village"},{"id":"501372825","name":"Ndiabongiji","lat":6.377534,"lon":8.353522,"type":"village"},{"id":"501372862","name":"Faifaiku","lat":12.663696,"lon":8.236706,"type":"village"},{"id":"501372870","name":"Biga Ganwo","lat":12.1215138,"lon":3.8529617,"type":"village"},{"id":"501372879","name":"Mgbabu","lat":6.149575,"lon":8.3139831,"type":"village"},{"id":"501372918","name":"Obagu Ete","lat":6.277569,"lon":8.38475,"type":"village"},{"id":"501372925","name":"Tungan Kiroma","lat":11.6788355,"lon":3.7295512,"type":"village"},{"id":"501373080","name":"Ndegbaraso","lat":6.705366,"lon":8.142645,"type":"village"},{"id":"501373089","name":"Edukwu Iyima","lat":6.7208,"lon":8.175235,"type":"village"},{"id":"501373105","name":"Ndibiofa","lat":6.473809,"lon":8.33067,"type":"village"},{"id":"501373123","name":"Ijutum","lat":6.2193081,"lon":8.3868692,"type":"village"},{"id":"501373153","name":"Ohaglede","lat":6.692,"lon":8.1443,"type":"village"},{"id":"501373253","name":"Mbagidi","lat":6.5724,"lon":8.773,"type":"village"},{"id":"501373265","name":"Ngbo","lat":6.362741,"lon":8.152531,"type":"village"},{"id":"501373377","name":"Nwafo Oge","lat":6.204707,"lon":8.168891,"type":"village"},{"id":"501373384","name":"Nkrigom","lat":6.2947,"lon":8.6068,"type":"village"},{"id":"501373399","name":"Nko","lat":6.0163,"lon":8.1417,"type":"village"},{"id":"501373408","name":"Ikwo","lat":6.0716,"lon":8.1028,"type":"village"},{"id":"501373425","name":"Ugbenu","lat":6.037167,"lon":5.673125,"type":"village"},{"id":"501373445","name":"Kaoje","lat":11.9490001,"lon":3.9015783,"type":"village"},{"id":"501373453","name":"Farsangu","lat":12.4750662,"lon":3.8150363,"type":"village"},{"id":"501373470","name":"Sabon Gari","lat":11.6824284,"lon":3.7921931,"type":"village"},{"id":"501373513","name":"Gumunde","lat":12.37125,"lon":3.7213173,"type":"village"},{"id":"501373620","name":"Umegbe","lat":6.2277175,"lon":5.5557515,"type":"village"},{"id":"501373636","name":"Ilorin","lat":6.8081871,"lon":5.2927011,"type":"village"},{"id":"501373643","name":"Tungan Baidu","lat":11.8236185,"lon":3.9176208,"type":"village"},{"id":"501374120","name":"Ukpohi","lat":6.587672,"lon":5.949092,"type":"village"},{"id":"501374142","name":"Kurgungun","lat":12.3847205,"lon":8.8167862,"type":"village"},{"id":"501374150","name":"Kanya Maikaho","lat":12.364904,"lon":8.915962,"type":"village"},{"id":"501374168","name":"Amacuku","lat":12.5799241,"lon":8.5907388,"type":"village"},{"id":"501374176","name":"Nanumawa","lat":12.6385088,"lon":8.2290195,"type":"village"},{"id":"501374216","name":"Kazaure","lat":12.6539609,"lon":8.4149294,"type":"village"},{"id":"501374221","name":"Bakaina Bura","lat":10.1395,"lon":12.0336,"type":"village"},{"id":"501374233","name":"May Kilia","lat":12.9020954,"lon":8.7497006,"type":"village"},{"id":"501374250","name":"Canga","lat":12.191246,"lon":8.7146311,"type":"village"},{"id":"501374266","name":"Dugu Bangu","lat":11.6221993,"lon":3.8857922,"type":"village"},{"id":"501374289","name":"Yadia Dankuri","lat":12.6377786,"lon":8.6168001,"type":"village"},{"id":"501374329","name":"Kuzunzumi","lat":12.5919898,"lon":8.6618325,"type":"village"},{"id":"501374374","name":"Kwara Tegi","lat":11.6232024,"lon":3.8373678,"type":"village"},{"id":"501374384","name":"Gamii","lat":11.621109,"lon":3.8447092,"type":"village"},{"id":"501374446","name":"Kulari Lawanti","lat":10.995955,"lon":12.948746,"type":"village"},{"id":"501374473","name":"Gangara","lat":12.681924,"lon":8.701712,"type":"village"},{"id":"501374481","name":"Tassawa","lat":12.651913,"lon":8.704884,"type":"village"},{"id":"501374508","name":"Goron Baram","lat":11.9024704,"lon":3.888268,"type":"village"},{"id":"501374519","name":"Goro-Malam","lat":11.8677824,"lon":3.8778215,"type":"village"},{"id":"501374534","name":"Bwala","lat":10.4311507,"lon":12.0431348,"type":"village"},{"id":"501374545","name":"Degiri","lat":10.4784737,"lon":12.1223704,"type":"village"},{"id":"501374552","name":"Debiro East","lat":10.5796,"lon":12.4382,"type":"village"},{"id":"501374595","name":"Tungan Sumaru","lat":11.6686273,"lon":3.7656024,"type":"village"},{"id":"501374636","name":"Ungwan Bawaci","lat":12.4303364,"lon":3.9544693,"type":"village"},{"id":"501374642","name":"Tungan Danbena","lat":12.1509172,"lon":3.946714,"type":"village"},{"id":"501374650","name":"Bakarkuka","lat":12.681672,"lon":8.930564,"type":"village"},{"id":"501374660","name":"Kwakwaba","lat":11.7396403,"lon":3.7256483,"type":"village"},{"id":"501374683","name":"Batali","lat":12.636354,"lon":8.757905,"type":"village"},{"id":"501374690","name":"Batale","lat":12.636354,"lon":8.757905,"type":"village"},{"id":"501374739","name":"Chironbi Mallamai","lat":12.649043,"lon":8.928651,"type":"village"},{"id":"501374762","name":"Tungan Habi","lat":11.7040988,"lon":3.6727853,"type":"village"},{"id":"501374772","name":"Tudun Sani","lat":11.6924237,"lon":3.6787323,"type":"village"},{"id":"501374798","name":"Sabon Gari Rafaria","lat":12.7252366,"lon":3.9553341,"type":"village"},{"id":"501374808","name":"Ungua Cinai","lat":12.6026352,"lon":8.6517442,"type":"village"},{"id":"501374817","name":"Tungan Bauna","lat":11.8115841,"lon":3.786292,"type":"village"},{"id":"501374824","name":"Ohoghobi","lat":6.2248431,"lon":5.6349423,"type":"village"},{"id":"501374849","name":"Gagulam","lat":10.9118608,"lon":12.8775088,"type":"village"},{"id":"501374866","name":"Salwia","lat":12.168899,"lon":3.9893114,"type":"village"},{"id":"501374883","name":"Tungan Musa","lat":11.9371195,"lon":3.8963921,"type":"village"},{"id":"501374898","name":"Okoro","lat":6.712631,"lon":5.333535,"type":"village"},{"id":"501374904","name":"Tunga Bala","lat":12.2185464,"lon":3.9687716,"type":"village"},{"id":"501374934","name":"Danjatun","lat":12.2303084,"lon":8.6371406,"type":"village"},{"id":"501374958","name":"Kaweri","lat":12.8876,"lon":8.694264,"type":"village"},{"id":"501374974","name":"Bolama","lat":10.0308251,"lon":12.0844288,"type":"village"},{"id":"501374985","name":"Burugwi","lat":10.4922711,"lon":12.2597354,"type":"village"},{"id":"501375010","name":"Siri","lat":12.0606499,"lon":3.9151422,"type":"village"},{"id":"501375019","name":"Tungan Arawa","lat":11.4233595,"lon":3.7716976,"type":"village"},{"id":"501375065","name":"Gidan Dan Badamasi","lat":12.2286748,"lon":8.6040274,"type":"village"},{"id":"501375091","name":"Ovade","lat":6.0069619,"lon":5.7028333,"type":"village"},{"id":"501375240","name":"Zaman Gera","lat":12.4229713,"lon":6.4509516,"type":"village"},{"id":"501375249","name":"Unguwar Delu","lat":12.795468,"lon":8.628802,"type":"village"},{"id":"501375298","name":"Raya","lat":12.3672153,"lon":3.6717447,"type":"village"},{"id":"501375307","name":"Molgu","lat":12.5499268,"lon":3.7865085,"type":"village"},{"id":"501375381","name":"Tungan Maigari","lat":11.6690276,"lon":3.79772,"type":"village"},{"id":"501375398","name":"Adakaka","lat":12.3338757,"lon":3.8310301,"type":"village"},{"id":"501375414","name":"Samia","lat":11.1620299,"lon":3.7175781,"type":"village"},{"id":"501375474","name":"Tunga Kokani","lat":11.7155072,"lon":3.8135549,"type":"village"},{"id":"501375483","name":"Tungan Kwokoi","lat":11.7120618,"lon":3.8229607,"type":"village"},{"id":"501375519","name":"Mijili","lat":10.3482464,"lon":12.9829264,"type":"village"},{"id":"501375540","name":"Ganderi","lat":12.222,"lon":8.8924309,"type":"village"},{"id":"501375554","name":"Tong","lat":10.5429129,"lon":12.2587299,"type":"village"},{"id":"501375574","name":"Jaromboyi","lat":10.0585956,"lon":12.3761558,"type":"village"},{"id":"501375593","name":"Tum","lat":10.6069,"lon":12.1088,"type":"village"},{"id":"501375610","name":"Ungwan Malamawa","lat":12.5450022,"lon":3.9076159,"type":"village"},{"id":"501375672","name":"Ungwar Mallam Birama","lat":10.382854,"lon":12.0487291,"type":"village"},{"id":"501375684","name":"Bechia","lat":12.9028725,"lon":8.6856449,"type":"village"},{"id":"501375769","name":"Ago Atilabo","lat":6.032734,"lon":5.029912,"type":"village"},{"id":"501375808","name":"Pelambirni","lat":10.4064044,"lon":12.371782,"type":"village"},{"id":"501375890","name":"Anguwar Babeto","lat":10.2194,"lon":12.0616,"type":"town"},{"id":"501375899","name":"Mubang","lat":10.394953,"lon":12.745583,"type":"village"},{"id":"501375962","name":"Yanbuki","lat":12.800724,"lon":6.652596,"type":"village"},{"id":"501376000","name":"Kogu","lat":10.4293,"lon":12.0227,"type":"village"},{"id":"501376008","name":"Egbal","lat":6.2737695,"lon":5.7030127,"type":"village"},{"id":"501376040","name":"Yaya","lat":12.6395026,"lon":8.6276358,"type":"village"},{"id":"501376101","name":"Eyaem","lat":6.384139,"lon":5.6907349,"type":"village"},{"id":"501376108","name":"Ekodel","lat":6.383635,"lon":5.710826,"type":"village"},{"id":"501376138","name":"Kelling","lat":10.3086264,"lon":12.1755967,"type":"village"},{"id":"501376162","name":"Zugai","lat":12.5591772,"lon":8.3100779,"type":"village"},{"id":"501376178","name":"Wovi","lat":10.9984287,"lon":12.7839194,"type":"village"},{"id":"501376202","name":"Hyera Central","lat":10.4754033,"lon":12.3049765,"type":"village"},{"id":"501376233","name":"Dulmi","lat":10.4840003,"lon":12.2803487,"type":"village"},{"id":"501376273","name":"Boftari","lat":10.8871693,"lon":12.9450253,"type":"village"},{"id":"501376285","name":"Oduna","lat":6.214851,"lon":5.439892,"type":"village"},{"id":"501376300","name":"Obazua","lat":6.278187,"lon":5.480911,"type":"village"},{"id":"501376308","name":"Evboneka","lat":6.509618,"lon":5.616868,"type":"village"},{"id":"501376316","name":"Zaman","lat":10.3789919,"lon":12.0177861,"type":"village"},{"id":"501376330","name":"Purdla","lat":10.4645688,"lon":12.069345,"type":"village"},{"id":"501376349","name":"Tinkim","lat":12.828234,"lon":8.976052,"type":"village"},{"id":"501376365","name":"Ofunama","lat":6.1490426,"lon":5.2159133,"type":"village"},{"id":"501376372","name":"Yimirshika 1","lat":10.5273,"lon":12.2414,"type":"town"},{"id":"501376416","name":"Ogbesse","lat":6.761907,"lon":5.561016,"type":"village"},{"id":"501376442","name":"Gombi Fulani","lat":10.1621453,"lon":12.7398611,"type":"village"},{"id":"501376452","name":"Girgili","lat":10.0153344,"lon":12.1377285,"type":"village"},{"id":"501376461","name":"Ghung","lat":10.4108,"lon":12.5209,"type":"village"},{"id":"501376522","name":"Wuro Boki","lat":10.077313,"lon":12.0530323,"type":"village"},{"id":"501376578","name":"Labu","lat":10.3443141,"lon":12.2109926,"type":"village"},{"id":"501376601","name":"Lambu","lat":12.0012053,"lon":8.3557864,"type":"village"},{"id":"501376624","name":"Gur Lawan","lat":10.7782775,"lon":12.231655,"type":"village"},{"id":"501376640","name":"Gundu","lat":10.3914635,"lon":12.0720827,"type":"village"},{"id":"501376671","name":"Lafiya","lat":10.3425055,"lon":12.0433135,"type":"village"},{"id":"501376684","name":"Hizhi Gwaram","lat":10.6536,"lon":12.129,"type":"village"},{"id":"501376697","name":"Duzau","lat":12.476183,"lon":8.776335,"type":"village"},{"id":"501376711","name":"Dingel","lat":10.1193454,"lon":12.3048906,"type":"village"},{"id":"501376734","name":"Mai Anguwa Ali","lat":10.3993,"lon":12.0172,"type":"village"},{"id":"501376741","name":"Yalwa Barki","lat":10.5976,"lon":12.2114,"type":"village"},{"id":"501376768","name":"Jeki Kanakuru","lat":10.0696046,"lon":12.0027576,"type":"village"},{"id":"501376775","name":"Okokpon","lat":6.6359775,"lon":5.3329478,"type":"town"},{"id":"501376797","name":"Malori Faragona","lat":12.098655,"lon":8.5208181,"type":"village"},{"id":"501376803","name":"Gwaskara","lat":10.2779,"lon":12.1419,"type":"village"},{"id":"501376886","name":"Dawaki","lat":12.102654,"lon":8.331363,"type":"village"},{"id":"501376922","name":"Iguoghae","lat":6.346274,"lon":5.889073,"type":"village"},{"id":"501376944","name":"Kashim","lat":10.1334,"lon":12.0638,"type":"village"},