[{"id":"27434277","name":"Iquitos","lat":-3.749365,"lon":-73.2444145,"type":"city"},{"id":"59043304","name":"Puno","lat":-15.8405962,"lon":-70.0279512,"type":"city"},{"id":"59115290","name":"Cuzco","lat":-13.5170887,"lon":-71.9785356,"type":"city"},{"id":"107988853","name":"Callao","lat":-12.0522626,"lon":-77.1391133,"type":"city"},{"id":"253855157","name":"Arequipa","lat":-16.3988667,"lon":-71.5369607,"type":"city"},{"id":"253905310","name":"Juliaca","lat":-15.4932314,"lon":-70.1356177,"type":"city"},{"id":"253906555","name":"Chivay","lat":-15.6366885,"lon":-71.602217,"type":"town"},{"id":"253909180","name":"Pisco","lat":-13.7099813,"lon":-76.2029793,"type":"town"},{"id":"254014114","name":"Camaná","lat":-16.6248458,"lon":-72.7114514,"type":"town"},{"id":"256492616","name":"Carhuamayo","lat":-10.9224563,"lon":-76.0578361,"type":"town"},{"id":"257938074","name":"Ollantaytambo","lat":-13.2586458,"lon":-72.2636012,"type":"town"},{"id":"258064159","name":"Ica","lat":-14.0640967,"lon":-75.7290915,"type":"city"},{"id":"258072425","name":"Mollendo","lat":-17.0292533,"lon":-72.0155447,"type":"town"},{"id":"258083746","name":"Cotahuasi","lat":-15.2126221,"lon":-72.889254,"type":"town"},{"id":"258168844","name":"Caylloma","lat":-15.1885771,"lon":-71.7729945,"type":"town"},{"id":"258187852","name":"Aplao","lat":-16.0764611,"lon":-72.4921172,"type":"town"},{"id":"258191322","name":"El Triunfo","lat":-16.4964757,"lon":-71.8385732,"type":"town"},{"id":"258308774","name":"Paracas","lat":-13.834104,"lon":-76.2488648,"type":"town"},{"id":"262942980","name":"Santa Lucía","lat":-15.6987668,"lon":-70.6065559,"type":"town"},{"id":"262944908","name":"Ayaviri","lat":-14.8818397,"lon":-70.5900142,"type":"town"},{"id":"262945603","name":"Sicuani","lat":-14.2729288,"lon":-71.2265322,"type":"town"},{"id":"267367682","name":"Yauri","lat":-14.7930081,"lon":-71.412802,"type":"town"},{"id":"267374528","name":"Ilave","lat":-16.086789,"lon":-69.6385874,"type":"town"},{"id":"268116782","name":"Huancavelica","lat":-12.78728,"lon":-74.9730951,"type":"town"},{"id":"268127318","name":"Huancayo","lat":-12.068098,"lon":-75.2100953,"type":"city"},{"id":"268130103","name":"La Oroya","lat":-11.5200768,"lon":-75.9013948,"type":"town"},{"id":"268582528","name":"Andahuaylas","lat":-13.6564057,"lon":-73.3899459,"type":"city"},{"id":"268599713","name":"Abancay","lat":-13.6373482,"lon":-72.8788744,"type":"city"},{"id":"268802158","name":"Puerto Maldonado","lat":-12.5938633,"lon":-69.1866773,"type":"city"},{"id":"269989213","name":"Contamana","lat":-7.3504619,"lon":-75.0090611,"type":"town"},{"id":"270919346","name":"Atalaya","lat":-10.7299061,"lon":-73.7548827,"type":"town"},{"id":"271351213","name":"Yurimaguas","lat":-5.8951672,"lon":-76.1046533,"type":"town"},{"id":"272029209","name":"Ayacucho","lat":-13.1604269,"lon":-74.2256973,"type":"city"},{"id":"272367389","name":"Huaraz","lat":-9.5298511,"lon":-77.5289981,"type":"city"},{"id":"272377981","name":"Trujillo","lat":-8.1116778,"lon":-79.0287742,"type":"city"},{"id":"272378756","name":"Cajamarca","lat":-7.1566682,"lon":-78.517306,"type":"city"},{"id":"272379571","name":"Piura","lat":-5.1971052,"lon":-80.6266607,"type":"city"},{"id":"272399411","name":"Cerro de Pasco","lat":-10.6835926,"lon":-76.2561123,"type":"town"},{"id":"272400894","name":"Tarapoto","lat":-6.4877198,"lon":-76.3598708,"type":"city"},{"id":"272401474","name":"Huánuco","lat":-9.9293255,"lon":-76.2394845,"type":"city"},{"id":"275587595","name":"Juanjuí","lat":-7.1793768,"lon":-76.7280743,"type":"town"},{"id":"276081341","name":"Orellana","lat":-6.9114308,"lon":-75.1582988,"type":"town"},{"id":"276090685","name":"San Lorenzo","lat":-4.831603,"lon":-76.5545501,"type":"town"},{"id":"276523895","name":"Tarma","lat":-11.4199882,"lon":-75.6877142,"type":"town"},{"id":"276524293","name":"San Ramón","lat":-11.1214018,"lon":-75.3521478,"type":"town"},{"id":"276524308","name":"La Merced","lat":-11.0560569,"lon":-75.3282648,"type":"town"},{"id":"277434359","name":"Picota","lat":-6.9202134,"lon":-76.3303859,"type":"town"},{"id":"277755254","name":"Tingo María","lat":-9.2983713,"lon":-76.0003034,"type":"town"},{"id":"277761742","name":"Aucayacu","lat":-8.9317073,"lon":-76.1159788,"type":"town"},{"id":"277763267","name":"Santa Lucía","lat":-8.3469093,"lon":-76.3909468,"type":"town"},{"id":"277764037","name":"Tocache","lat":-8.1887651,"lon":-76.510263,"type":"town"},{"id":"278074020","name":"Jaén","lat":-5.7086087,"lon":-78.8075898,"type":"city"},{"id":"278074108","name":"Bagua","lat":-5.6390867,"lon":-78.5317246,"type":"town"},{"id":"286780224","name":"Junín","lat":-11.1612953,"lon":-75.9980867,"type":"town"},{"id":"286869077","name":"La Joya","lat":-16.4235536,"lon":-71.8178329,"type":"town"},{"id":"286883342","name":"Perené","lat":-10.9489274,"lon":-75.2264123,"type":"town"},{"id":"287228285","name":"Chalhuanca","lat":-14.2945256,"lon":-73.2442285,"type":"town"},{"id":"287231913","name":"Puquio","lat":-14.6940105,"lon":-74.1242183,"type":"town"},{"id":"287346439","name":"Recuay","lat":-9.722026,"lon":-77.4561556,"type":"town"},{"id":"287354765","name":"Paramonga","lat":-10.6751894,"lon":-77.8185202,"type":"town"},{"id":"287355649","name":"Barranca","lat":-10.7541212,"lon":-77.7609383,"type":"town"},{"id":"287835242","name":"Casma","lat":-9.4758024,"lon":-78.3054219,"type":"town"},{"id":"287844737","name":"Chimbote","lat":-9.0744966,"lon":-78.593609,"type":"city"},{"id":"288398785","name":"Yungay","lat":-9.1397639,"lon":-77.7446153,"type":"town"},{"id":"288399269","name":"Caraz","lat":-9.048505,"lon":-77.8100573,"type":"town"},{"id":"288406030","name":"Virú","lat":-8.4142913,"lon":-78.7522085,"type":"town"},{"id":"288556691","name":"Juli","lat":-16.2132873,"lon":-69.4591568,"type":"town"},{"id":"288563196","name":"Desaguadero","lat":-16.564809,"lon":-69.0401545,"type":"town"},{"id":"288565877","name":"Yunguyo","lat":-16.2442325,"lon":-69.0925538,"type":"town"},{"id":"288675656","name":"Moho","lat":-15.3607727,"lon":-69.4998358,"type":"town"},{"id":"288677942","name":"Lampa","lat":-15.3644309,"lon":-70.3666168,"type":"town"},{"id":"288682279","name":"Huancané","lat":-15.2040929,"lon":-69.7613717,"type":"town"},{"id":"289380015","name":"Chancay","lat":-11.5627697,"lon":-77.2699958,"type":"town"},{"id":"290011342","name":"Bambamarca","lat":-6.6796418,"lon":-78.5192859,"type":"town"},{"id":"290011452","name":"Chota","lat":-6.561468,"lon":-78.6501767,"type":"town"},{"id":"290012144","name":"Hualgayoc","lat":-6.764312,"lon":-78.6069748,"type":"town"},{"id":"290013122","name":"Florida","lat":-5.8262269,"lon":-77.9691875,"type":"town"},{"id":"292250901","name":"Paucartambo","lat":-13.3176052,"lon":-71.5959691,"type":"town"},{"id":"292909409","name":"Tembladera","lat":-7.2531814,"lon":-79.1307899,"type":"town"},{"id":"292915738","name":"Cutervo","lat":-6.3774515,"lon":-78.8181649,"type":"town"},{"id":"304296640","name":"Sullana","lat":-4.8900643,"lon":-80.6873604,"type":"city"},{"id":"316181077","name":"Carhuaz","lat":-9.2817496,"lon":-77.646261,"type":"town"},{"id":"316253267","name":"Huallanca","lat":-9.8993086,"lon":-76.94166,"type":"town"},{"id":"318808656","name":"Pucusana","lat":-12.4816307,"lon":-76.7977746,"type":"town"},{"id":"320030135","name":"Chulucanas","lat":-5.0965065,"lon":-80.1609229,"type":"town"},{"id":"320034016","name":"Ferreñafe","lat":-6.6392169,"lon":-79.7879824,"type":"town"},{"id":"320100077","name":"Chiclayo","lat":-6.7716146,"lon":-79.8387175,"type":"city"},{"id":"320109749","name":"Catacaos","lat":-5.2654817,"lon":-80.6760774,"type":"town"},{"id":"320112033","name":"Pacasmayo","lat":-7.4028958,"lon":-79.5684847,"type":"town"},{"id":"320115335","name":"Chocope","lat":-7.7918461,"lon":-79.2226569,"type":"town"},{"id":"334651528","name":"Laredo","lat":-8.0864545,"lon":-78.9594124,"type":"town"},{"id":"338535898","name":"Máncora","lat":-4.1030531,"lon":-81.0481341,"type":"town"},{"id":"338539511","name":"Tumbes","lat":-3.5707875,"lon":-80.4596454,"type":"city"},{"id":"340125505","name":"Bagua Grande","lat":-5.754216,"lon":-78.4421686,"type":"town"},{"id":"340140307","name":"Chachapoyas","lat":-6.2293182,"lon":-77.8714631,"type":"town"},{"id":"346472191","name":"Huanta","lat":-12.9398882,"lon":-74.2479531,"type":"town"},{"id":"347387631","name":"Lambayeque","lat":-6.703027,"lon":-79.9065086,"type":"town"},{"id":"347387925","name":"Mochumí","lat":-6.5474461,"lon":-79.8645893,"type":"town"},{"id":"347388825","name":"Batán Grande","lat":-6.4839012,"lon":-79.6524498,"type":"town"},{"id":"352711315","name":"Yauyos","lat":-12.4596576,"lon":-75.9187003,"type":"town"},{"id":"367689209","name":"Cabana","lat":-8.3929196,"lon":-78.0090747,"type":"town"},{"id":"384922562","name":"Lunahuaná","lat":-12.9629732,"lon":-76.1400646,"type":"town"},{"id":"384942308","name":"Chincha Alta","lat":-13.4176283,"lon":-76.1326405,"type":"city"},{"id":"388564683","name":"Huaytará","lat":-13.6044057,"lon":-75.3531892,"type":"town"},{"id":"389531512","name":"San Pedro de Lloc","lat":-7.4246919,"lon":-79.5032823,"type":"town"},{"id":"391530025","name":"Imperial","lat":-13.0610167,"lon":-76.3529217,"type":"town"},{"id":"391530046","name":"San Vicente de Cañete","lat":-13.077767,"lon":-76.3874465,"type":"town"},{"id":"392920750","name":"Vilcas Huaman","lat":-13.6530968,"lon":-73.9538315,"type":"town"},{"id":"401890959","name":"Indiana","lat":-3.4996924,"lon":-73.041948,"type":"town"},{"id":"401890974","name":"Mazán","lat":-3.4976682,"lon":-73.0894632,"type":"town"},{"id":"409705339","name":"Talara","lat":-4.5796872,"lon":-81.2718335,"type":"city"},{"id":"410332591","name":"Tamshiyacu","lat":-4.0029788,"lon":-73.1605897,"type":"town"},{"id":"411804006","name":"Rioja","lat":-6.0627128,"lon":-77.1677322,"type":"town"},{"id":"411804007","name":"Moyobamba","lat":-6.0347302,"lon":-76.9746773,"type":"town"},{"id":"411805546","name":"Pueblo Libre","lat":-5.8759426,"lon":-77.1215144,"type":"town"},{"id":"411805891","name":"Calzada","lat":-6.0295376,"lon":-77.066694,"type":"town"},{"id":"411805960","name":"Jepelacio","lat":-6.108003,"lon":-76.9150054,"type":"town"},{"id":"411806194","name":"Nueva Cajamarca","lat":-5.9407861,"lon":-77.3092386,"type":"town"},{"id":"411806218","name":"Segunda Jerusalén","lat":-5.9883714,"lon":-77.278456,"type":"town"},{"id":"411812204","name":"Soritor","lat":-6.1392924,"lon":-77.1021623,"type":"town"},{"id":"436613486","name":"Calca","lat":-13.3216818,"lon":-71.9560084,"type":"town"},{"id":"441008049","name":"Urubamba","lat":-13.305953,"lon":-72.1159706,"type":"town"},{"id":"441888431","name":"Yanaoca","lat":-14.2169433,"lon":-71.4320333,"type":"town"},{"id":"460203427","name":"Chinchero","lat":-13.3957999,"lon":-72.051771,"type":"town"},{"id":"467653110","name":"Santo Tomás","lat":-14.4500414,"lon":-72.081998,"type":"town"},{"id":"467949396","name":"San Antonio del Estrecho","lat":-2.4502824,"lon":-72.6684637,"type":"town"},{"id":"476276784","name":"Pisac","lat":-13.4210472,"lon":-71.850496,"type":"town"},{"id":"483557650","name":"San Ignacio","lat":-5.1459194,"lon":-79.0036525,"type":"town"},{"id":"495155554","name":"Etén","lat":-6.9074587,"lon":-79.8628053,"type":"town"},{"id":"496271422","name":"Concepción","lat":-11.918435,"lon":-75.3130386,"type":"town"},{"id":"498747040","name":"Cangallo","lat":-13.6293556,"lon":-74.1435896,"type":"town"},{"id":"498755589","name":"Saposoa","lat":-6.9318423,"lon":-76.7724793,"type":"town"},{"id":"541993558","name":"Matarani","lat":-17.0007604,"lon":-72.097831,"type":"town"},{"id":"557177985","name":"Yuracyacu","lat":-5.9306085,"lon":-77.2262651,"type":"town"},{"id":"557207455","name":"Tabalosos","lat":-6.3896162,"lon":-76.6342551,"type":"town"},{"id":"557209485","name":"Lamas","lat":-6.4220812,"lon":-76.5164123,"type":"town"},{"id":"557226290","name":"Sauce","lat":-6.6903361,"lon":-76.2172506,"type":"town"},{"id":"631393029","name":"Pedro Ruiz Gallo","lat":-5.9459738,"lon":-77.9779289,"type":"town"},{"id":"633650895","name":"Huanchaco","lat":-8.0800318,"lon":-79.1204769,"type":"town"},{"id":"663246812","name":"Villa Rica","lat":-10.7351432,"lon":-75.2676019,"type":"town"},{"id":"698553428","name":"San Alejandro","lat":-8.8282869,"lon":-75.212894,"type":"town"},{"id":"698553960","name":"Aguaytía","lat":-9.0385647,"lon":-75.5095249,"type":"town"},{"id":"698557784","name":"Curimaná","lat":-8.4339919,"lon":-75.1532203,"type":"town"},{"id":"704461802","name":"Campo Verde","lat":-8.4722773,"lon":-74.8057271,"type":"town"},{"id":"705042151","name":"Ilo","lat":-17.6458772,"lon":-71.3452005,"type":"town"},{"id":"705043730","name":"Punta de Bombón","lat":-17.1721359,"lon":-71.7905267,"type":"town"},{"id":"705045044","name":"Cocachacra","lat":-17.0894045,"lon":-71.7592172,"type":"town"},{"id":"705100129","name":"Chala","lat":-15.8659492,"lon":-74.2468396,"type":"town"},{"id":"705117990","name":"San Juan de Marcona","lat":-15.3619687,"lon":-75.1671392,"type":"town"},{"id":"752838044","name":"Chiquián","lat":-10.152032,"lon":-77.1568233,"type":"town"},{"id":"761245208","name":"Zarumilla","lat":-3.5005659,"lon":-80.2749876,"type":"town"},{"id":"805919113","name":"Celendín","lat":-6.8653999,"lon":-78.1455661,"type":"town"},{"id":"831369991","name":"Puerto Esperanza","lat":-9.7722807,"lon":-70.7100759,"type":"town"},{"id":"845344692","name":"San Marcos","lat":-9.5241213,"lon":-77.1572073,"type":"town"},{"id":"845344693","name":"Huari","lat":-9.3484957,"lon":-77.1722483,"type":"town"},{"id":"873830345","name":"Palpa","lat":-14.5336603,"lon":-75.1851497,"type":"town"},{"id":"878090522","name":"Huancabamba","lat":-5.2389135,"lon":-79.4506491,"type":"town"},{"id":"942883327","name":"Curahuasi","lat":-13.5422644,"lon":-72.695902,"type":"town"},{"id":"1025412871","name":"Chupaca","lat":-12.0617452,"lon":-75.2876533,"type":"town"},{"id":"1041817224","name":"Huacho","lat":-11.108524,"lon":-77.6103295,"type":"city"},{"id":"1052796010","name":"Urcos","lat":-13.6879153,"lon":-71.6255835,"type":"town"},{"id":"1065114298","name":"Monsefú","lat":-6.8777743,"lon":-79.8720043,"type":"town"},{"id":"1065114833","name":"Pimentel","lat":-6.8358356,"lon":-79.9358318,"type":"town"},{"id":"1065234210","name":"Reque","lat":-6.8652593,"lon":-79.8187449,"type":"town"},{"id":"1068167957","name":"San José","lat":-6.7693322,"lon":-79.9682997,"type":"town"},{"id":"1230410330","name":"Íllimo","lat":-6.4740731,"lon":-79.8551381,"type":"town"},{"id":"1230458049","name":"Túcume","lat":-6.5097858,"lon":-79.8594132,"type":"town"},{"id":"1234994185","name":"Pacora","lat":-6.4282657,"lon":-79.8390405,"type":"town"},{"id":"1236453989","name":"Jayanca","lat":-6.3922485,"lon":-79.822774,"type":"town"},{"id":"1237030175","name":"Nasca","lat":-14.8277203,"lon":-74.9370624,"type":"town"},{"id":"1248115463","name":"Mórrope","lat":-6.5403873,"lon":-80.0153619,"type":"town"},{"id":"1312125490","name":"Iñapari","lat":-10.9470805,"lon":-69.5761211,"type":"town"},{"id":"1312125496","name":"Iberia","lat":-11.4070896,"lon":-69.4892093,"type":"town"},{"id":"1314342337","name":"Oyón","lat":-10.6684162,"lon":-76.7702437,"type":"town"},{"id":"1369203527","name":"Pomabamba","lat":-8.8204778,"lon":-77.4603745,"type":"town"},{"id":"1426418593","name":"Pomalca","lat":-6.7674263,"lon":-79.7774973,"type":"town"},{"id":"1426418600","name":"Saltur","lat":-6.8132754,"lon":-79.6382965,"type":"town"},{"id":"1439200466","name":"Piscobamba","lat":-8.8652705,"lon":-77.3576423,"type":"town"},{"id":"1497524359","name":"Cajatambo","lat":-10.4726165,"lon":-76.9929816,"type":"town"},{"id":"1584528633","name":"Las Lomas","lat":-4.6578078,"lon":-80.2433237,"type":"town"},{"id":"1588558260","name":"Tambogrande","lat":-4.9353455,"lon":-80.3424013,"type":"town"},{"id":"1597542219","name":"Querecotillo","lat":-4.8399696,"lon":-80.6490343,"type":"town"},{"id":"1597542222","name":"Salitral","lat":-4.8574486,"lon":-80.6812018,"type":"town"},{"id":"1597559597","name":"Marcavelica","lat":-4.8816137,"lon":-80.7033707,"type":"town"},{"id":"1597577395","name":"La Matanza","lat":-5.2106747,"lon":-80.0883637,"type":"town"},{"id":"1606526737","name":"San Jerónimo","lat":-13.6514483,"lon":-73.3654842,"type":"town"},{"id":"1649971856","name":"Canta","lat":-11.4671178,"lon":-76.6239175,"type":"town"},{"id":"1699212232","name":"Sandia","lat":-14.3224863,"lon":-69.4657983,"type":"town"},{"id":"1701062345","name":"San Pablo","lat":-7.1183111,"lon":-78.823435,"type":"town"},{"id":"1701415347","name":"Z","lat":-12.1863584,"lon":-76.979946,"type":"city_block"},{"id":"1704107113","name":"Chuquibambilla","lat":-14.1054248,"lon":-72.7079361,"type":"town"},{"id":"1749627191","name":"Challhuahuacho","lat":-14.1186814,"lon":-72.2465114,"type":"town"},{"id":"1793667118","name":"Guadalupe","lat":-7.2433206,"lon":-79.4703695,"type":"town"},{"id":"1815856037","name":"Moquegua","lat":-17.1938025,"lon":-70.9345636,"type":"city"},{"id":"1829507604","name":"Tarata","lat":-17.4747154,"lon":-70.0320713,"type":"town"},{"id":"1904291776","name":"Naranjos","lat":-5.7395481,"lon":-77.5037621,"type":"town"},{"id":"1906090185","name":"San Jerónimo de Tunán","lat":-11.9490237,"lon":-75.2827119,"type":"town"},{"id":"1908255127","name":"Huachón","lat":-10.6364436,"lon":-75.9508096,"type":"town"},{"id":"1910490675","name":"Huamachuco","lat":-7.8154676,"lon":-78.0487063,"type":"town"},{"id":"1911169293","name":"Paucartambo","lat":-10.7746094,"lon":-75.8134578,"type":"town"},{"id":"1919925551","name":"Cajabamba","lat":-7.6238187,"lon":-78.0461711,"type":"town"},{"id":"1921750281","name":"Bolívar","lat":-7.1539171,"lon":-77.7026046,"type":"town"},{"id":"1921880260","name":"Cascas","lat":-7.479441,"lon":-78.819392,"type":"town"},{"id":"1923518010","name":"Ascope","lat":-7.7138056,"lon":-79.1074555,"type":"town"},{"id":"1923654086","name":"Julcán","lat":-8.0425812,"lon":-78.4867336,"type":"town"},{"id":"1924910738","name":"Santiago de Chuco","lat":-8.1453677,"lon":-78.1732575,"type":"town"},{"id":"1990593833","name":"Quillabamba","lat":-12.8634092,"lon":-72.6930334,"type":"town"},{"id":"2003869390","name":"Azángaro","lat":-14.9095426,"lon":-70.1956194,"type":"town"},{"id":"2003935541","name":"Macusani","lat":-14.0684826,"lon":-70.4313639,"type":"town"},{"id":"2005363681","name":"Candarave","lat":-17.2682103,"lon":-70.250337,"type":"town"},{"id":"2007829605","name":"Coracora","lat":-15.0170254,"lon":-73.7810138,"type":"town"},{"id":"2009777127","name":"Huaura","lat":-11.0701058,"lon":-77.5992908,"type":"town"},{"id":"2014339059","name":"Végueta","lat":-11.0233134,"lon":-77.644252,"type":"town"},{"id":"2015323439","name":"Tambobamba","lat":-13.9461814,"lon":-72.1745097,"type":"town"},{"id":"2016453926","name":"Pampas","lat":-12.3987428,"lon":-74.8684404,"type":"town"},{"id":"2100638811","name":"Orcopampa","lat":-15.2673473,"lon":-72.3435101,"type":"town"},{"id":"2109765123","name":"El Alto","lat":-4.2679,"lon":-81.2191059,"type":"town"},{"id":"2140938752","name":"Puerto Malabrigo","lat":-7.7020374,"lon":-79.4371952,"type":"town"},{"id":"2165108346","name":"Satipo","lat":-11.2538354,"lon":-74.6372639,"type":"town"},{"id":"2182248831","name":"Huayllay","lat":-11.0022598,"lon":-76.3647877,"type":"town"},{"id":"2255295272","name":"Caballococha","lat":-3.9067038,"lon":-70.5151509,"type":"town"},{"id":"2290092438","name":"Castrovirreyna","lat":-13.2833505,"lon":-75.3190792,"type":"town"},{"id":"2294618464","name":"Pausa","lat":-15.2789471,"lon":-73.3443491,"type":"town"},{"id":"2301178459","name":"Lircay","lat":-12.9895611,"lon":-74.720505,"type":"town"},{"id":"2305449090","name":"Chincheros","lat":-13.5180507,"lon":-73.7226614,"type":"town"},{"id":"2314231210","name":"Paruro","lat":-13.761311,"lon":-71.8474048,"type":"town"},{"id":"2317137705","name":"Acomayo","lat":-13.9192017,"lon":-71.6834556,"type":"town"},{"id":"2318654103","name":"Pomacanchi","lat":-14.0348231,"lon":-71.5709789,"type":"town"},{"id":"2331111253","name":"Huepetuhe","lat":-12.9944387,"lon":-70.5269739,"type":"town"},{"id":"2333349565","name":"Ambo","lat":-10.1292012,"lon":-76.2042789,"type":"town"},{"id":"2342610922","name":"Ahuac","lat":-12.0856856,"lon":-75.3207776,"type":"town"},{"id":"2350415232","name":"Oropesa","lat":-13.594508,"lon":-71.7634505,"type":"town"},{"id":"2351740940","name":"Cambio Puente","lat":-8.9979313,"lon":-78.5551395,"type":"town"},{"id":"2353479421","name":"Mazuko","lat":-13.1008918,"lon":-70.3677385,"type":"town"},{"id":"2353702413","name":"Puerto Rosario de Laberinto","lat":-12.7173125,"lon":-69.5868876,"type":"town"},{"id":"2360557279","name":"Sepahua","lat":-11.1378792,"lon":-73.0452127,"type":"town"},{"id":"2361342968","name":"Kimbiri","lat":-12.6203873,"lon":-73.7885096,"type":"town"},{"id":"2361342970","name":"Sivia","lat":-12.5115862,"lon":-73.8588,"type":"town"},{"id":"2361393373","name":"San Francisco","lat":-12.62451,"lon":-73.7877181,"type":"town"},{"id":"2361393376","name":"Santa Rosa","lat":-12.6881982,"lon":-73.7354531,"type":"town"},{"id":"2367668493","name":"Anta","lat":-13.4715992,"lon":-72.1487471,"type":"town"},{"id":"2368001475","name":"Chuquibamba","lat":-15.8393749,"lon":-72.6515257,"type":"town"},{"id":"2371529657","name":"Huancasancos","lat":-13.9199117,"lon":-74.3338727,"type":"town"},{"id":"2379330992","name":"Jenaro Herrera","lat":-4.9055783,"lon":-73.6686202,"type":"town"},{"id":"2382035903","name":"Mala","lat":-12.6577698,"lon":-76.6323229,"type":"town"},{"id":"2399716200","name":"Supe Puerto","lat":-10.8045744,"lon":-77.7429158,"type":"town"},{"id":"2399716204","name":"Supe","lat":-10.7957342,"lon":-77.7165813,"type":"town"},{"id":"2400100327","name":"Medio Mundo","lat":-10.9308297,"lon":-77.6528692,"type":"town"},{"id":"2431040919","name":"Chicama","lat":-7.845795,"lon":-79.1463573,"type":"town"},{"id":"2431040920","name":"Chiclín","lat":-7.8371859,"lon":-79.1617199,"type":"town"},{"id":"2431091642","name":"Roma","lat":-7.7656419,"lon":-79.1468338,"type":"town"},{"id":"2431408106","name":"Pacanguilla","lat":-7.1546409,"lon":-79.4435769,"type":"town"},{"id":"2432702966","name":"Casa Grande","lat":-7.7446102,"lon":-79.1879317,"type":"town"},{"id":"2439964940","name":"Olmos","lat":-5.9881884,"lon":-79.7472907,"type":"town"},{"id":"2440777665","name":"Matucana","lat":-11.8447264,"lon":-76.3860598,"type":"town"},{"id":"2441134174","name":"Motupe","lat":-6.1544303,"lon":-79.717074,"type":"town"},{"id":"2457691532","name":"Tumán","lat":-6.7502321,"lon":-79.7034148,"type":"town"},{"id":"2457962951","name":"Pucalá","lat":-6.7813847,"lon":-79.6107119,"type":"town"},{"id":"2457963794","name":"Pátapo","lat":-6.7380722,"lon":-79.6391387,"type":"town"},{"id":"2460358469","name":"Zorritos","lat":-3.680529,"lon":-80.6797377,"type":"town"},{"id":"2463538059","name":"Picsi","lat":-6.7181436,"lon":-79.7702045,"type":"town"},{"id":"2463673483","name":"San Antón","lat":-14.5838277,"lon":-70.3172907,"type":"town"},{"id":"2465850333","name":"Cayaltí","lat":-6.8922228,"lon":-79.5620121,"type":"town"},{"id":"2466379867","name":"Zaña","lat":-6.9240388,"lon":-79.5835586,"type":"town"},{"id":"2469232396","name":"Chongoyape","lat":-6.6434984,"lon":-79.3851288,"type":"town"},{"id":"2471934888","name":"Chavinillo","lat":-9.8587298,"lon":-76.608363,"type":"town"},{"id":"2472783591","name":"Corongo","lat":-8.5703883,"lon":-77.8981107,"type":"town"},{"id":"2475282859","name":"Chepén","lat":-7.2285214,"lon":-79.4277749,"type":"town"},{"id":"2478936587","name":"San Miguel","lat":-13.0126048,"lon":-73.9810178,"type":"town"},{"id":"2478936589","name":"Tambo","lat":-12.9481515,"lon":-74.0201903,"type":"town"},{"id":"2484204577","name":"Salas","lat":-6.2740246,"lon":-79.6057292,"type":"town"},{"id":"2499350128","name":"Yauli","lat":-11.6669321,"lon":-76.0875396,"type":"town"},{"id":"2500452389","name":"Lagunas","lat":-5.2269531,"lon":-75.6796596,"type":"town"},{"id":"2502684587","name":"San Pedro de los Incas","lat":-3.6011516,"lon":-80.4806717,"type":"town"},{"id":"2503275347","name":"Caleta Cruz","lat":-3.6370491,"lon":-80.5894174,"type":"town"},{"id":"2504769269","name":"Los Órganos","lat":-4.179643,"lon":-81.1286825,"type":"town"},{"id":"2505022040","name":"Negritos","lat":-4.654428,"lon":-81.3056025,"type":"town"},{"id":"2505096709","name":"San Jacinto","lat":-4.8458498,"lon":-80.8718184,"type":"town"},{"id":"2505711675","name":"Sechura","lat":-5.5575353,"lon":-80.8223327,"type":"town"},{"id":"2507093250","name":"Parachique","lat":-5.7637483,"lon":-80.8643349,"type":"town"},{"id":"2507320740","name":"Ayabaca","lat":-4.6400714,"lon":-79.7152245,"type":"town"},{"id":"2507483632","name":"Morropón","lat":-5.1842922,"lon":-79.9717204,"type":"town"},{"id":"2534686766","name":"Santa Cruz de Succhabamba","lat":-6.6261427,"lon":-78.9443834,"type":"town"},{"id":"2567529304","name":"Oyotún","lat":-6.8456153,"lon":-79.3024852,"type":"town"},{"id":"2580240914","name":"Tacabamba","lat":-6.3929949,"lon":-78.6112435,"type":"town"},{"id":"2598288042","name":"Baños del Inca","lat":-7.1637846,"lon":-78.4647758,"type":"town"},{"id":"2599175013","name":"Jesús","lat":-7.2489716,"lon":-78.3794946,"type":"town"},{"id":"2599345048","name":"San Marcos","lat":-7.3360223,"lon":-78.1704892,"type":"town"},{"id":"2609783531","name":"Paiján","lat":-7.7342569,"lon":-79.3032804,"type":"town"},{"id":"2610809562","name":"La Arena","lat":-5.3466201,"lon":-80.710859,"type":"town"},{"id":"2610809567","name":"La Unión","lat":-5.4043679,"lon":-80.7439051,"type":"town"},{"id":"2611314855","name":"Bernal","lat":-5.4628508,"lon":-80.7423694,"type":"town"},{"id":"2614052459","name":"Ciudad de Dios","lat":-7.3038275,"lon":-79.4807031,"type":"town"},{"id":"2614052460","name":"San José","lat":-7.3500235,"lon":-79.4550174,"type":"town"},{"id":"2619283485","name":"San Miguel de Pallaques","lat":-7.000303,"lon":-78.8514382,"type":"town"},{"id":"2641924179","name":"Matahuasi","lat":-11.8937662,"lon":-75.3439685,"type":"town"},{"id":"2641989072","name":"Sapallanga","lat":-12.1411903,"lon":-75.1578244,"type":"town"},{"id":"2642792726","name":"Pitumarca","lat":-13.9803842,"lon":-71.4173328,"type":"town"},{"id":"2654542011","name":"Uripa","lat":-13.5327775,"lon":-73.6778962,"type":"town"},{"id":"2668475329","name":"Crucero","lat":-14.3611964,"lon":-70.0234904,"type":"town"},{"id":"2669016562","name":"Nuñoa","lat":-14.4765078,"lon":-70.6360628,"type":"town"},{"id":"2684176237","name":"Buenos Aires","lat":-5.2670919,"lon":-79.9675926,"type":"town"},{"id":"2684176975","name":"Bigote","lat":-5.3190931,"lon":-79.7862005,"type":"town"},{"id":"2686491032","name":"Cancas","lat":-3.9457649,"lon":-80.9404241,"type":"town"},{"id":"2686491038","name":"Punta Sal","lat":-3.9798527,"lon":-80.9744215,"type":"town"},{"id":"2699317808","name":"Secocha","lat":-15.9825745,"lon":-73.1693128,"type":"town"},{"id":"2701695162","name":"San Isidro","lat":-3.6146833,"lon":-80.5128763,"type":"town"},{"id":"2744525836","name":"Chongos Bajo","lat":-12.134336,"lon":-75.2680793,"type":"town"},{"id":"2838868598","name":"Quiruvilca","lat":-8.0017432,"lon":-78.3098616,"type":"town"},{"id":"2841166047","name":"Alexander Von Humboldt","lat":-8.8284441,"lon":-75.0505816,"type":"town"},{"id":"2846654077","name":"Otuzco","lat":-7.9024691,"lon":-78.5656753,"type":"town"},{"id":"2875356951","name":"Río Negro","lat":-11.2083552,"lon":-74.6596906,"type":"town"},{"id":"2875442305","name":"Pucallpa","lat":-8.3820737,"lon":-74.5387507,"type":"city"},{"id":"2875533386","name":"Yarinacocha","lat":-8.3548391,"lon":-74.5758217,"type":"town"},{"id":"2892615190","name":"Omate","lat":-16.6739158,"lon":-70.9701077,"type":"town"},{"id":"2900151001","name":"Monzón","lat":-9.279636,"lon":-76.3963652,"type":"town"},{"id":"2903798985","name":"Dos Pueblos","lat":-5.4636966,"lon":-80.765349,"type":"town"},{"id":"2903832035","name":"Vice","lat":-5.4216102,"lon":-80.7742613,"type":"town"},{"id":"2905098912","name":"Huarmey","lat":-10.0687481,"lon":-78.152199,"type":"town"},{"id":"2906202727","name":"San Luis","lat":-9.0943804,"lon":-77.3291264,"type":"town"},{"id":"2906214042","name":"Chacas","lat":-9.1620773,"lon":-77.3660887,"type":"town"},{"id":"2908424781","name":"San José","lat":-8.4489497,"lon":-78.7360239,"type":"town"},{"id":"2908428401","name":"Puente Virú","lat":-8.4240884,"lon":-78.7803277,"type":"town"},{"id":"2912248150","name":"Puerto Bermúdez","lat":-10.2956757,"lon":-74.9369004,"type":"town"},{"id":"2913166390","name":"Sojo","lat":-4.9021718,"lon":-80.8154199,"type":"town"},{"id":"2913461747","name":"Miramar","lat":-4.875258,"lon":-81.1025885,"type":"town"},{"id":"2913645909","name":"San Felipe de Vichayal","lat":-4.8645915,"lon":-81.071271,"type":"town"},{"id":"2913772416","name":"Tamarindo","lat":-4.878111,"lon":-80.9758162,"type":"town"},{"id":"2913899264","name":"La Huaca","lat":-4.910049,"lon":-80.9617019,"type":"town"},{"id":"2914949881","name":"Cacatachi","lat":-6.4624119,"lon":-76.451381,"type":"town"},{"id":"2917011131","name":"Huarmaca","lat":-5.5677869,"lon":-79.523988,"type":"town"},{"id":"2917214357","name":"Paimas","lat":-4.6269859,"lon":-79.9453372,"type":"town"},{"id":"2917557871","name":"Frías","lat":-4.9316303,"lon":-79.9473728,"type":"town"},{"id":"2939872387","name":"Túpac Amaru Inca","lat":-13.7134024,"lon":-76.1490753,"type":"town"},{"id":"2944054918","name":"Requena","lat":-5.0636942,"lon":-73.8563645,"type":"town"},{"id":"2946881996","name":"Ciudad Constitución","lat":-9.8573071,"lon":-75.0175013,"type":"town"},{"id":"2961149261","name":"Simbal","lat":-7.9763428,"lon":-78.8136381,"type":"town"},{"id":"2967079243","name":"Sihuas","lat":-8.5546662,"lon":-77.6312635,"type":"town"},{"id":"2972594350","name":"Conchucos","lat":-8.2672086,"lon":-77.8536168,"type":"town"},{"id":"2979351663","name":"Pucará","lat":-6.0418131,"lon":-79.1300978,"type":"town"},{"id":"2980402061","name":"Huacaybamba","lat":-9.0378827,"lon":-76.9526356,"type":"town"},{"id":"2982083310","name":"Uchiza","lat":-8.4590114,"lon":-76.4618414,"type":"town"},{"id":"2984554832","name":"Ocros","lat":-10.4034734,"lon":-77.3967216,"type":"town"},{"id":"2985086765","name":"Acobamba","lat":-12.8425512,"lon":-74.5691562,"type":"town"},{"id":"2985086767","name":"Paucara","lat":-12.7299492,"lon":-74.6662329,"type":"town"},{"id":"2990173702","name":"Putina","lat":-14.9141,"lon":-69.8684837,"type":"town"},{"id":"2990363113","name":"Pueblo Nuevo de Conta","lat":-13.0177566,"lon":-76.339134,"type":"town"},{"id":"2990366442","name":"Quilmaná","lat":-12.9495283,"lon":-76.3833329,"type":"town"},{"id":"2991143950","name":"Yucay","lat":-13.3210838,"lon":-72.0847651,"type":"town"},{"id":"2991233735","name":"Cerro Azul","lat":-13.0248827,"lon":-76.479254,"type":"town"},{"id":"2992320947","name":"La Golondrina","lat":-4.8497334,"lon":-80.7842577,"type":"town"},{"id":"2995050841","name":"Caravelí","lat":-15.7723728,"lon":-73.365537,"type":"town"},{"id":"3005743751","name":"Mazamari","lat":-11.3288086,"lon":-74.5306852,"type":"town"},{"id":"3005744374","name":"San Martín de Pangoa","lat":-11.42842,"lon":-74.4885836,"type":"town"},{"id":"3005888893","name":"Bellavista","lat":-7.0554379,"lon":-76.5881865,"type":"town"},{"id":"3009151948","name":"Salvación","lat":-12.8358093,"lon":-71.3658422,"type":"town"},{"id":"3011820990","name":"Nuevo Imperial","lat":-13.0762769,"lon":-76.3177028,"type":"town"},{"id":"3011822275","name":"Chilca","lat":-12.5185727,"lon":-76.7381488,"type":"town"},{"id":"3011836965","name":"San Luis de Cañete","lat":-13.0511273,"lon":-76.4305376,"type":"town"},{"id":"3011859994","name":"Aucallama","lat":-11.5619799,"lon":-77.1729541,"type":"town"},{"id":"3013702594","name":"Ricardo Palma","lat":-11.9237472,"lon":-76.6649395,"type":"town"},{"id":"3018796780","name":"San Mateo de Huanchor","lat":-11.7586194,"lon":-76.3000368,"type":"town"},{"id":"3019366451","name":"Santa Eulalia","lat":-11.9012394,"lon":-76.6640996,"type":"town"},{"id":"3029796062","name":"Acobamba","lat":-11.3529268,"lon":-75.6592747,"type":"town"},{"id":"3037246332","name":"Huangalá","lat":-4.8397499,"lon":-80.6007836,"type":"town"},{"id":"3038379803","name":"Yauli","lat":-12.7698467,"lon":-74.851089,"type":"town"},{"id":"3039592960","name":"Locuto","lat":-4.9484508,"lon":-80.3492011,"type":"town"},{"id":"3040008963","name":"San Jacinto","lat":-9.1474379,"lon":-78.2800976,"type":"town"},{"id":"3049520378","name":"Batanes","lat":-5.1429644,"lon":-80.1048816,"type":"town"},{"id":"3052477919","name":"Haquira","lat":-14.2141274,"lon":-72.1883066,"type":"town"},{"id":"3053444864","name":"Independencia","lat":-13.6938769,"lon":-76.0239074,"type":"town"},{"id":"3057802548","name":"Alto Larán","lat":-13.4423102,"lon":-76.0828334,"type":"town"},{"id":"3057902748","name":"Chincha Baja","lat":-13.4590568,"lon":-76.1616505,"type":"town"},{"id":"3059269294","name":"Tambo de Mora","lat":-13.4584129,"lon":-76.1826425,"type":"town"},{"id":"3059609911","name":"Pampa de Tate","lat":-14.1525197,"lon":-75.6916157,"type":"town"},{"id":"3059617351","name":"Subtanjalla","lat":-14.0184761,"lon":-75.7583584,"type":"town"},{"id":"3059702603","name":"Santiago","lat":-14.1876287,"lon":-75.7141887,"type":"town"},{"id":"3060197733","name":"San José de Los Molinos","lat":-13.9329244,"lon":-75.6709597,"type":"town"},{"id":"3060198505","name":"Guadalupe","lat":-13.9860155,"lon":-75.7729226,"type":"town"},{"id":"3070932260","name":"Churcampa","lat":-12.7392288,"lon":-74.3876787,"type":"town"},{"id":"3088738450","name":"Antabamba","lat":-14.3647456,"lon":-72.8778038,"type":"town"},{"id":"3093684051","name":"Talavera","lat":-13.6537135,"lon":-73.4290221,"type":"town"},{"id":"3096507723","name":"San José de Sisa","lat":-6.6137307,"lon":-76.6949339,"type":"town"},{"id":"3098386923","name":"La Rinconada","lat":-14.6341618,"lon":-69.446877,"type":"town"},{"id":"3108363583","name":"Yapatera","lat":-5.0615864,"lon":-80.1392181,"type":"town"},{"id":"3115740836","name":"Campanilla","lat":-7.4826362,"lon":-76.6498915,"type":"town"},{"id":"3115741862","name":"Juan Guerra","lat":-6.5834181,"lon":-76.3305412,"type":"town"},{"id":"3115746796","name":"Nuevo Progreso","lat":-8.4510319,"lon":-76.3259883,"type":"town"},{"id":"3115750631","name":"Naranjillo","lat":-9.2487151,"lon":-75.9937211,"type":"town"},{"id":"3117041007","name":"Coasa","lat":-13.9873517,"lon":-70.0183368,"type":"town"},{"id":"3122896515","name":"Huariaca","lat":-10.4420288,"lon":-76.1894722,"type":"town"},{"id":"3123225166","name":"Huancapi","lat":-13.7524539,"lon":-74.0663014,"type":"town"},{"id":"3125505598","name":"Querobamba","lat":-14.0113112,"lon":-73.8388183,"type":"town"},{"id":"3128480620","name":"Chazuta","lat":-6.5737075,"lon":-76.1380962,"type":"town"},{"id":"3138953365","name":"San Juan","lat":-14.6516137,"lon":-74.1988989,"type":"town"},{"id":"3148938226","name":"Palmapampa","lat":-12.7684258,"lon":-73.6562781,"type":"town"},{"id":"3149274501","name":"Llochegua","lat":-12.4097623,"lon":-73.9060381,"type":"town"},{"id":"3197899427","name":"Moro","lat":-9.1388841,"lon":-78.1830024,"type":"town"},{"id":"3285235918","name":"Chatito","lat":-5.3805746,"lon":-80.6958247,"type":"town"},{"id":"3285235920","name":"Sinchao","lat":-5.4092489,"lon":-80.6813617,"type":"town"},{"id":"3285241339","name":"Cucungará","lat":-5.3202649,"lon":-80.6636591,"type":"town"},{"id":"3285630270","name":"Mallares","lat":-4.8622078,"lon":-80.7703033,"type":"town"},{"id":"3292036582","name":"Mocupe","lat":-6.9911619,"lon":-79.6222498,"type":"town"},{"id":"3300352342","name":"Tayabamba","lat":-8.275946,"lon":-77.2962826,"type":"town"},{"id":"3305553815","name":"Pueblo Nuevo","lat":-7.1884224,"lon":-79.5149377,"type":"town"},{"id":"3311756599","name":"Pacanga","lat":-7.1713536,"lon":-79.485808,"type":"town"},{"id":"3313771171","name":"Salaverry","lat":-8.2241119,"lon":-78.9763929,"type":"town"},{"id":"3313774905","name":"Moche","lat":-8.1714148,"lon":-79.008936,"type":"town"},{"id":"3352454311","name":"Bellavista","lat":-5.6655198,"lon":-78.6790967,"type":"town"},{"id":"3360290683","name":"Contumazá","lat":-7.36625,"lon":-78.8051109,"type":"town"},{"id":"3392598250","name":"Locumba","lat":-17.6138491,"lon":-70.7623551,"type":"town"},{"id":"3392807139","name":"Toquepala","lat":-17.2795512,"lon":-70.6317114,"type":"town"},{"id":"3399166408","name":"La Pampa","lat":-16.6140084,"lon":-72.6993245,"type":"town"},{"id":"3415301335","name":"H2","lat":-9.1281428,"lon":-78.5157855,"type":"city_block"},{"id":"3416214987","name":"51","lat":-9.1234392,"lon":-78.5077821,"type":"city_block"},{"id":"3416231463","name":"41","lat":-9.1222552,"lon":-78.5096045,"type":"city_block"},{"id":"3416231464","name":"43","lat":-9.123106,"lon":-78.5089342,"type":"city_block"},{"id":"3416231466","name":"52","lat":-9.1226146,"lon":-78.5069867,"type":"city_block"},{"id":"3416270588","name":"46","lat":-9.1228446,"lon":-78.5086382,"type":"city_block"},{"id":"3416270589","name":"50","lat":-9.1227661,"lon":-78.5076749,"type":"city_block"},{"id":"3416270591","name":"A","lat":-9.1191467,"lon":-78.5089767,"type":"city_block"},{"id":"3416270592","name":"B","lat":-9.1181825,"lon":-78.5080488,"type":"city_block"},{"id":"3416278893","name":"C","lat":-9.1198142,"lon":-78.508747,"type":"city_block"},{"id":"3416278894","name":"D","lat":-9.1195306,"lon":-78.5084818,"type":"city_block"},{"id":"3416278895","name":"E","lat":-9.1192383,"lon":-78.5082034,"type":"city_block"},{"id":"3416278896","name":"F","lat":-9.1187671,"lon":-78.5077571,"type":"city_block"},{"id":"3416278897","name":"G","lat":-9.1183396,"lon":-78.5072446,"type":"city_block"},{"id":"3416278898","name":"H","lat":-9.1199495,"lon":-78.5079737,"type":"city_block"},{"id":"3416278899","name":"I","lat":-9.1190856,"lon":-78.5071076,"type":"city_block"},{"id":"3416293206","name":"1","lat":-9.1192409,"lon":-78.5126219,"type":"city_block"},{"id":"3416293207","name":"11","lat":-9.1208112,"lon":-78.5111003,"type":"city_block"},{"id":"3416293208","name":"12","lat":-9.1200831,"lon":-78.5103941,"type":"city_block"},{"id":"3416293209","name":"25","lat":-9.1211505,"lon":-78.5107972,"type":"city_block"},{"id":"3416293210","name":"26","lat":-9.1203299,"lon":-78.5101254,"type":"city_block"},{"id":"3416293211","name":"27","lat":-9.1217367,"lon":-78.510466,"type":"city_block"},{"id":"3416293212","name":"3","lat":-9.1205181,"lon":-78.5117845,"type":"city_block"},{"id":"3416293213","name":"32","lat":-9.1219434,"lon":-78.5098067,"type":"city_block"},{"id":"3416293214","name":"33","lat":-9.1213356,"lon":-78.5092224,"type":"city_block"},{"id":"3416293215","name":"4","lat":-9.1190465,"lon":-78.5117127,"type":"city_block"},{"id":"3416293216","name":"42","lat":-9.1216287,"lon":-78.5089349,"type":"city_block"},{"id":"3416485731","name":"13","lat":-9.1174079,"lon":-78.5108173,"type":"city_block"},{"id":"3416485732","name":"14","lat":-9.1164823,"lon":-78.5099799,"type":"city_block"},{"id":"3416485733","name":"2","lat":-9.1182593,"lon":-78.5116422,"type":"city_block"},{"id":"3416485734","name":"A6","lat":-9.1175388,"lon":-78.5142883,"type":"city_block"},{"id":"3416485735","name":"B6","lat":-9.1179184,"lon":-78.5133781,"type":"city_block"},{"id":"3416485736","name":"C6","lat":-9.1183852,"lon":-78.513789,"type":"city_block"},{"id":"3416485737","name":"D6","lat":-9.1185709,"lon":-78.5127689,"type":"city_block"},{"id":"3416485738","name":"E6","lat":-9.1190398,"lon":-78.5131751,"type":"city_block"},{"id":"3416485739","name":"K5","lat":-9.1163128,"lon":-78.5143237,"type":"city_block"},{"id":"3416485740","name":"L5","lat":-9.1168843,"lon":-78.514686,"type":"city_block"},{"id":"3416485741","name":"LL5","lat":-9.116544,"lon":-78.5149821,"type":"city_block"},{"id":"3416485742","name":"M5","lat":-9.1173512,"lon":-78.5152207,"type":"city_block"},{"id":"3416485743","name":"P5","lat":-9.1166706,"lon":-78.5131969,"type":"city_block"},{"id":"3416485744","name":"Q5","lat":-9.1169542,"lon":-78.5127992,"type":"city_block"},{"id":"3416485745","name":"R5","lat":-9.1174341,"lon":-78.512618,"type":"city_block"},{"id":"3416485746","name":"S5","lat":-9.1170283,"lon":-78.5135725,"type":"city_block"},{"id":"3416485747","name":"T5","lat":-9.1178835,"lon":-78.5121717,"type":"city_block"},{"id":"3416528361","name":"A5","lat":-9.1140676,"lon":-78.5121764,"type":"city_block"},{"id":"3416528362","name":"D5","lat":-9.1144378,"lon":-78.512795,"type":"city_block"},{"id":"3416528363","name":"E5","lat":-9.1148081,"lon":-78.5124513,"type":"city_block"},{"id":"3416528364","name":"I5","lat":-9.1150363,"lon":-78.5131387,"type":"city_block"},{"id":"3416528365","name":"V5","lat":-9.1156225,"lon":-78.5137137,"type":"city_block"},{"id":"3417375089","name":"E'","lat":-9.1136102,"lon":-78.5120289,"type":"city_block"},{"id":"3417375090","name":"F'","lat":-9.1142515,"lon":-78.5111982,"type":"city_block"},{"id":"3417375091","name":"G'","lat":-9.1149234,"lon":-78.5102526,"type":"city_block"},{"id":"3417375092","name":"H'","lat":-9.1151721,"lon":-78.5104073,"type":"city_block"},{"id":"3417375393","name":"I'","lat":-9.1145482,"lon":-78.5113264,"type":"city_block"},{"id":"3417375394","name":"J'","lat":-9.1138188,"lon":-78.5121949,"type":"city_block"},{"id":"3417375395","name":"L'","lat":-9.1164042,"lon":-78.5134541,"type":"city_block"},{"id":"3417381620","name":"D'","lat":-9.1133904,"lon":-78.5110415,"type":"city_block"},{"id":"3417392866","name":"D","lat":-9.1141816,"lon":-78.5142857,"type":"city_block"},{"id":"3417392867","name":"D1","lat":-9.1137994,"lon":-78.5131861,"type":"city_block"},{"id":"3417392868","name":"E","lat":-9.114511,"lon":-78.5138571,"type":"city_block"},{"id":"3417392869","name":"F","lat":-9.1149756,"lon":-78.5141421,"type":"city_block"},{"id":"3417392870","name":"G","lat":-9.1155606,"lon":-78.5146882,"type":"city_block"},{"id":"3417392871","name":"H","lat":-9.1159926,"lon":-78.5153569,"type":"city_block"},{"id":"3417392872","name":"I","lat":-9.1166942,"lon":-78.5157614,"type":"city_block"},{"id":"3417392873","name":"J","lat":-9.1163691,"lon":-78.5162253,"type":"city_block"},{"id":"3417392874","name":"S","lat":-9.1147095,"lon":-78.514648,"type":"city_block"},{"id":"3417392875","name":"T","lat":-9.1151071,"lon":-78.5150101,"type":"city_block"},{"id":"3417392876","name":"U","lat":-9.1157026,"lon":-78.5157568,"type":"city_block"},{"id":"3419611945","name":"A","lat":-9.1126819,"lon":-78.5159318,"type":"city_block"},{"id":"3419611946","name":"A1","lat":-9.1119398,"lon":-78.5151244,"type":"city_block"},{"id":"3419611947","name":"B","lat":-9.1131488,"lon":-78.5153595,"type":"city_block"},{"id":"3419611948","name":"B1","lat":-9.1125569,"lon":-78.514437,"type":"city_block"},{"id":"3419611949","name":"C","lat":-9.113897,"lon":-78.5146923,"type":"city_block"},{"id":"3419611950","name":"K","lat":-9.1159433,"lon":-78.5166299,"type":"city_block"},{"id":"3419611951","name":"L","lat":-9.1153346,"lon":-78.5170497,"type":"city_block"},{"id":"3419611952","name":"M","lat":-9.1150772,"lon":-78.5176242,"type":"city_block"},{"id":"3419611953","name":"N","lat":-9.1143529,"lon":-78.5175203,"type":"city_block"},{"id":"3419611954","name":"O","lat":-9.1135502,"lon":-78.5167338,"type":"city_block"},{"id":"3419611955","name":"P","lat":-9.1131946,"lon":-78.5163007,"type":"city_block"},{"id":"3419611956","name":"Q","lat":-9.1134847,"lon":-78.515607,"type":"city_block"},{"id":"3419611957","name":"R","lat":-9.1142831,"lon":-78.515143,"type":"city_block"},{"id":"3419611958","name":"V","lat":-9.1155942,"lon":-78.5162234,"type":"city_block"},{"id":"3419611959","name":"W","lat":-9.1143878,"lon":-78.5164156,"type":"city_block"},{"id":"3419611960","name":"W","lat":-9.1149703,"lon":-78.5167846,"type":"city_block"},{"id":"3419611961","name":"Y","lat":-9.1139472,"lon":-78.516208,"type":"city_block"},{"id":"3419611962","name":"Ñ","lat":-9.1140061,"lon":-78.5171005,"type":"city_block"},{"id":"3419814306","name":"A'","lat":-9.1086418,"lon":-78.5125472,"type":"city_block"},{"id":"3419814307","name":"A2","lat":-9.1079389,"lon":-78.5116914,"type":"city_block"},{"id":"3419814308","name":"A3","lat":-9.1102164,"lon":-78.508691,"type":"city_block"},{"id":"3419814309","name":"B'","lat":-9.1099375,"lon":-78.5103381,"type":"city_block"},{"id":"3419814310","name":"B2","lat":-9.1081134,"lon":-78.5110153,"type":"city_block"},{"id":"3419814311","name":"C'","lat":-9.1109927,"lon":-78.5087165,"type":"city_block"},{"id":"3419814312","name":"C2","lat":-9.1088071,"lon":-78.5102685,"type":"city_block"},{"id":"3419814313","name":"D2","lat":-9.1094572,"lon":-78.5094599,"type":"city_block"},{"id":"3419814314","name":"E2","lat":-9.108493,"lon":-78.5112584,"type":"city_block"},{"id":"3419814315","name":"E3","lat":-9.1105611,"lon":-78.5093583,"type":"city_block"},{"id":"3419814316","name":"E4","lat":-9.1123456,"lon":-78.5107988,"type":"city_block"},{"id":"3419814317","name":"F2","lat":-9.1090427,"lon":-78.5105116,"type":"city_block"},{"id":"3419814318","name":"F3","lat":-9.1108011,"lon":-78.5089252,"type":"city_block"},{"id":"3419814319","name":"G2","lat":-9.1099154,"lon":-78.5100344,"type":"city_block"},{"id":"3419814320","name":"H2","lat":-9.1101378,"lon":-78.5097487,"type":"city_block"},{"id":"3419814321","name":"H4","lat":-9.112699,"lon":-78.5114439,"type":"city_block"},{"id":"3419814322","name":"I2","lat":-9.10883,"lon":-78.5117504,"type":"city_block"},{"id":"3419814323","name":"I3","lat":-9.1111239,"lon":-78.5096146,"type":"city_block"},{"id":"3419814324","name":"I4","lat":-9.1129651,"lon":-78.5110816,"type":"city_block"},{"id":"3419814325","name":"J2","lat":-9.1090459,"lon":-78.5114036,"type":"city_block"},{"id":"3419814326","name":"K2","lat":-9.1104869,"lon":-78.5102862,"type":"city_block"},{"id":"3419814327","name":"L2","lat":-9.1090602,"lon":-78.5126724,"type":"city_block"},{"id":"3419814328","name":"LL2","lat":-9.1093307,"lon":-78.5122614,"type":"city_block"},{"id":"3419814329","name":"M2","lat":-9.1096798,"lon":-78.5116737,"type":"city_block"},{"id":"3419814330","name":"N2","lat":-9.1102731,"lon":-78.5112672,"type":"city_block"},{"id":"3419814331","name":"O2","lat":-9.1095663,"lon":-78.5131319,"type":"city_block"},{"id":"3419814332","name":"P2","lat":-9.1098499,"lon":-78.5127563,"type":"city_block"},{"id":"3419814333","name":"Q2","lat":-9.1104171,"lon":-78.5123719,"type":"city_block"},{"id":"3419814334","name":"R2","lat":-9.1107094,"lon":-78.5117621,"type":"city_block"},{"id":"3419899730","name":"A","lat":-9.118429,"lon":-78.5365036,"type":"city_block"},{"id":"3419899731","name":"B","lat":-9.1175741,"lon":-78.5363051,"type":"city_block"},{"id":"3419899732","name":"B","lat":-9.1180315,"lon":-78.5362996,"type":"city_block"},{"id":"3419899733","name":"C'","lat":-9.1219866,"lon":-78.539949,"type":"city_block"},{"id":"3419899734","name":"D'","lat":-9.1222561,"lon":-78.5395981,"type":"city_block"},{"id":"3419899735","name":"E","lat":-9.1219355,"lon":-78.5344356,"type":"city_block"},{"id":"3419899736","name":"E'","lat":-9.1224678,"lon":-78.5393017,"type":"city_block"},{"id":"3419899737","name":"F","lat":-9.1194907,"lon":-78.5373363,"type":"city_block"},{"id":"3419899738","name":"F","lat":-9.1207104,"lon":-78.5362003,"type":"city_block"},{"id":"3419899739","name":"F'","lat":-9.1228413,"lon":-78.5389937,"type":"city_block"},{"id":"3419899740","name":"G","lat":-9.1168064,"lon":-78.542112,"type":"city_block"},{"id":"3419899741","name":"G","lat":-9.121685,"lon":-78.5369172,"type":"city_block"},{"id":"3419899742","name":"G'","lat":-9.1221521,"lon":-78.53867,"type":"city_block"},{"id":"3419899743","name":"H","lat":-9.1169806,"lon":-78.540783,"type":"city_block"},{"id":"3419899744","name":"H","lat":-9.1229755,"lon":-78.5356599,"type":"city_block"},{"id":"3419899745","name":"H'","lat":-9.1227604,"lon":-78.5379993,"type":"city_block"},{"id":"3419899746","name":"I","lat":-9.117928,"lon":-78.5417536,"type":"city_block"},{"id":"3419899747","name":"I'","lat":-9.1231463,"lon":-78.5381211,"type":"city_block"},{"id":"3419899748","name":"J","lat":-9.1172202,"lon":-78.5375404,"type":"city_block"},{"id":"3419899749","name":"J","lat":-9.1174271,"lon":-78.5412738,"type":"city_block"},{"id":"3419899750","name":"J'","lat":-9.1236908,"lon":-78.5386312,"type":"city_block"},{"id":"3419899752","name":"K","lat":-9.1177483,"lon":-78.5379209,"type":"city_block"},{"id":"3419899753","name":"K'","lat":-9.1239576,"lon":-78.5378095,"type":"city_block"},{"id":"3419899754","name":"L","lat":-9.1183619,"lon":-78.5379706,"type":"city_block"},{"id":"3419899755","name":"L","lat":-9.1185978,"lon":-78.5410587,"type":"city_block"},{"id":"3419899756","name":"L'","lat":-9.1242517,"lon":-78.5375282,"type":"city_block"},{"id":"3419899757","name":"M","lat":-9.118124,"lon":-78.5405348,"type":"city_block"},{"id":"3419899758","name":"M'","lat":-9.1233765,"lon":-78.5372857,"type":"city_block"},{"id":"3419899759","name":"N","lat":-9.1177375,"lon":-78.5398841,"type":"city_block"},{"id":"3419899760","name":"O","lat":-9.1187448,"lon":-78.53984,"type":"city_block"},{"id":"3419899761","name":"P","lat":-9.1183527,"lon":-78.5393712,"type":"city_block"},{"id":"3419899762","name":"Q","lat":-9.119861,"lon":-78.5398014,"type":"city_block"},{"id":"3419899763","name":"R","lat":-9.1194036,"lon":-78.5391947,"type":"city_block"},{"id":"3419899764","name":"S","lat":-9.1188972,"lon":-78.5387701,"type":"city_block"},{"id":"3419899765","name":"X'","lat":-9.123405,"lon":-78.5383885,"type":"city_block"},{"id":"3419899767","name":"Z","lat":-9.1213705,"lon":-78.5394811,"type":"city_block"},{"id":"3419899768","name":"Ñ","lat":-9.1192239,"lon":-78.5403804,"type":"city_block"},{"id":"3419912199","name":"Z'","lat":-9.1243238,"lon":-78.5435898,"type":"city_block"},{"id":"3420454565","name":"A","lat":-9.1272196,"lon":-78.530371,"type":"city_block"},{"id":"3420454566","name":"C","lat":-9.1259261,"lon":-78.5292431,"type":"city_block"},{"id":"3420454567","name":"D","lat":-9.1255099,"lon":-78.5302456,"type":"city_block"},{"id":"3420454568","name":"E","lat":-9.1247787,"lon":-78.5311627,"type":"city_block"},{"id":"3420454569","name":"F","lat":-9.1239126,"lon":-78.5304906,"type":"city_block"},{"id":"3420454570","name":"G","lat":-9.1248012,"lon":-78.5302798,"type":"city_block"},{"id":"3420454571","name":"H","lat":-9.1248293,"lon":-78.5291975,"type":"city_block"},{"id":"3420454572","name":"J1","lat":-9.1270003,"lon":-78.531852,"type":"city_block"},{"id":"3420454573","name":"J2","lat":-9.1272534,"lon":-78.5315159,"type":"city_block"},{"id":"3420454574","name":"K1","lat":-9.1261229,"lon":-78.5328773,"type":"city_block"},{"id":"3420454575","name":"K2","lat":-9.1264154,"lon":-78.5325925,"type":"city_block"},{"id":"3420454576","name":"K3","lat":-9.1267247,"lon":-78.532228,"type":"city_block"},{"id":"3420454577","name":"L","lat":-9.1253243,"lon":-78.5320058,"type":"city_block"},{"id":"3420454578","name":"M","lat":-9.1260948,"lon":-78.5306273,"type":"city_block"},{"id":"3420454579","name":"N","lat":-9.1266797,"lon":-78.5311514,"type":"city_block"},{"id":"3420454580","name":"Ñ","lat":-9.1260667,"lon":-78.5318406,"type":"city_block"},{"id":"3422175957","name":"A","lat":-9.1236715,"lon":-78.5255106,"type":"city_block"},{"id":"3422175958","name":"B","lat":-9.1235839,"lon":-78.5246994,"type":"city_block"},{"id":"3422175959","name":"C","lat":-9.1236617,"lon":-78.5246118,"type":"city_block"},{"id":"3422175960","name":"D","lat":-9.1242562,"lon":-78.5243619,"type":"city_block"},{"id":"3422175961","name":"F2","lat":-9.1233325,"lon":-78.5273639,"type":"city_block"},{"id":"3422175962","name":"G2","lat":-9.1235546,"lon":-78.5267955,"type":"city_block"},{"id":"3422175963","name":"H2","lat":-9.1236657,"lon":-78.5263692,"type":"city_block"},{"id":"3427502313","name":"A","lat":-9.1155374,"lon":-78.5441244,"type":"city_block"},{"id":"3427502314","name":"A'","lat":-9.1194538,"lon":-78.5448318,"type":"city_block"},{"id":"3427502315","name":"B","lat":-9.1146898,"lon":-78.5432738,"type":"city_block"},{"id":"3427502316","name":"B'","lat":-9.1200974,"lon":-78.5442357,"type":"city_block"},{"id":"3427502317","name":"C","lat":-9.1156708,"lon":-78.54573,"type":"city_block"},{"id":"3427502318","name":"C","lat":-9.1163693,"lon":-78.5435521,"type":"city_block"},{"id":"3427502319","name":"C'","lat":-9.1205447,"lon":-78.5437031,"type":"city_block"},{"id":"3427502320","name":"D","lat":-9.1159691,"lon":-78.5429241,"type":"city_block"},{"id":"3427502321","name":"D","lat":-9.1164007,"lon":-78.5448159,"type":"city_block"},{"id":"3427502322","name":"E","lat":-9.1153961,"lon":-78.5424631,"type":"city_block"},{"id":"3427502323","name":"E","lat":-9.1172013,"lon":-78.5441164,"type":"city_block"},{"id":"3427502324","name":"F","lat":-9.1171777,"lon":-78.5426936,"type":"city_block"},{"id":"3427502325","name":"F","lat":-9.1179155,"lon":-78.5432977,"type":"city_block"},{"id":"3427502326","name":"G","lat":-9.1199863,"lon":-78.5411442,"type":"city_block"},{"id":"3427502327","name":"H","lat":-9.1193047,"lon":-78.5418987,"type":"city_block"},{"id":"3427502328","name":"I","lat":-9.1199404,"lon":-78.5410164,"type":"city_block"},{"id":"3427502329","name":"K","lat":-9.1162673,"lon":-78.5462706,"type":"city_block"},{"id":"3427502330","name":"L","lat":-9.1169658,"lon":-78.5455234,"type":"city_block"},{"id":"3427502331","name":"M","lat":-9.1177271,"lon":-78.544649,"type":"city_block"},{"id":"3427502332","name":"N","lat":-9.1184492,"lon":-78.543878,"type":"city_block"},{"id":"3427502333","name":"O","lat":-9.1199325,"lon":-78.5422723,"type":"city_block"},{"id":"3427502334","name":"Q","lat":-9.1167225,"lon":-78.546827,"type":"city_block"},{"id":"3427502335","name":"R","lat":-9.1175231,"lon":-78.545897,"type":"city_block"},{"id":"3427502336","name":"S","lat":-9.1182608,"lon":-78.545118,"type":"city_block"},{"id":"3427502337","name":"T","lat":-9.1190221,"lon":-78.5443231,"type":"city_block"},{"id":"3427502338","name":"U","lat":-9.1195323,"lon":-78.543719,"type":"city_block"},{"id":"3427502339","name":"V","lat":-9.1202779,"lon":-78.54294,"type":"city_block"},{"id":"3427502340","name":"X","lat":-9.1172405,"lon":-78.5472642,"type":"city_block"},{"id":"3427502341","name":"Y","lat":-9.1181431,"lon":-78.546358,"type":"city_block"},{"id":"3427502342","name":"Z","lat":-9.1187239,"lon":-78.5456824,"type":"city_block"},{"id":"3427502343","name":"Ñ","lat":-9.119132,"lon":-78.5431069,"type":"city_block"},{"id":"3429170518","name":"Santa Rita de Siguas","lat":-16.4940778,"lon":-72.0944241,"type":"town"},{"id":"3430269621","name":"B","lat":-9.1147708,"lon":-78.5466513,"type":"city_block"},{"id":"3430269622","name":"F''","lat":-9.1146609,"lon":-78.5480265,"type":"city_block"},{"id":"3430338207","name":"F'","lat":-9.1169908,"lon":-78.5486361,"type":"city_block"},{"id":"3430338208","name":"G''","lat":-9.1151593,"lon":-78.5484675,"type":"city_block"},{"id":"3430338209","name":"H''","lat":-9.1156866,"lon":-78.5489846,"type":"city_block"},{"id":"3430338210","name":"I''","lat":-9.1162637,"lon":-78.5494398,"type":"city_block"},{"id":"3430338211","name":"J","lat":-9.1154076,"lon":-78.5471917,"type":"city_block"},{"id":"3430338212","name":"J''","lat":-9.1167854,"lon":-78.5499176,"type":"city_block"},{"id":"3430338213","name":"K''","lat":-9.1172884,"lon":-78.5505443,"type":"city_block"},{"id":"3430338214","name":"L'","lat":-9.117468,"lon":-78.5492263,"type":"city_block"},{"id":"3430338215","name":"L''","lat":-9.1179163,"lon":-78.5511961,"type":"city_block"},{"id":"3430338216","name":"M''","lat":-9.1185863,"lon":-78.5518616,"type":"city_block"},{"id":"3430338217","name":"N''","lat":-9.1192922,"lon":-78.551094,"type":"city_block"},{"id":"3430338218","name":"O''","lat":-9.1198805,"lon":-78.5515381,"type":"city_block"},{"id":"3430338219","name":"P","lat":-9.1159252,"lon":-78.5476412,"type":"city_block"},{"id":"3430338220","name":"Q'","lat":-9.1180435,"lon":-78.5498406,"type":"city_block"},{"id":"3430338221","name":"V'","lat":-9.1187039,"lon":-78.5504139,"type":"city_block"},{"id":"3430338222","name":"W","lat":-9.1163858,"lon":-78.5482089,"type":"city_block"},{"id":"3430338223","name":"Ñ''","lat":-9.1191579,"lon":-78.5524069,"type":"city_block"},{"id":"3430338224","name":"G'","lat":-9.1177383,"lon":-78.5478734,"type":"city_block"},{"id":"3430338225","name":"M'","lat":-9.1182322,"lon":-78.5483174,"type":"city_block"},{"id":"3430338226","name":"H'","lat":-9.1185375,"lon":-78.5470415,"type":"city_block"},{"id":"3430338227","name":"R","lat":-9.118937,"lon":-78.5489413,"type":"city_block"},{"id":"3430338228","name":"N'","lat":-9.1189703,"lon":-78.5475923,"type":"city_block"},{"id":"3430338230","name":"I'","lat":-9.1192867,"lon":-78.5462771,"type":"city_block"},{"id":"3430338231","name":"S'","lat":-9.1203573,"lon":-78.5480083,"type":"city_block"},{"id":"3430338232","name":"Ñ'","lat":-9.1197584,"lon":-78.5468729,"type":"city_block"},{"id":"3430338233","name":"J'","lat":-9.1200137,"lon":-78.5454902,"type":"city_block"},{"id":"3430338234","name":"W'-X'","lat":-9.120047,"lon":-78.5490593,"type":"city_block"},{"id":"3430338235","name":"A''","lat":-9.120219,"lon":-78.5500935,"type":"city_block"},{"id":"3430338237","name":"O'","lat":-9.1205815,"lon":-78.5460836,"type":"city_block"},{"id":"3430338238","name":"U'","lat":-9.1210126,"lon":-78.5468054,"type":"city_block"},{"id":"3430338239","name":"Y'","lat":-9.1210626,"lon":-78.5481375,"type":"city_block"},{"id":"3430338240","name":"Z'","lat":-9.121673,"lon":-78.5476204,"type":"city_block"},{"id":"3430389912","name":"B''","lat":-9.1210979,"lon":-78.5492759,"type":"city_block"},{"id":"3430389913","name":"C''","lat":-9.1217363,"lon":-78.5487947,"type":"city_block"},{"id":"3430389914","name":"D''","lat":-9.1206852,"lon":-78.5505378,"type":"city_block"},{"id":"3430389915","name":"E''","lat":-9.1218706,"lon":-78.5496195,"type":"city_block"},{"id":"3430389916","name":"K'","lat":-9.120641,"lon":-78.5447169,"type":"city_block"},{"id":"3430389917","name":"P","lat":-9.1216825,"lon":-78.5459827,"type":"city_block"},{"id":"3430389918","name":"P'","lat":-9.1209841,"lon":-78.5454553,"type":"city_block"},{"id":"3430389919","name":"P''","lat":-9.1224324,"lon":-78.5480883,"type":"city_block"},{"id":"3430389920","name":"Z'","lat":-9.1220482,"lon":-78.5471362,"type":"city_block"},{"id":"3430389923","name":"D'","lat":-9.1211311,"lon":-78.5432029,"type":"city_block"},{"id":"3430389927","name":"A","lat":-9.1216212,"lon":-78.5441026,"type":"city_block"},{"id":"3430389928","name":"E'","lat":-9.121707,"lon":-78.5431099,"type":"city_block"},{"id":"3430389929","name":"B","lat":-9.121707,"lon":-78.5446363,"type":"city_block"},{"id":"3430389931","name":"C","lat":-9.1218357,"lon":-78.5451513,"type":"city_block"},{"id":"3430389933","name":"Q","lat":-9.1220746,"lon":-78.5457531,"type":"city_block"},{"id":"3430389934","name":"G","lat":-9.1221726,"lon":-78.5429237,"type":"city_block"},{"id":"3430389935","name":"R","lat":-9.1224851,"lon":-78.5455608,"type":"city_block"},{"id":"3430389936","name":"H","lat":-9.1225034,"lon":-78.5445122,"type":"city_block"},{"id":"3430389937","name":"O","lat":-9.1225831,"lon":-78.5463364,"type":"city_block"},{"id":"3430389938","name":"J2","lat":-9.1228036,"lon":-78.5452878,"type":"city_block"},{"id":"3430389939","name":"F","lat":-9.1228404,"lon":-78.5440716,"type":"city_block"},{"id":"3430389940","name":"C","lat":-9.122871,"lon":-78.5470437,"type":"city_block"},{"id":"3430389941","name":"C''","lat":-9.1230795,"lon":-78.5427114,"type":"city_block"},{"id":"3430389942","name":"D''","lat":-9.1230977,"lon":-78.5422784,"type":"city_block"},{"id":"3430389943","name":"I2","lat":-9.1233235,"lon":-78.5437401,"type":"city_block"},{"id":"3430389944","name":"D","lat":-9.1231896,"lon":-78.5467645,"type":"city_block"},{"id":"3430389945","name":"E","lat":-9.1234101,"lon":-78.5464977,"type":"city_block"},{"id":"3430389946","name":"N","lat":-9.1232692,"lon":-78.5454987,"type":"city_block"},{"id":"3430389947","name":"S'","lat":-9.1232754,"lon":-78.5446797,"type":"city_block"},{"id":"3430389948","name":"I","lat":-9.1247657,"lon":-78.5464552,"type":"city_block"},{"id":"3430389949","name":"H","lat":-9.1235907,"lon":-78.5456496,"type":"city_block"},{"id":"3430389950","name":"G","lat":-9.123882,"lon":-78.5463319,"type":"city_block"},{"id":"3430445894","name":"J'","lat":-9.1247658,"lon":-78.5456973,"type":"city_block"},{"id":"3430445895","name":"K","lat":-9.1247497,"lon":-78.5448345,"type":"city_block"},{"id":"3430445896","name":"K2","lat":-9.1240172,"lon":-78.5453726,"type":"city_block"},{"id":"3430445897","name":"L","lat":-9.1243867,"lon":-78.5450909,"type":"city_block"},{"id":"3430445898","name":"M'","lat":-9.1238873,"lon":-78.5447882,"type":"city_block"},{"id":"3430445899","name":"Y'","lat":-9.1239182,"lon":-78.543483,"type":"city_block"},{"id":"3430508057","name":"A'","lat":-9.1247316,"lon":-78.5435047,"type":"city_block"},{"id":"3430508058","name":"D'","lat":-9.1240196,"lon":-78.5402053,"type":"city_block"},{"id":"3430508059","name":"H2","lat":-9.1243199,"lon":-78.5415434,"type":"city_block"},{"id":"3430508060","name":"S'","lat":-9.1243409,"lon":-78.5405138,"type":"city_block"},{"id":"3430508061","name":"T'","lat":-9.1238914,"lon":-78.5413349,"type":"city_block"},{"id":"3430508062","name":"U'","lat":-9.1247232,"lon":-78.5411605,"type":"city_block"},{"id":"3430508063","name":"V'","lat":-9.1247358,"lon":-78.5422284,"type":"city_block"},{"id":"3430508064","name":"W'","lat":-9.1247014,"lon":-78.542607,"type":"city_block"},{"id":"3430508065","name":"X'","lat":-9.1239755,"lon":-78.5423815,"type":"city_block"},{"id":"3430508066","name":"E'","lat":-9.1244541,"lon":-78.539565,"type":"city_block"},{"id":"3430508067","name":"B","lat":-9.1237573,"lon":-78.5394984,"type":"city_block"},{"id":"3430508068","name":"F2","lat":-9.1227691,"lon":-78.5404952,"type":"city_block"},{"id":"3430508069","name":"A'","lat":-9.1233873,"lon":-78.5399337,"type":"city_block"},{"id":"3430515118","name":"B''","lat":-9.1231191,"lon":-78.5432101,"type":"city_block"},{"id":"3430515119","name":"C","lat":-9.1243843,"lon":-78.5388936,"type":"city_block"},{"id":"3430515120","name":"C2","lat":-9.1233329,"lon":-78.541733,"type":"city_block"},{"id":"3430515121","name":"D2","lat":-9.1226349,"lon":-78.541745,"type":"city_block"},{"id":"3430515122","name":"F","lat":-9.123915,"lon":-78.539044,"type":"city_block"},{"id":"3430515123","name":"G","lat":-9.1245506,"lon":-78.5383942,"type":"city_block"},{"id":"3430515124","name":"H","lat":-9.1247348,"lon":-78.5381114,"type":"city_block"},{"id":"3430515125","name":"R'","lat":-9.1247645,"lon":-78.5392907,"type":"city_block"},{"id":"3430515137","name":"P'","lat":-9.1246635,"lon":-78.5370525,"type":"city_block"},{"id":"3430520832","name":"G2","lat":-9.12341,"lon":-78.5411481,"type":"city_block"},{"id":"3430520834","name":"E2","lat":-9.1226324,"lon":-78.5411847,"type":"city_block"},{"id":"3430532519","name":"N'","lat":-9.1241221,"lon":-78.5365347,"type":"city_block"},{"id":"3430532520","name":"O'","lat":-9.1246663,"lon":-78.5361986,"type":"city_block"},{"id":"3430532521","name":"Ñ'","lat":-9.1242283,"lon":-78.5369514,"type":"city_block"},{"id":"3430547493","name":"A'","lat":-9.123996,"lon":-78.5342819,"type":"city_block"},{"id":"3430547494","name":"E","lat":-9.1249721,"lon":-78.5333409,"type":"city_block"},{"id":"3503630319","name":"Huasahuasi","lat":-11.2652992,"lon":-75.6504254,"type":"town"},{"id":"3513384693","name":"Bajo Pichanaqui","lat":-10.9256952,"lon":-74.8728888,"type":"town"},{"id":"3522229087","name":"San Gregorio","lat":-16.5730301,"lon":-72.7161709,"type":"town"},{"id":"3522244885","name":"Pucchun","lat":-16.5987494,"lon":-72.7746479,"type":"town"},{"id":"3523082953","name":"Acarí","lat":-15.4357104,"lon":-74.616907,"type":"town"},{"id":"3583921902","name":"Relave","lat":-15.6145195,"lon":-74.0577476,"type":"town"},{"id":"3627617558","name":"Casa Blanca","lat":-14.2042536,"lon":-75.7148564,"type":"town"},{"id":"3627617588","name":"La Venta Baja","lat":-14.2870274,"lon":-75.680332,"type":"town"},{"id":"3627672775","name":"Santa Cruz de Villacurí","lat":-13.9304421,"lon":-75.9207763,"type":"town"},{"id":"3629512624","name":"El Rosario","lat":-14.1153027,"lon":-75.6751588,"type":"town"},{"id":"3629554851","name":"Santa Cruz","lat":-13.833235,"lon":-76.1401036,"type":"town"},{"id":"3629562565","name":"San Clemente","lat":-13.6807983,"lon":-76.1574626,"type":"town"},{"id":"3641233201","name":"Orurillo","lat":-14.7274934,"lon":-70.5117338,"type":"town"},{"id":"3641435957","name":"Asillo","lat":-14.7865915,"lon":-70.3540033,"type":"town"},{"id":"3645512232","name":"Estación de Pucará","lat":-15.0335917,"lon":-70.3381254,"type":"town"},{"id":"3660632922","name":"Oxapampa","lat":-10.5744142,"lon":-75.4044292,"type":"town"},{"id":"3752228533","name":"Monte Alegre","lat":-8.6393698,"lon":-74.9646344,"type":"town"},{"id":"3764451186","name":"Jesús","lat":-10.0781114,"lon":-76.6315739,"type":"town"},{"id":"3764532850","name":"Llata","lat":-9.5499479,"lon":-76.8156098,"type":"town"},{"id":"3791143417","name":"Llamellín","lat":-9.1010476,"lon":-77.0168087,"type":"town"},{"id":"4022842869","name":"Chosica","lat":-11.9367735,"lon":-76.6969111,"type":"town"},{"id":"4054911595","name":"Casa Diez Canseco","lat":-12.0911606,"lon":-76.9696538,"type":"city_block"},{"id":"4085322353","name":"Puerto Pizarro","lat":-3.5027645,"lon":-80.3914757,"type":"town"},{"id":"4104028531","name":"Quinta Franco","lat":-17.9703154,"lon":-70.191773,"type":"city_block"},{"id":"4153893796","name":"MZ.V","lat":-16.3665738,"lon":-71.49918,"type":"city_block"},{"id":"4153925090","name":"MZ.U","lat":-16.3664103,"lon":-71.4996084,"type":"city_block"},{"id":"4154092890","name":"villa el sol MZ.L","lat":-16.3764478,"lon":-71.5228413,"type":"city_block"},{"id":"4154454890","name":"MZ.T","lat":-16.3661328,"lon":-71.4999977,"type":"city_block"},{"id":"4154472693","name":"prihale MZ.W","lat":-16.3758703,"lon":-71.520739,"type":"city_block"},{"id":"4154544789","name":"villa el sol MZ.C","lat":-16.3763031,"lon":-71.5212574,"type":"city_block"},{"id":"4155537519","name":"upis salvador MZ.I","lat":-16.372837,"lon":-71.4979159,"type":"city_block"},{"id":"4155538024","name":"upis salvador MZ.H","lat":-16.3728238,"lon":-71.498375,"type":"city_block"},{"id":"4155554292","name":"D","lat":-16.3791432,"lon":-71.5250473,"type":"city_block"},{"id":"4155637089","name":"C","lat":-16.3793913,"lon":-71.5253447,"type":"city_block"},{"id":"4156143612","name":"J","lat":-16.3777977,"lon":-71.5219575,"type":"city_block"},{"id":"4156143613","name":"javier heraud MZ.H","lat":-16.3657937,"lon":-71.5036002,"type":"city_block"},{"id":"4156143614","name":"MZ.E","lat":-16.3666634,"lon":-71.503139,"type":"city_block"},{"id":"4156164106","name":"javier heraud MZ.I","lat":-16.3658099,"lon":-71.503165,"type":"city_block"},{"id":"4156164108","name":"javier heraudMZ.C","lat":-16.3663746,"lon":-71.5038489,"type":"city_block"},{"id":"4156182006","name":"MZ.D","lat":-16.3665218,"lon":-71.50354,"type":"city_block"},{"id":"4156182008","name":"MZ.J","lat":-16.366016,"lon":-71.5028176,"type":"city_block"},{"id":"4156516289","name":"F","lat":-16.3787247,"lon":-71.5235432,"type":"city_block"},{"id":"4156525589","name":"D","lat":-16.3781422,"lon":-71.5232448,"type":"city_block"},{"id":"4156550989","name":"ramiro prihale MZ.Q","lat":-16.3773897,"lon":-71.5197023,"type":"city_block"},{"id":"4156611989","name":"MZ.W","lat":-16.3934826,"lon":-71.5110976,"type":"city_block"},{"id":"4157500397","name":"Z","lat":-16.3670481,"lon":-71.5068411,"type":"city_block"},{"id":"4157559990","name":"O","lat":-16.3774918,"lon":-71.5204624,"type":"city_block"},{"id":"4157691489","name":"villa el sol MZ.K","lat":-16.37608,"lon":-71.5225865,"type":"city_block"},{"id":"4158571989","name":"S","lat":-16.3681717,"lon":-71.506922,"type":"city_block"},{"id":"4158572089","name":"S","lat":-16.3729395,"lon":-71.5220025,"type":"city_block"},{"id":"4158572190","name":"R","lat":-16.373283,"lon":-71.5216938,"type":"city_block"},{"id":"4163581290","name":"Ñ","lat":-16.3677657,"lon":-71.5076633,"type":"city_block"},{"id":"4239058721","name":"T","lat":-16.3680887,"lon":-71.5061254,"type":"city_block"},{"id":"4239058722","name":"U","lat":-16.3676355,"lon":-71.5061808,"type":"city_block"},{"id":"4239226503","name":"N","lat":-16.3682435,"lon":-71.5076031,"type":"city_block"},{"id":"4239565697","name":"B","lat":-16.3796735,"lon":-71.5257979,"type":"city_block"},{"id":"4239565698","name":"A","lat":-16.3739015,"lon":-71.5081857,"type":"city_block"},{"id":"4239616195","name":"C","lat":-16.3807846,"lon":-71.5240762,"type":"city_block"},{"id":"4239616592","name":"N","lat":-16.3774996,"lon":-71.5209497,"type":"city_block"},{"id":"4239616593","name":"L","lat":-16.3729787,"lon":-71.5186446,"type":"city_block"},{"id":"4239616990","name":"C","lat":-16.3754583,"lon":-71.5287255,"type":"city_block"},{"id":"4239653390","name":"Q","lat":-16.3801815,"lon":-71.5250759,"type":"city_block"},{"id":"4239683789","name":"B","lat":-16.3808618,"lon":-71.5236906,"type":"city_block"},{"id":"4240158295","name":"R","lat":-16.3618422,"lon":-71.5026801,"type":"city_block"},{"id":"4240183697","name":"F","lat":-16.3723692,"lon":-71.5221583,"type":"city_block"},{"id":"4240202189","name":"R","lat":-16.375007,"lon":-71.5246887,"type":"city_block"},{"id":"4241127090","name":"B","lat":-16.3739311,"lon":-71.5206192,"type":"city_block"},{"id":"4241165691","name":"J","lat":-16.3734158,"lon":-71.5193128,"type":"city_block"},{"id":"4241764189","name":"K","lat":-16.3657517,"lon":-71.4997915,"type":"city_block"},{"id":"4243015920","name":"O","lat":-16.3813579,"lon":-71.5248273,"type":"city_block"},{"id":"4243028708","name":"N","lat":-16.381663,"lon":-71.5251085,"type":"city_block"},{"id":"4243098492","name":"A","lat":-16.3799115,"lon":-71.5260899,"type":"city_block"},{"id":"4243098493","name":"F","lat":-16.3765532,"lon":-71.5253109,"type":"city_block"},{"id":"4243117694","name":"F","lat":-16.3793899,"lon":-71.5308644,"type":"city_block"},{"id":"4243153889","name":"L","lat":-16.3811823,"lon":-71.5255119,"type":"city_block"},{"id":"4243522194","name":"G","lat":-16.378142,"lon":-71.5250333,"type":"city_block"},{"id":"4243560590","name":"H","lat":-16.3774254,"lon":-71.5245775,"type":"city_block"},{"id":"4243597689","name":"D","lat":-16.3791956,"lon":-71.5273441,"type":"city_block"},{"id":"4243597789","name":"E","lat":-16.3787422,"lon":-71.5251269,"type":"city_block"},{"id":"4244275890","name":"A","lat":-16.3745208,"lon":-71.5216325,"type":"city_block"},{"id":"4244277190","name":"J","lat":-16.3806302,"lon":-71.5258927,"type":"city_block"},{"id":"4244327096","name":"K","lat":-16.3778221,"lon":-71.5260185,"type":"city_block"},{"id":"4244335690","name":"C","lat":-16.3769431,"lon":-71.5247317,"type":"city_block"},{"id":"4244725996","name":"H","lat":-16.3772982,"lon":-71.5257979,"type":"city_block"},{"id":"4244809193","name":"C","lat":-16.3781503,"lon":-71.5227659,"type":"city_block"},{"id":"4244809494","name":"A","lat":-16.3782094,"lon":-71.5222191,"type":"city_block"},{"id":"4244809495","name":"G","lat":-16.3764953,"lon":-71.5220227,"type":"city_block"},{"id":"4244809793","name":"I","lat":-16.3772258,"lon":-71.5262055,"type":"city_block"},{"id":"4244810190","name":"D","lat":-16.376842,"lon":-71.522486,"type":"city_block"},{"id":"4245248692","name":"K","lat":-16.3773287,"lon":-71.5219342,"type":"city_block"},{"id":"4245255489","name":"D","lat":-16.3776006,"lon":-71.521563,"type":"city_block"},{"id":"4246243527","name":"B","lat":-16.3770321,"lon":-71.5215432,"type":"city_block"},{"id":"4246243607","name":"A","lat":-16.3765474,"lon":-71.5210141,"type":"city_block"},{"id":"4246318803","name":"Ñ","lat":-16.3676673,"lon":-71.5011791,"type":"city_block"},{"id":"4246753406","name":"P","lat":-16.3772871,"lon":-71.5285384,"type":"city_block"},{"id":"4246756105","name":"J","lat":-16.3687088,"lon":-71.5083207,"type":"city_block"},{"id":"4246784405","name":"R","lat":-16.3770583,"lon":-71.5282021,"type":"city_block"},{"id":"4246829892","name":"N","lat":-16.3775474,"lon":-71.5280531,"type":"city_block"},{"id":"4247497594","name":"W","lat":-16.3677584,"lon":-71.5053638,"type":"city_block"},{"id":"4248816548","name":"A","lat":-16.3798024,"lon":-71.5281985,"type":"city_block"},{"id":"4248828056","name":"Q","lat":-16.3689512,"lon":-71.5203083,"type":"city_block"},{"id":"4248899614","name":"O","lat":-16.3689137,"lon":-71.520868,"type":"city_block"},{"id":"4248935494","name":"M","lat":-16.3800457,"lon":-71.529084,"type":"city_block"},{"id":"4248935495","name":"K","lat":-16.3800559,"lon":-71.5271592,"type":"city_block"},{"id":"4248936701","name":"D","lat":-16.3796355,"lon":-71.5274759,"type":"city_block"},{"id":"4248954396","name":"N","lat":-16.3804861,"lon":-71.5296175,"type":"city_block"},{"id":"4248969092","name":"K","lat":-16.3806756,"lon":-71.5303633,"type":"city_block"},{"id":"4248969197","name":"L","lat":-16.380212,"lon":-71.5298265,"type":"city_block"},{"id":"4248969198","name":"A","lat":-16.3806021,"lon":-71.5284626,"type":"city_block"},{"id":"4248969593","name":"C","lat":-16.3797831,"lon":-71.5278725,"type":"city_block"},{"id":"4248969594","name":"E","lat":-16.3795381,"lon":-71.5270453,"type":"city_block"},{"id":"4248969794","name":"P","lat":-16.3807823,"lon":-71.5294206,"type":"city_block"},{"id":"4248969890","name":"O","lat":-16.3807703,"lon":-71.5299848,"type":"city_block"},{"id":"4249365094","name":"T","lat":-16.3758702,"lon":-71.4992472,"type":"city_block"},{"id":"4250452521","name":"M","lat":-16.3727801,"lon":-71.5197446,"type":"city_block"},{"id":"4250466808","name":"N","lat":-16.3723051,"lon":-71.5198622,"type":"city_block"},{"id":"4250508230","name":"B","lat":-16.3747783,"lon":-71.5198337,"type":"city_block"},{"id":"4250523689","name":"P","lat":-16.3728079,"lon":-71.5203588,"type":"city_block"},{"id":"4250523889","name":"D","lat":-16.3741061,"lon":-71.5200733,"type":"city_block"},{"id":"4250571533","name":"Z","lat":-16.3743736,"lon":-71.5198056,"type":"city_block"},{"id":"4250583301","name":"I","lat":-16.3783178,"lon":-71.5212628,"type":"city_block"},{"id":"4250583694","name":"H","lat":-16.3785537,"lon":-71.5216488,"type":"city_block"},{"id":"4250821090","name":"H","lat":-16.3812395,"lon":-71.5267932,"type":"city_block"},{"id":"4250821290","name":"E","lat":-16.3775025,"lon":-71.5226271,"type":"city_block"},{"id":"4251283490","name":"A","lat":-16.3658765,"lon":-71.5162206,"type":"city_block"},{"id":"4253023292","name":"P","lat":-16.3747037,"lon":-71.5231685,"type":"city_block"},{"id":"4253023395","name":"H","lat":-16.3756127,"lon":-71.5264085,"type":"city_block"},{"id":"4253024091","name":"G","lat":-16.3663979,"lon":-71.5154347,"type":"city_block"},{"id":"4253024191","name":"F","lat":-16.3792399,"lon":-71.5268041,"type":"city_block"},{"id":"4253060590","name":"B","lat":-16.3665752,"lon":-71.51708,"type":"city_block"},{"id":"4253180390","name":"F","lat":-16.3797507,"lon":-71.5234431,"type":"city_block"},{"id":"4254280194","name":"C","lat":-16.3801419,"lon":-71.5313787,"type":"city_block"},{"id":"4254293889","name":"E","lat":-16.380169,"lon":-71.531011,"type":"city_block"},{"id":"4256197189","name":"H","lat":-16.371831,"lon":-71.5168371,"type":"city_block"},{"id":"4256299089","name":"H","lat":-16.361303,"lon":-71.5157304,"type":"city_block"},{"id":"4257771991","name":"K","lat":-16.3731804,"lon":-71.5189334,"type":"city_block"},{"id":"4257820289","name":"I","lat":-16.3668787,"lon":-71.5262934,"type":"city_block"},{"id":"4259229490","name":"F","lat":-16.378536,"lon":-71.5269074,"type":"city_block"},{"id":"4259254690","name":"G","lat":-16.37883,"lon":-71.5266263,"type":"city_block"},{"id":"4259254691","name":"I","lat":-16.3777879,"lon":-71.5268596,"type":"city_block"},{"id":"4259262889","name":"E","lat":-16.374896,"lon":-71.5214442,"type":"city_block"},{"id":"4259282993","name":"P","lat":-16.3798679,"lon":-71.5249391,"type":"city_block"},{"id":"4260447440","name":"O","lat":-16.3593143,"lon":-71.5115009,"type":"city_block"},{"id":"4260447456","name":"U","lat":-16.3761488,"lon":-71.5205871,"type":"city_block"},{"id":"4260447846","name":"L","lat":-16.3602931,"lon":-71.5118779,"type":"city_block"},{"id":"4260448152","name":"K","lat":-16.3599066,"lon":-71.5122243,"type":"city_block"},{"id":"4260450108","name":"P","lat":-16.3596244,"lon":-71.5112035,"type":"city_block"},{"id":"4263520690","name":"J","lat":-16.3776054,"lon":-71.5242608,"type":"city_block"},{"id":"4263591806","name":"D","lat":-16.3619435,"lon":-71.5131606,"type":"city_block"},{"id":"4266210095","name":"A","lat":-16.3682316,"lon":-71.5200994,"type":"city_block"},{"id":"4267137697","name":"A","lat":-16.3778844,"lon":-71.5067814,"type":"city_block"},{"id":"4269790401","name":"L","lat":-16.3782157,"lon":-71.5261439,"type":"city_block"},{"id":"4289361265","name":"Lima","lat":-12.0459808,"lon":-77.0305912,"type":"city"},{"id":"4313159295","name":"J","lat":-14.0726864,"lon":-75.7210643,"type":"city_block"},{"id":"4313213495","name":"D","lat":-14.0718425,"lon":-75.7213867,"type":"city_block"},{"id":"4313245990","name":"C","lat":-14.0714767,"lon":-75.7216468,"type":"city_block"},{"id":"4313246191","name":"F","lat":-14.072106,"lon":-75.721411,"type":"city_block"},{"id":"4317072655","name":"29 de agosto","lat":-16.4047408,"lon":-71.4835216,"type":"city_block"},{"id":"4317072656","name":"Santa fe de Miguel Grau","lat":-16.4042153,"lon":-71.4789268,"type":"city_block"},{"id":"4317072659","name":"Heroes de Angamos","lat":-16.4070419,"lon":-71.4973009,"type":"city_block"},{"id":"4317395207","name":"Villa el Sol","lat":-16.4089163,"lon":-71.5026433,"type":"city_block"},{"id":"4327478736","name":"Mallaritos","lat":-4.8691998,"lon":-80.7177004,"type":"town"},{"id":"4375504269","name":"Aija","lat":-9.7802079,"lon":-77.6107501,"type":"town"},{"id":"4394367213","name":"Becará","lat":-5.4569086,"lon":-80.8103771,"type":"town"},{"id":"4394367214","name":"Letirá","lat":-5.4391792,"lon":-80.806738,"type":"town"},{"id":"4395670758","name":"Tablazo Norte","lat":-5.3806311,"lon":-80.7625653,"type":"town"},{"id":"4395670759","name":"Tablazo Sur","lat":-5.3948715,"lon":-80.7590362,"type":"town"},{"id":"4395670760","name":"Yapato","lat":-5.3733596,"lon":-80.7778414,"type":"town"},{"id":"4431773175","name":"B","lat":-13.5325291,"lon":-71.9703514,"type":"city_block"},{"id":"4431773176","name":"I","lat":-13.5324453,"lon":-71.9697691,"type":"city_block"},{"id":"4431773177","name":"H","lat":-13.5325351,"lon":-71.969079,"type":"city_block"},{"id":"4431773178","name":"G","lat":-13.5321397,"lon":-71.9686908,"type":"city_block"},{"id":"4431807226","name":"W2","lat":-13.5326031,"lon":-71.9656876,"type":"city_block"},{"id":"4431828011","name":"A","lat":-13.538015,"lon":-71.9385465,"type":"city_block"},{"id":"4431828012","name":"B","lat":-13.5389003,"lon":-71.9386441,"type":"city_block"},{"id":"4431828013","name":"C","lat":-13.5378371,"lon":-71.9377416,"type":"city_block"},{"id":"4431828014","name":"D","lat":-13.5389161,"lon":-71.9380993,"type":"city_block"},{"id":"4431828015","name":"E","lat":-13.5379399,"lon":-71.9367496,"type":"city_block"},{"id":"4431828016","name":"F","lat":-13.5388608,"lon":-71.937583,"type":"city_block"},{"id":"4431828017","name":"G","lat":-13.5384774,"lon":-71.9368716,"type":"city_block"},{"id":"4439756187","name":"El Patito","lat":-12.0838882,"lon":-77.0929781,"type":"city_block"},{"id":"4443847237","name":"Pativilca","lat":-10.6964328,"lon":-77.7797843,"type":"town"},{"id":"4453543994","name":"F","lat":-16.3792252,"lon":-71.5246835,"type":"city_block"},{"id":"4470670395","name":"Nueva Morococha","lat":-11.5877748,"lon":-76.0630129,"type":"town"},{"id":"4486992751","name":"La Unión","lat":-9.8284557,"lon":-76.8013469,"type":"town"},{"id":"4571138041","name":"Pampa Libre","lat":-11.5134269,"lon":-77.2891567,"type":"town"},{"id":"4590192817","name":"Tacna","lat":-18.01386,"lon":-70.2511032,"type":"city"},{"id":"4689666235","name":"Somate Bajo","lat":-4.7441379,"lon":-80.5333907,"type":"town"},{"id":"4717747989","name":"Q","lat":-16.4126644,"lon":-71.4765517,"type":"city_block"},{"id":"4727186391","name":"E","lat":-16.4334684,"lon":-71.5246251,"type":"city_block"},{"id":"4732793128","name":"B","lat":-16.4122095,"lon":-71.5200962,"type":"city_block"},{"id":"4733115025","name":"A","lat":-16.3898025,"lon":-71.5649428,"type":"city_block"},{"id":"4735037323","name":"B","lat":-16.4364633,"lon":-71.5217767,"type":"city_block"},{"id":"4735491921","name":"F","lat":-16.4070701,"lon":-71.5179584,"type":"city_block"},{"id":"4738652723","name":"F","lat":-16.413424,"lon":-71.5413249,"type":"city_block"},{"id":"4738681628","name":"F","lat":-16.4196847,"lon":-71.5388843,"type":"city_block"},{"id":"4740942203","name":"Laynas","lat":-5.2338007,"lon":-80.0570698,"type":"town"},{"id":"4744211127","name":"K","lat":-16.3814486,"lon":-71.5262837,"type":"city_block"},{"id":"4744211128","name":"A","lat":-16.427303,"lon":-71.5117469,"type":"city_block"},{"id":"4749406222","name":"J","lat":-16.4204105,"lon":-71.5262745,"type":"city_block"},{"id":"4749411421","name":"Z","lat":-16.4236773,"lon":-71.5268099,"type":"city_block"},{"id":"4765823883","name":"Manzana 17","lat":-11.957856,"lon":-76.9939633,"type":"city_block"},{"id":"4765823884","name":"Manzana 18","lat":-11.9579834,"lon":-76.9943071,"type":"city_block"},{"id":"4770501121","name":"Rpza mz c","lat":-16.379105,"lon":-71.5223682,"type":"city_block"},{"id":"4771773121","name":"V el mirador mz j","lat":-16.3774094,"lon":-71.5254784,"type":"city_block"},{"id":"4779526022","name":"D","lat":-16.4152942,"lon":-71.5405853,"type":"city_block"},{"id":"4779729166","name":"L","lat":-16.4192642,"lon":-71.5384786,"type":"city_block"},{"id":"4783613725","name":"D'","lat":-16.3485298,"lon":-71.5629885,"type":"city_block"},{"id":"4783654122","name":"M","lat":-16.347589,"lon":-71.5602333,"type":"city_block"},{"id":"4783661221","name":"B'","lat":-16.3500064,"lon":-71.5628544,"type":"city_block"},{"id":"4791017423","name":"D","lat":-16.4217975,"lon":-71.5109717,"type":"city_block"},{"id":"4800725594","name":"Viviate","lat":-4.9227055,"lon":-80.9223686,"type":"town"},{"id":"4805885924","name":"I","lat":-16.4127219,"lon":-71.5413754,"type":"city_block"},{"id":"4805956323","name":"E","lat":-16.4117775,"lon":-71.5465943,"type":"city_block"},{"id":"4805961721","name":"C","lat":-16.4127101,"lon":-71.5400763,"type":"city_block"},{"id":"4809895023","name":"C","lat":-16.3542342,"lon":-71.5409154,"type":"city_block"},{"id":"4809948822","name":"B","lat":-16.3523378,"lon":-71.5405973,"type":"city_block"},{"id":"4813629439","name":"B","lat":-16.4048106,"lon":-71.5698533,"type":"city_block"},{"id":"4813631323","name":"P","lat":-16.4064258,"lon":-71.5686687,"type":"city_block"},{"id":"4821395433","name":"Mz 20","lat":-6.7906199,"lon":-79.8640168,"type":"city_block"},{"id":"4821395434","name":"23","lat":-6.7898004,"lon":-79.8645347,"type":"city_block"},{"id":"4821399138","name":"Mz 21","lat":-6.7913963,"lon":-79.8642557,"type":"city_block"},{"id":"4823758459","name":"Jíbito","lat":-4.9043218,"lon":-80.7464153,"type":"town"},{"id":"4823760441","name":"Santa Sofía","lat":-4.8840868,"lon":-80.8378492,"type":"town"},{"id":"4825932581","name":"La Islilla","lat":-5.209417,"lon":-81.1929504,"type":"town"},{"id":"4825932844","name":"La Tortuga","lat":-5.2804438,"lon":-81.1227398,"type":"town"},{"id":"4826147560","name":"Pueblo Nuevo de Colán","lat":-4.9099507,"lon":-81.0595299,"type":"town"},{"id":"4829486440","name":"P","lat":-16.4276846,"lon":-71.5433733,"type":"city_block"},{"id":"4834762323","name":"B","lat":-16.4124664,"lon":-71.5396381,"type":"city_block"},{"id":"4834771721","name":"A","lat":-16.4133369,"lon":-71.5396227,"type":"city_block"},{"id":"4834816722","name":"N","lat":-16.4188855,"lon":-71.5374636,"type":"city_block"},{"id":"4837021723","name":"C","lat":-16.4125331,"lon":-71.5193058,"type":"city_block"},{"id":"4844411025","name":"B","lat":-16.4110191,"lon":-71.5319126,"type":"city_block"},{"id":"4866994921","name":"T","lat":-16.3555609,"lon":-72.1894087,"type":"city_block"},{"id":"4874903624","name":"Santa Clotilde","lat":-2.4886729,"lon":-73.6784955,"type":"town"},{"id":"4904092622","name":"K","lat":-16.3645573,"lon":-72.190976,"type":"city_block"},{"id":"4904096724","name":"Q","lat":-16.3604266,"lon":-72.1898022,"type":"city_block"},{"id":"4904096922","name":"A","lat":-16.3608223,"lon":-72.1920432,"type":"city_block"},{"id":"4904098821","name":"A","lat":-16.356622,"lon":-72.189943,"type":"city_block"},{"id":"4912962122","name":"P","lat":-16.4504878,"lon":-71.5551109,"type":"city_block"},{"id":"4913024721","name":"E","lat":-16.4132731,"lon":-71.5196592,"type":"city_block"},{"id":"4920988667","name":"San Antonio","lat":-12.6408151,"lon":-76.6515313,"type":"town"},{"id":"4921053622","name":"A21","lat":-16.3614078,"lon":-72.1923942,"type":"city_block"},{"id":"4934490121","name":"U","lat":-16.3559814,"lon":-72.1883668,"type":"city_block"},{"id":"4934497751","name":"Huacrachuco","lat":-8.604487,"lon":-77.1492362,"type":"town"},{"id":"4937584722","name":"U","lat":-16.4596782,"lon":-71.5543253,"type":"city_block"},{"id":"4937631921","name":"F","lat":-16.4512871,"lon":-71.552262,"type":"city_block"},{"id":"4942649121","name":"27","lat":-16.364677,"lon":-71.5161516,"type":"city_block"},{"id":"4959209829","name":"San Marcos de la Aguada","lat":-12.664806,"lon":-76.6182128,"type":"town"},{"id":"4972700923","name":"N","lat":-16.3588789,"lon":-72.1898691,"type":"city_block"},{"id":"4975672623","name":"B","lat":-16.390201,"lon":-71.5674995,"type":"city_block"},{"id":"4980156821","name":"F","lat":-16.3921071,"lon":-71.5120443,"type":"city_block"},{"id":"4980171623","name":"Z","lat":-16.392203,"lon":-71.5095353,"type":"city_block"},{"id":"5020295022","name":"J","lat":-16.3699585,"lon":-71.5667333,"type":"city_block"},{"id":"5049077423","name":"E","lat":-16.4517461,"lon":-71.6148643,"type":"city_block"},{"id":"5056417521","name":"J","lat":-16.4363089,"lon":-71.522688,"type":"city_block"},{"id":"5056437821","name":"B","lat":-16.4378148,"lon":-71.5257196,"type":"city_block"},{"id":"5056488722","name":"H","lat":-16.4321893,"lon":-71.5235915,"type":"city_block"},{"id":"5056498522","name":"A","lat":-16.4284679,"lon":-71.5208921,"type":"city_block"},{"id":"5056682021","name":"M","lat":-16.4296179,"lon":-71.4980883,"type":"city_block"},{"id":"5067269320","name":"Irrigación Santa Rosa","lat":-11.23416,"lon":-77.3787169,"type":"town"},{"id":"5067363821","name":"I","lat":-16.3963806,"lon":-71.553512,"type":"city_block"},{"id":"5073862762","name":"Sayán","lat":-11.1334544,"lon":-77.1933953,"type":"town"},{"id":"5106694556","name":"Panao","lat":-9.8974849,"lon":-75.9942918,"type":"town"},{"id":"5107762922","name":"A","lat":-16.4046333,"lon":-71.553296,"type":"city_block"},{"id":"5107762923","name":"K","lat":-17.0713481,"lon":-71.7222951,"type":"city_block"},{"id":"5107763021","name":"C","lat":-16.4142024,"lon":-71.528572,"type":"city_block"},{"id":"5107763022","name":"B","lat":-16.4032101,"lon":-71.5513248,"type":"city_block"},{"id":"5107763024","name":"LL","lat":-16.3796439,"lon":-71.5291541,"type":"city_block"},{"id":"5107763321","name":"D","lat":-16.4208269,"lon":-71.5075169,"type":"city_block"},{"id":"5107821621","name":"A","lat":-17.0761933,"lon":-71.7227665,"type":"city_block"},{"id":"5108736984","name":"Yanahuanca","lat":-10.4913156,"lon":-76.5166359,"type":"town"},{"id":"5121184074","name":"Chaglla","lat":-9.8449412,"lon":-75.9030616,"type":"town"},{"id":"5146130121","name":"C","lat":-12.0586771,"lon":-77.1280796,"type":"city_block"},{"id":"5153574522","name":"G","lat":-5.2036501,"lon":-80.6355926,"type":"city_block"},{"id":"5153582421","name":"F","lat":-5.2035748,"lon":-80.6360807,"type":"city_block"},{"id":"5153632823","name":"M","lat":-5.1765056,"lon":-80.6784507,"type":"city_block"},{"id":"5177258133","name":"A","lat":-5.1918153,"lon":-80.6366469,"type":"city_block"},{"id":"5177258223","name":"H","lat":-5.2046772,"lon":-80.6360627,"type":"city_block"},{"id":"5177378627","name":"D","lat":-5.1779607,"lon":-80.6467754,"type":"city_block"},{"id":"5177378628","name":"L","lat":-5.1815583,"lon":-80.6423258,"type":"city_block"},{"id":"5177389623","name":"A","lat":-5.179093,"lon":-80.6465117,"type":"city_block"},{"id":"5177389624","name":"B","lat":-5.1793176,"lon":-80.6457308,"type":"city_block"},{"id":"5177389625","name":"T","lat":-5.1800679,"lon":-80.6424008,"type":"city_block"},{"id":"5177389821","name":"C","lat":-5.178432,"lon":-80.6461661,"type":"city_block"},{"id":"5177389822","name":"E","lat":-5.1772664,"lon":-80.6471305,"type":"city_block"},{"id":"5177389823","name":"N","lat":-5.1793669,"lon":-80.6430198,"type":"city_block"},{"id":"5177389824","name":"O","lat":-5.1797671,"lon":-80.6426375,"type":"city_block"},{"id":"5177389825","name":"S","lat":-5.1807754,"lon":-80.6426493,"type":"city_block"},{"id":"5177389826","name":"P","lat":-5.1789932,"lon":-80.6418651,"type":"city_block"},{"id":"5177390921","name":"Q","lat":-5.1803744,"lon":-80.6417679,"type":"city_block"},{"id":"5188364822","name":"C","lat":-5.1807652,"lon":-80.6412998,"type":"city_block"},{"id":"5188364823","name":"A","lat":-5.1812525,"lon":-80.6403018,"type":"city_block"},{"id":"5188364824","name":"F","lat":-5.179852,"lon":-80.6407135,"type":"city_block"},{"id":"5188364825","name":"G","lat":-5.1794359,"lon":-80.6408513,"type":"city_block"},{"id":"5188364826","name":"H","lat":-5.1789932,"lon":-80.6398404,"type":"city_block"},{"id":"5188364828","name":"I","lat":-5.1786012,"lon":-80.6401454,"type":"city_block"},{"id":"5188364829","name":"D","lat":-5.1772134,"lon":-80.6453756,"type":"city_block"},{"id":"5188401823","name":"X","lat":-5.1779796,"lon":-80.6415826,"type":"city_block"},{"id":"5188403421","name":"B","lat":-5.1816803,"lon":-80.6411339,"type":"city_block"},{"id":"5188403621","name":"E","lat":-5.1803673,"lon":-80.6404879,"type":"city_block"},{"id":"5188403622","name":"J","lat":-5.1777642,"lon":-80.6405703,"type":"city_block"},{"id":"5188403623","name":"E","lat":-5.1779775,"lon":-80.6450075,"type":"city_block"},{"id":"5188403624","name":"F","lat":-5.1776467,"lon":-80.6455282,"type":"city_block"},{"id":"5188403625","name":"C","lat":-5.1772791,"lon":-80.6461831,"type":"city_block"},{"id":"5188405321","name":"B","lat":-5.1781477,"lon":-80.6457773,"type":"city_block"},{"id":"5199761121","name":"Manzana M","lat":-5.1880358,"lon":-80.6171223,"type":"city_block"},{"id":"5205427523","name":"F","lat":-5.2027832,"lon":-80.6358364,"type":"city_block"},{"id":"5208267325","name":"Mz 18","lat":-6.790055,"lon":-79.8636494,"type":"city_block"},{"id":"5208302927","name":"Mz 3","lat":-6.7878389,"lon":-79.8666139,"type":"city_block"},{"id":"5208303424","name":"Mz 2","lat":-6.786996,"lon":-79.8659742,"type":"city_block"},{"id":"5211708321","name":"M","lat":-5.1671081,"lon":-80.6622132,"type":"city_block"},{"id":"5225650923","name":"B","lat":-5.1773343,"lon":-80.6399997,"type":"city_block"},{"id":"5225654222","name":"C","lat":-5.1769219,"lon":-80.6403561,"type":"city_block"},{"id":"5225654223","name":"A","lat":-5.177903,"lon":-80.6396083,"type":"city_block"},{"id":"5235652181","name":"Pichari","lat":-12.5201296,"lon":-73.8282497,"type":"town"},{"id":"5261391622","name":"B","lat":-5.17308,"lon":-80.6238861,"type":"city_block"},{"id":"5271649523","name":"N","lat":-5.1886958,"lon":-80.6433132,"type":"city_block"},{"id":"5271676122","name":"Ñ","lat":-5.1885319,"lon":-80.6439807,"type":"city_block"},{"id":"5281075821","name":"A","lat":-5.1830239,"lon":-80.630847,"type":"city_block"},{"id":"5281088621","name":"L","lat":-5.1835208,"lon":-80.632018,"type":"city_block"},{"id":"5281088721","name":"B","lat":-5.1836897,"lon":-80.6316504,"type":"city_block"},{"id":"5288596530","name":"N","lat":-5.203466,"lon":-80.6376566,"type":"city_block"},{"id":"5290799921","name":"J","lat":-5.1735731,"lon":-80.6433142,"type":"city_block"},{"id":"5326264643","name":"Jauja","lat":-11.7751615,"lon":-75.5000068,"type":"town"},{"id":"5365497919","name":"Balsapuerto","lat":-5.831621,"lon":-76.5598614,"type":"town"},{"id":"5365654546","name":"Villa Trompeteros","lat":-3.8063965,"lon":-75.0605713,"type":"town"},{"id":"5444457521","name":"A","lat":-5.1730898,"lon":-80.6541691,"type":"city_block"},{"id":"5460950534","name":"Primavera","lat":-11.0105387,"lon":-77.6098236,"type":"town"},{"id":"5465821341","name":"L","lat":-16.4251446,"lon":-71.5170047,"type":"city_block"},{"id":"5480400637","name":"Victor Raúl","lat":-8.405115,"lon":-78.8227251,"type":"town"},{"id":"5480400640","name":"California","lat":-8.4099011,"lon":-78.8104758,"type":"town"},{"id":"5502413435","name":"Huaral","lat":-11.4954906,"lon":-77.207044,"type":"city"},{"id":"5520633649","name":"Machupicchu Pueblo","lat":-13.1542838,"lon":-72.5256464,"type":"town"},{"id":"5521268861","name":"Nuevo Chao","lat":-8.5109754,"lon":-78.6836925,"type":"town"},{"id":"5521276426","name":"Chao","lat":-8.5390575,"lon":-78.6790415,"type":"town"},{"id":"5625545887","name":"Huicungo","lat":-7.3168109,"lon":-76.7768763,"type":"town"},{"id":"5655394325","name":"Mz E","lat":-6.7874569,"lon":-79.8638141,"type":"city_block"},{"id":"5716701633","name":"C","lat":-5.181424,"lon":-80.6319503,"type":"city_block"},{"id":"5716701634","name":"W","lat":-5.2006813,"lon":-80.6451364,"type":"city_block"},{"id":"5716702425","name":"B","lat":-5.1813936,"lon":-80.632768,"type":"city_block"},{"id":"5716702526","name":"E","lat":-5.1820921,"lon":-80.6323127,"type":"city_block"},{"id":"5747996563","name":"Humaya","lat":-11.0977383,"lon":-77.4081608,"type":"town"},{"id":"5749572077","name":"URB. EL PALACIO II (MZ.H)","lat":-16.4295248,"lon":-71.5695892,"type":"city_block"},{"id":"5749580969","name":"URB. EL PALACIO II (MZ.G)","lat":-16.4306909,"lon":-71.569844,"type":"city_block"},{"id":"5749587240","name":"(MZ.R)","lat":-16.4261843,"lon":-71.5719803,"type":"city_block"},{"id":"5749618323","name":"B","lat":-16.4531739,"lon":-71.6128114,"type":"city_block"},{"id":"5749643822","name":"Asociación Vivienda Los Montoneros","lat":-16.4503368,"lon":-71.6145206,"type":"city_block"},{"id":"5751958824","name":"A","lat":-16.4166659,"lon":-71.5302414,"type":"city_block"},{"id":"5752171722","name":"URB.LAS ORQUIDIAS (MZ.H)","lat":-16.4108402,"lon":-71.5253802,"type":"city_block"},{"id":"5752179723","name":"G","lat":-16.411352,"lon":-71.5179637,"type":"city_block"},{"id":"5754257622","name":"VILLA CHACHAS (MZ.C)","lat":-16.3652919,"lon":-71.5154062,"type":"city_block"},{"id":"5759122558","name":"MZ.D","lat":-16.3791952,"lon":-71.522941,"type":"city_block"},{"id":"5759181821","name":"4","lat":-17.6495586,"lon":-71.3284709,"type":"city_block"},{"id":"5766214353","name":"H","lat":-16.4117509,"lon":-71.530717,"type":"city_block"},{"id":"5766293153","name":"Urb. Lambramani (MZ.E)","lat":-16.4083425,"lon":-71.5236914,"type":"city_block"},{"id":"5766306653","name":"URB. LAS ORIQUIDIAS (MZ.H)","lat":-16.4108259,"lon":-71.5253742,"type":"city_block"},{"id":"5766440453","name":"C","lat":-16.3995559,"lon":-71.5446074,"type":"city_block"},{"id":"5766551253","name":"MZ.B","lat":-16.3997509,"lon":-71.5492702,"type":"city_block"},{"id":"5766553753","name":"Urbanización Magisterial 3ª Etapa (MZ.F)","lat":-16.399912,"lon":-71.5529241,"type":"city_block"},{"id":"5773334053","name":"N","lat":-5.1767303,"lon":-80.6092043,"type":"city_block"},{"id":"5773342953","name":"BM","lat":-5.1815327,"lon":-80.6116343,"type":"city_block"},{"id":"5773617353","name":"Urbanización Tahuaycani (MZ.H)","lat":-16.4075054,"lon":-71.5550091,"type":"city_block"},{"id":"5773618253","name":"Urbanización Andrés Belaúnde (MZ.A)","lat":-16.4021281,"lon":-71.5508501,"type":"city_block"},{"id":"5779623756","name":"Urb. Buganbillas (MZ.B)","lat":-16.3914872,"lon":-71.5655666,"type":"city_block"},{"id":"5782068156","name":"Urbanización Quinta Tahuaycani (MZ.B)","lat":-16.4064974,"lon":-71.5567435,"type":"city_block"},{"id":"5782091753","name":"ZAMACOLA (MZ.L)","lat":-16.3951194,"lon":-71.5459758,"type":"city_block"},{"id":"5782105655","name":"MZ.A","lat":-16.3981867,"lon":-71.5521919,"type":"city_block"},{"id":"5782125653","name":"MZ.D","lat":-16.3976885,"lon":-71.5526404,"type":"city_block"},{"id":"5784459853","name":"I","lat":-16.3919023,"lon":-71.5127868,"type":"city_block"},{"id":"5796943454","name":"MZ.A","lat":-16.337812,"lon":-71.5441534,"type":"city_block"},{"id":"5796944453","name":"A2","lat":-16.3381089,"lon":-71.5435848,"type":"city_block"},{"id":"5813517553","name":"Y-4","lat":-5.1859649,"lon":-80.619985,"type":"city_block"},{"id":"5820816858","name":"Villa hermoza (MZ.F)","lat":-16.4276125,"lon":-71.5453253,"type":"city_block"},{"id":"5823276165","name":"M","lat":-16.4298144,"lon":-71.5252519,"type":"city_block"},{"id":"5824563554","name":"O","lat":-5.1717993,"lon":-80.6351378,"type":"city_block"},{"id":"5834311087","name":"AQ","lat":-5.1779706,"lon":-80.6108131,"type":"city_block"},{"id":"5834311088","name":"AR","lat":-5.177224,"lon":-80.6106179,"type":"city_block"},{"id":"5844463285","name":"K5","lat":-16.5967103,"lon":-72.7450404,"type":"city_block"},{"id":"5847776411","name":"A","lat":-13.5392611,"lon":-71.9343212,"type":"city_block"},{"id":"5847776412","name":"B","lat":-13.5392431,"lon":-71.9338282,"type":"city_block"},{"id":"5847776413","name":"C","lat":-13.5393689,"lon":-71.9333414,"type":"city_block"},{"id":"5847776415","name":"I","lat":-13.5406509,"lon":-71.9330764,"type":"city_block"},{"id":"5847776416","name":"H","lat":-13.5405251,"lon":-71.9335817,"type":"city_block"},{"id":"5847776417","name":"G","lat":-13.5403993,"lon":-71.9340932,"type":"city_block"},{"id":"5847776418","name":"F","lat":-13.5403095,"lon":-71.9345492,"type":"city_block"},{"id":"5847776419","name":"J","lat":-13.5406106,"lon":-71.9321867,"type":"city_block"},{"id":"5847776420","name":"K","lat":-13.5410351,"lon":-71.9322449,"type":"city_block"},{"id":"5847794231","name":"O","lat":-13.5419017,"lon":-71.9324602,"type":"city_block"},{"id":"5847794232","name":"M","lat":-13.5414949,"lon":-71.9323851,"type":"city_block"},{"id":"5847794233","name":"R","lat":-13.5423502,"lon":-71.9325675,"type":"city_block"},{"id":"5847794234","name":"Ñ","lat":-13.5416827,"lon":-71.9335975,"type":"city_block"},{"id":"5847794235","name":"N","lat":-13.5414428,"lon":-71.9346167,"type":"city_block"},{"id":"5847794236","name":"P","lat":-13.5419121,"lon":-71.9347133,"type":"city_block"},{"id":"5847794237","name":"LL","lat":-13.5412967,"lon":-71.9334902,"type":"city_block"},{"id":"5847794238","name":"Q","lat":-13.5421147,"lon":-71.9337094,"type":"city_block"},{"id":"5847794239","name":"L","lat":-13.541009,"lon":-71.9345248,"type":"city_block"},{"id":"5851759086","name":"MZ.A","lat":-16.4284282,"lon":-71.5386798,"type":"city_block"},{"id":"5852907736","name":"D","lat":-5.176506,"lon":-80.6502964,"type":"city_block"},{"id":"5854838233","name":"\"Zona Militar\"","lat":-13.2570315,"lon":-72.2672264,"type":"city_block"},{"id":"5860951697","name":"AN","lat":-5.1773497,"lon":-80.6097655,"type":"city_block"},{"id":"5860952001","name":"AS","lat":-5.1759165,"lon":-80.6102782,"type":"city_block"},{"id":"5860952088","name":"AM","lat":-5.1784957,"lon":-80.6100718,"type":"city_block"},{"id":"5866565085","name":"AB","lat":-5.1794341,"lon":-80.60929,"type":"city_block"},{"id":"5866565088","name":"J","lat":-5.1744491,"lon":-80.6090026,"type":"city_block"},{"id":"5866565185","name":"AJ","lat":-5.1785496,"lon":-80.6096559,"type":"city_block"},{"id":"5866565285","name":"AH","lat":-5.1784908,"lon":-80.6092407,"type":"city_block"},{"id":"5866565386","name":"R","lat":-5.1745375,"lon":-80.6086379,"type":"city_block"},{"id":"5866565485","name":"O","lat":-5.1767218,"lon":-80.6087857,"type":"city_block"},{"id":"5866565486","name":"S","lat":-5.175576,"lon":-80.6089075,"type":"city_block"},{"id":"5866565585","name":"P","lat":-5.1755745,"lon":-80.6085259,"type":"city_block"},{"id":"5866565586","name":"K","lat":-5.1754877,"lon":-80.6092713,"type":"city_block"},{"id":"5868541685","name":"12","lat":-17.655535,"lon":-71.3376234,"type":"city_block"},{"id":"5868624686","name":"(MZ.C)","lat":-16.4281807,"lon":-71.5450741,"type":"city_block"},{"id":"5870978185","name":"AF","lat":-5.178702,"lon":-80.6088971,"type":"city_block"},{"id":"5870978186","name":"AC","lat":-5.1787875,"lon":-80.6085603,"type":"city_block"},{"id":"5870978189","name":"AE2","lat":-5.1766631,"lon":-80.6074837,"type":"city_block"},